time,gePosition_m_X,gePosition_m_Y,gePosition_m_Z,eiPosition_m_X,eiPosition_m_Y,eiPosition_m_Z,eiVelocity_m_s_X,eiVelocity_m_s_Y,eiVelocity_m_s_Z,eiAccel_m_s2_X,eiAccel_m_s2_Y,eiAccel_m_s2_Z,semiMajorAxis_m,gast_rad,eulerAngle_rad_Roll,eulerAngle_rad_Pitch,eulerAngle_rad_Yaw,eulerAngleWrtEi_rad_Roll,eulerAngleWrtEi_rad_Pitch,eulerAngleWrtEi_rad_Yaw,bodyAngularRateWrtEi_rad_s_Roll,bodyAngularRateWrtEi_rad_s_Pitch,bodyAngularRateWrtEi_rad_s_Yaw,altitudeMsl_m,airDensity_kg_m3,ambientTemperature_dgK,eiGravitation_m_s2_X,eiGravitation_m_s2_Y,eiGravitation_m_s2_Z
0.0,-1436381.4663574744,4185811.709981752,5163944.671561651,-4315967.74,960356.1999999998,5167269.529999999,129.09103699999832,-7491.513854999997,1452.5156539999987,5.454625131067385,-1.2138144220968596,-6.549221622251012,6759053.075789562,1.0233194459853856,5.666859310090004E-17,-0.20245819323134254,-4.604323189448128E-17,-2.471593905564226,-0.03718896475784017,-1.428993135204368,4.658681209898652E-20,-0.0011222300308759384,4.0657581468206416E-20,434989.54081172694,1.6159166507157113E-12,978.0522572877376,5.454625154633913,-1.2138152715151973,-6.54922145033744
60.0,-1794959.8508170615,3943151.697485928,5239238.324625542,-4298410.7939647185,509021.6359097717,5242566.739504584,455.9658050909133,-7547.272642544801,1056.3788925818144,5.437155822561314,-0.6439572503913006,-6.650456553095765,6758724.500125604,1.027694715234372,-3.1574687269048816E-6,-0.20243702513304224,-9.14134930903385E-5,-2.472045194408246,0.015605902028426027,-1.3871941836888853,4.658681209898652E-20,-0.0011222300308759384,4.0657581468206416E-20,433110.2771984747,1.726365747849421E-12,985.105719217911,5.437155884928935,-0.6439581653493605,-6.650456419481195
120.0,-2147589.7814042666,3685729.3719886187,5290614.344696852,-4261287.364286073,55370.002289640164,5293931.16491573,781.0646116960256,-7568.710297239959,655.0514646658985,5.395433365376597,-0.07017971867120323,-6.722165246247523,6758493.854310531,1.0320699844833425,-1.2685363963694694E-5,-0.20237116488468374,-1.8242792335911089E-4,-2.4702868220479717,0.06837346634951039,-1.3453262663514858,4.658681209898652E-20,-0.0011222300308759384,4.0657581468206416E-20,430971.3448718014,1.8573591631048883E-12,992.8757168718407,5.395433472252278,-0.07018070667391947,-6.7221651570759775
180.0,-2492787.66386566,3414636.835003052,5317814.667445884,-4204747.625517486,-398533.83167273545,5321104.78003397,1102.9344381465173,-7555.664440722444,250.31799887571574,5.329545459494136,0.5050853851192882,-6.763930853491119,6758365.657732996,1.0364452537322815,-2.8624032941406505E-5,-0.202257219239611,-2.7219344336921385E-4,-2.4662973075153496,0.12102070149999372,-1.3031548243083342,4.658681209898652E-20,-0.0011222300308759384,4.0657581468206416E-20,428579.1824871831,2.0112184613647143E-12,1001.3136537656122,5.329545617850852,0.5050843161812001,-6.763930816576308
240.0,-2829089.625471047,3131016.1015027785,5320688.922763338,-4129028.720003541,-850619.6490455978,5323937.320412172,1420.130304230392,-7508.119443646817,-156.01518695545033,5.239672555443819,1.0793802371479875,-6.775447724447688,6758342.69053208,1.0408205229812044,-5.095591257670251E-5,-0.20209199664039412,-3.5986640255455916E-4,-2.460027840101518,0.17345209177142892,-1.2604406632143343,4.658681209898652E-20,-0.0011222300308759384,4.0657581468206416E-20,425942.6943278675,2.190250660312838E-12,1010.3345565761733,5.239672773634029,1.0793790793163067,-6.775447749507162
300.0,-3155057.4417715147,2836054.7290013563,5299195.534392158,-4034454.1078845826,-1298820.7314278935,5302387.382818882,1731.2208702269452,-7426.207740391722,-562.1268446758668,5.126089097507498,1.6502282861256015,-6.756524331701513,6758425.928178353,1.0451957922300796,-7.96049206115012E-5,-0.20187252439239042,-4.446152207369937E-4,-2.451401532058155,0.22556763079897746,-1.21693635378477,4.658681209898652E-20,-0.0011222300308759384,4.0657581468206416E-20,423073.2560912346,2.3966837286411917E-12,1019.8214644458087,5.126089385339851,1.6502270317757668,-6.756524430559335
360.0,-3469284.4743094393,2530981.292373534,5253402.408937448,-3921432.578711776,-1741082.772520035,5256523.113818769,2034.7941149484068,-7310.210753474151,-966.1877343751572,4.989164807742517,2.215140971309695,-6.707086330304363,6758614.503036184,1.049571061478955,-1.1443621794017429E-4,-0.20159606518413617,-5.256261881787651E-4,-2.440312300130583,0.2772606847082967,-1.1723826141699925,4.658681209898652E-20,-0.0011222300308759384,4.0657581468206416E-20,419984.6874970007,2.6326400830323887E-12,1029.6360625817858,4.989165176515744,2.2151396136080654,-6.707086517047427
420.0,-3770401.6032415438,2217060.7109371806,5183487.203254592,-3790456.920062511,-2175372.834775213,5186522.476465715,2329.463090955843,-7160.559400035902,-1366.367749736215,4.829365965775945,2.7716249519729472,-6.627179717449478,6758905.694278567,1.0539463307277828,-1.5525635459215568E-4,-0.20126013283978092,-6.021091512346488E-4,-2.4266234488935607,0.3284156602672077,-1.1265047086281983,4.658681209898652E-20,-0.0011222300308759384,4.0657581468206416E-20,416693.19102200284,2.900148085461289E-12,1039.6327096328644,4.829366428270136,2.7716234853619834,-6.627180008530949
480.0,-4057083.136999894,1895589.4345683716,5089737.158861045,-3642102.2385678017,-2599688.3230762947,5092673.083749556,2613.871755001909,-6977.834146809647,-1760.8432347038656,4.64725662568657,3.3171899438097903,-6.516974039720256,6759294.947255631,1.0583215999766105,-2.01813809220571E-4,-0.20086250718391838,-6.733030442660619E-4,-2.410166082393471,0.37890541913182324,-1.079008951413574,4.658681209898652E-20,-0.0011222300308759384,4.0657581468206416E-20,413217.256491632,3.201172058474882E-12,1049.6718453238236,4.6472571961144515,3.3171883645037923,-6.516974454009626
540.0,-4328052.679067235,1567890.4961467774,4972548.491852134,-3477023.928991602,-3012065.9472018955,4975371.5872722445,2886.7008678404177,-6762.764574535772,-2147.8044922873096,4.443499698400176,3.849357247176621,-6.376765576957924,6759775.923122748,1.0626968692254064,-2.5379992979427887E-4,-0.2004012478989405,-7.384812320452932E-4,-2.390737553668885,0.4285883837546494,-1.0295794903450843,4.658681209898652E-20,-0.0011222300308759384,4.0657581468206416E-20,409577.53171068965,3.5376315440611144E-12,1059.6295544018494,4.443500392318095,3.8493555536664914,-6.37676613573693
600.0,-4582088.929712123,1235308.438462283,4832425.326888593,-3295955.2874907916,-3410590.642358809,4835122.609717034,3146.6739528897715,-6516.228408135085,-2525.463481516899,4.218857816321474,4.3656690372492015,-6.206980413983941,6760340.579202285,1.0670721384741706,-3.108502828328439E-4,-0.1998747072517643,-7.969566277119986E-4,-2.3681002878841557,0.47730529221938167,-0.9778756738827268,4.658681209898652E-20,-0.0011222300308759384,4.0657581468206416E-20,405796.65979919455,3.911384375080453E-12,1069.4020620810372,4.218858650493226,4.365667230825929,-6.206981140881156
660.0,-4818031.39818048,899204.1248379989,4669978.1642339965,-3099704.7659706883,-3793404.414320935,4672537.210085116,3392.5632979305733,-6239.249965283172,-2892.061692743322,3.9741938868704603,4.863698467156535,-6.008177294749117,6760979.280153619,1.0714474077229348,-3.7254641300463534E-4,-0.19928154156914377,-8.480865570160654E-4,-2.3419815006359914,0.5248755839273315,-0.9235304947795272,4.658681209898652E-20,-0.0011222300308759384,4.0657581468206416E-20,401899.0844126193,4.3241603725954E-12,1078.9058300901925,3.9741948790702337,4.8636965524644555,-6.008178215596806
720.0,-5034785.998425878,560949.4441588984,4485921.869605938,-2889152.865574643,-4158715.0727948374,4488330.871460697,3623.1959781664846,-5932.997973644802,-3245.878184684593,3.7104712336813206,5.341060612058559,-5.781050138601154,6761680.939569898,1.075822676973096,-4.384180169893371E-4,-0.1986207213390484,-8.912773417728738E-4,-2.3120745961866445,0.5710934443673489,-0.8661508699167281,4.658681209898652E-20,-0.0011222300308759384,4.0657581468206416E-20,397910.82456398814,4.777444982633107E-12,1088.0748863939662,3.7104724024176226,5.341058597681123,-5.7810512811898525
780.0,-5231330.49906387,221921.92264915595,4281073.177823668,-2665248.6688305563,-4504804.813612678,4283321.002285304,3837.459872733293,-5598.782706134847,-3585.2377590209235,3.4287532189381444,5.795424255265164,-5.526430085943488,6762433.191092044,1.0801979462217968,-5.079455266675637E-4,-0.19789153982250732,-9.259885791888353E-4,-2.2780433838384093,0.615723617559181,-0.8053208725177817,4.658681209898652E-20,-0.0011222300308759384,4.0657581468206416E-20,393859.22132285225,5.272320149065096E-12,1096.8570441740876,3.428754583079737,5.79542215433171,-5.526431479645221
840.0,-5406719.795906112,-116500.74315473848,4056347.7029318004,-2429006.011846758,-4830038.607331854,4058423.9438204104,4034.309640263783,-5238.052384398834,-3908.5192400779647,3.130202238140334,6.224524487293989,-5.245286931285355,6763222.587545411,1.0845732154704657,-5.805630993043361E-4,-0.1970936200602275,-9.517370959895202E-4,-2.2395306890722204,0.6584972253796945,-0.740609474167974,4.658681209898652E-20,-0.0011222300308759384,4.0657581468206416E-20,389772.65923849755,5.809273031277204E-12,1105.2101810793247,3.130203816427969,6.224522318079834,-5.24528860651637
900.0,-5560090.973329104,-452946.2158599557,3812756.449683478,-2181499.300209079,-5132872.348902725,3814651.478682908,4212.772612618743,-4852.3888034251095,-4214.163818436072,2.8160779799580364,6.626176055886848,-4.938729796257753,6764034.8259558175,1.0889484847191346,-6.556620069486697E-4,-0.19622692016830592,-9.681005613305855E-4,-2.196173409612028,0.6991080320292795,-0.6715848301085134,4.658681209898652E-20,-0.0011222300308759384,4.0657581468206416E-20,385680.26590407145,6.387983995615512E-12,1113.0991834376678,2.816079790391679,6.626173842363465,-4.938731783756167
960.0,-5690668.1188279325,-786053.0901474424,3551401.8240024047,-1923858.974873167,-5411860.720373455,3553106.8380758613,4371.954559590865,-4443.502134956745,-4500.683408405076,2.487734849113169,6.9982873702848405,-4.608006894233747,6764854.995614051,1.0933237539677718,-7.325944132911203E-4,-0.19529173682309525,-9.747207442995565E-4,-2.1476264376971796,0.7372098731360949,-0.5978375145808231,4.658681209898652E-20,-0.0011222300308759384,4.0657581468206416E-20,381611.59363603604,7.007105759381493E-12,1120.493733218516,2.487736908213002,6.9982851425636605,-4.608009224136347
1020.0,-5797766.853625231,-1114476.4879193043,3273473.1433083946,-1657266.637358393,-5665664.716256074,3274980.208604545,4511.045271526542,-4013.224874235726,-4766.668960499807,2.146618459693763,7.338875027543951,-4.254504242316466,6765667.845635319,1.0976990232163775,-8.10677525373396E-4,-0.19428870684818605,-9.713064038806064E-4,-2.0935978557393606,0.7724163273709495,-0.5190151007713463,4.658681209898652E-20,-0.0011222300308759384,4.0657581468206416E-20,377596.2877698054,7.664046713134747E-12,1127.3668711820383,2.1466207816444176,7.338872822147423,-4.254506943032042
1080.0,-5880798.541145562,-1436893.6518838396,2980241.6513765603,-1382949.8468905918,-5893058.779310199,2981543.7433557482,4629.323901648683,-3563.5049036040923,-5010.798661657151,1.794261120108899,7.646078693586451,-3.8797431860955407,6766458.067739609,1.1020742924649671,-8.891980998190827E-4,-0.19321880682789955,-9.57635802810749E-4,-2.033896939957247,0.8043040940336778,-0.4348696089350727,4.658681209898652E-20,-0.0011222300308759384,4.0657581468206416E-20,373663.74655074946,8.354773363424164E-12,1133.694165763656,1.7942637158095318,7.646076553474663,-3.8797462829892404
1140.0,-5939274.134654393,-1752009.5113648209,2673055.046666151,-1102176.6057666917,-6092937.493231526,2674146.0861869548,4726.164005656949,-3096.397657535146,-5231.845948295142,1.432276249007577,7.918176138433775,-3.4853766180010086,6767210.589273928,1.1064495617135248,-9.674172848019381E-4,-0.19208335068603397,-9.335588368458733E-4,-1.9684941526999837,0.8324218222327848,-0.3453169937497679,4.658681209898652E-20,-0.0011222300308759384,4.0657581468206416E-20,369842.77800488315,9.073648989423824E-12,1139.453295245252,1.4322791250651,7.918174112715609,-3.485380131924773
1200.0,-5972807.62547112,-2058562.1918152748,2353331.5377476965,-816249.5530545899,-6264321.778188109,2354206.422867703,4801.038213188941,-2614.0573866190744,-5428.687250770757,1.062351683680809,8.153598195161713,-3.0731837913452664,6767910.87085122,1.110824830962067,-0.0010445757717460389,-0.19088398518650562,-8.9899877281089E-4,-1.8975879558911621,0.8563060762491734,-0.2505034948146101,4.658681209898652E-20,-0.0011222300308759384,4.0657581468206416E-20,366161.2594902871,9.81332715869969E-12,1144.623864316801,1.062354841398505,8.153596338427695,-3.073187737072136
1260.0,-5981119.053960558,-2355328.43742563,2022553.4445046962,-526499.890722864,-6406364.5354291815,2023208.0777660422,4853.522464173824,-2118.727532633193,-5600.309382700063,0.6862418683119016,8.350943387122019,-2.645063659039373,6768545.202428017,1.115200100210593,-0.0011198992276244184,-0.18962268333077245,-8.539535890114672E-4,-1.8216671353379268,0.875505392693743,-0.1508675324626657,4.658681209898652E-20,-0.0011222300308759384,4.0657581468206416E-20,362645.8058365177,1.0564718678875415E-11,1149.1872931925393,0.6862453027391984,8.350941758352965,-2.6450680436823024
1320.0,-5964037.047036976,-2641128.9144323403,1682260.3690803056,-234281.0703169994,-6518355.688390371,1682691.6800704394,4883.299743205384,-1612.730242745733,-5745.816485279267,0.3057589382515923,8.50899194944606,-2.2030266979817466,6769100.991209944,1.1195753694590873,-0.00119260397625557,-0.18830173564955435,-7.984969112528702E-4,-1.741551137545755,0.8896117212821428,-0.04717964371912847,4.658681209898652E-20,-0.0011222300308759384,4.0657581468206416E-20,359321.45205093425,1.1317046844003528E-11,1153.1265852372032,0.30576263737031856,8.508990610477678,-2.2030315194970433
1380.0,-5921500.848211163,-2914833.3613459934,1334041.9659800283,59037.72773479134,-6599726.569903499,1334247.928981221,4890.163246949571,-1098.4550677049474,-5864.436435475383,-0.07723725263953427,8.626718960168102,-1.7491852164122483,6769567.034512783,1.123950638707566,-0.0012619028919407037,-0.1869237394059381,-7.327785382998422E-4,-1.6583883691202068,0.8982960218289323,0.05945959770671923,4.658681209898652E-20,-0.0011222300308759384,4.0657581468206416E-20,356211.35650245287,1.2058020446535604E-11,1156.4264425104489,-0.0772333085068191,8.626717973723936,-1.7491904623096706
1440.0,-5853561.809276335,-3175365.551409185,979530.34618681,352078.2863086991,-6650053.608325296,979509.9927540673,4874.018923375544,-578.3469060406914,-5955.526627962917,-0.460850082723017,8.703306294668808,-1.2857421809779646,6769933.770631829,1.1283259079560126,-0.0013270114656411096,-0.18549158575216584,-6.570245493061721E-4,-1.5735978370238188,0.9013421412667296,0.167678304848736,4.658681209898652E-20,-0.0011222300308759384,4.0657581468206416E-20,353336.53026657045,1.2774150850641136E-11,1159.0741486794986,-0.4608459211930634,8.703305722016776,-1.2857478273751746
1500.0,-5760384.316544832,-3421708.0322275166,620392.1554582855,643460.1758755362,-6669061.269631827,620145.581794376,4834.88732728362,-54.89327328820756,-6018.579044122177,-0.8431579810338287,8.738153125381425,-0.8149786414654621,6770193.500929485,1.1327011772044275,-0.0013871540007679868,-0.18400844490586485,-5.715369848642816E-4,-1.4887544881284087,0.8986716537957294,0.2759482912658581,4.658681209898652E-20,-0.0011222300308759384,4.0657581468206416E-20,350715.5979275518,1.3451184728276584E-11,1161.0601807273931,-0.8431536375621375,8.738153023720844,-0.8149846526081579
1560.0,-5642246.129066876,-3652906.6077603037,258320.3720099965,931807.668389894,-6656624.217759279,257848.74103794992,4772.904744126558,469.3890085775737,-6053.224527329229,-1.222226973351847,8.730884707233669,-0.33923987241347037,6770340.576738591,1.1370764464528427,-0.0014415698920029767,-0.18247774943517558,-4.7669309216076685E-4,-1.405438464485857,0.8903533889484055,0.3827361639045078,4.658681209898652E-20,-0.0011222300308759384,4.0657581468206416E-20,348364.59459072514,1.407463534132615E-11,1162.378513912422,-1.2222224907058,8.730885126961567,-0.3392462007600891
1620.0,-5499538.111404397,-3868074.5287356097,-104974.1266070398,1215756.6956624608,-6612768.661630881,-105668.58853965394,4688.323543345731,991.9675915489287,-6059.236192124722,-1.596123789196163,8.6813592180215,0.1390796096339102,6770371.545316782,1.1414517157012258,-0.001489519938081719,-0.18090317576733408,-3.7294412565354253E-4,-1.3250831126112976,0.876595054568748,0.4866556617840166,4.658681209898652E-20,-0.0011222300308759384,4.0657581468206416E-20,346296.80315878126,1.4630387184756237E-11,1163.0267206975382,-1.5961192164867284,8.681360200059137,0.13907302269897712
1680.0,-5332763.349208197,-4066396.3590909503,-467771.17359063507,1493961.8050868982,-6537672.864303595,-468685.18540558143,4581.511733132218,1510.3087291388854,-6036.531905472606,-1.9629293409636257,8.589672461140385,0.6175519585045971,6770285.249964635,1.1458269849495775,-0.0015302926362230941,-0.17928862405546733,-2.608136923497451E-4,-1.248857112718567,0.8577192397597972,0.586585879596162,4.658681209898652E-20,-0.0011222300308759384,4.0657581468206416E-20,344522.6351005345,1.510533708849416E-11,1163.0059285437444,-1.9629247322574392,8.589674034518259,0.6175451813125876
1740.0,-5142535.641916796,-4247131.488232897,-828350.0427539722,1765103.0642581964,-6431666.797349438,-829479.2827272022,4452.95170037371,2021.891618190831,-5985.17579095544,-2.3207523700864257,8.456160284644117,1.0937326150675755,6770082.880524024,1.1502022541979289,-0.0015632104046638018,-0.17763819656160834,-1.4089563198718612E-4,-1.1776021910183951,0.8341299041581928,0.6817339182474753,4.658681209898652E-20,-0.0011222300308759384,4.0657581468206416E-20,343049.55700131453,1.5488026785886788E-11,1162.3206947793635,-2.320747782659103,8.456162464541645,1.0937257236998923
1800.0,-4929577.373224381,-4409617.261713981,-1184998.2384670004,2027892.865420701,-6295230.931788205,-1186337.3636594322,4303.238132176555,2524.22281485789,-5905.378721017622,-2.6677430454492868,8.2813986237125,1.5651773792077517,6769767.971745441,1.154577523446217,-0.0015876356772454921,-0.17595617473096323,-1.3851422856572621E-5,-1.1118280220767305,0.8062766880116068,0.7716403607034311,4.658681209898652E-20,-0.0011222300308759384,4.0657581468206416E-20,341882.0641604352,1.5769218431132983E-11,1160.978853215083,-2.6677385377771605,8.281401410124872,1.565170455017767
1860.0,-4694716.76640792,-4553271.706299587,-1536020.2843311306,2281082.580856873,-6128994.165433002,-1537562.955282228,4133.075128348407,3014.8505807979936,-5797.49777781726,-3.002106297025483,8.066201131061476,2.029459672725317,6769346.348468322,1.1589527926945367,-0.0016029768139898802,-0.17424699514954176,1.1959289407115667E-4,-1.0517504053459263,0.7746230677634026,0.8561414947168459,4.658681209898652E-20,-0.0011222300308759384,4.0657581468206416E-20,341021.7014390075,1.5942366459729518E-11,1158.9913817924019,-3.0021019266415787,8.06620450822191,2.029452799492101
1920.0,-4438884.537966686,-4677595.829264778,-1879746.4485597787,2523469.021279336,-5933730.89516847,-1881485.359123142,3943.2725271230315,3491.379015280271,-5662.034679341268,-3.322114673045243,7.8116144191554495,2.48418772252142,6768826.018057931,1.163328061942793,-0.0016086937701199598,-0.1725152245887337,2.5865027785460583E-4,-0.9973527367978705,0.7396217670936759,0.9353082676694179,4.658681209898652E-20,-0.0011222300308759384,4.0657581468206416E-20,340467.1304741871,1.6003946685780045E-11,1156.372332062867,-3.322110494402089,7.811618355780625,2.484180983417714
1980.0,-4163109.969199537,-4782175.476007325,-2214541.3443224193,2753900.650999914,-5710357.251267228,-2216468.256485939,3734.741478764254,3951.481832093964,-5499.633183627834,-3.626120521824435,7.518910996521528,2.927021396702263,6768217.012109332,1.1677033311910492,-0.0016043034677564875,-0.1707655343511212,4.0247673792634966E-4,-0.9484529480630111,0.7016982752092156,1.0093798078855842,4.658681209898652E-20,-0.0011222300308759384,4.0657581468206416E-20,340214.2413261861,1.5953615864526205E-11,1153.138849893855,-3.626116584308502,7.518915446878129,2.9270148712786805
2040.0,-3868516.4211231545,-4866682.734607035,-2538812.344553432,2971283.516075293,-5459926.519131662,-2540918.1280514826,3508.4893130589503,4392.915646760558,-5311.075499649085,-3.9125673190933554,7.189580035371138,3.3556884388986306,6767531.180938201,1.1720786004407024,-0.0015893848150452018,-0.16900267413678097,5.501758713697156E-4,-0.9047641662901265,0.6612415958616468,1.0787032667242924,4.658681209898652E-20,-0.0011222300308759384,4.0657581468206416E-20,340256.3056267094,1.5794190554898255E-11,1149.311303453619,-3.9125636653231135,7.1895849410910095,3.355682200284908
2100.0,-3556316.323375028,-4930876.880686928,-2851017.752885705,3174586.844696553,-5183623.781641627,-2853292.429377846,3265.613756715009,4813.532649283473,-5097.277748086958,-4.179999987285648,6.8253161565628595,3.767999867484149,6766781.945789601,1.176453869688895,-0.0015635833183082364,-0.16723144564975503,7.008038766355266E-4,-0.8659435687353036,0.618600566253703,1.1436855158892063,4.658681209898652E-20,-0.0011222300308759384,4.0657581468206416E-20,340584.1673963275,1.5531450863576518E-11,1144.9135205042664,-4.179996651798962,6.825321449072066,3.767993979986527
2160.0,-3227805.6725396146,-4974604.860554587,-3149674.675363682,3362848.282710949,-4882759.822414995,-3152107.466923908,3007.29656500836,5211.292550094948,-4859.284528400787,-4.427074083466246,6.428006458537971,4.161864335308719,6765984.014951659,1.180829138937088,-0.0015266152395304402,-0.16545667616305995,8.533750306770781E-4,-0.8316283911062119,0.5740839904233815,1.2047577505096667,4.658681209898652E-20,-0.0011222300308759384,4.0657581468206416E-20,341186.46691817057,1.5173790241960166E-11,1139.9731233983125,-4.4270710918668,6.428012061918384,4.1618588525434586
2220.0,-2884358.0790405064,-4997801.315440684,-3433366.541318412,3535178.731225507,-4558764.336597763,-3435945.922951463,2734.7966384316155,5584.273701432284,-4598.262659827664,-4.65256376583947,5.99971604758232,4.5353012804667285,6765153.07098823,1.1852044081852489,-0.0014782712499567076,-0.16368319225641262,0.001006867608665727,-0.8014605219080256,0.5279630998703915,1.2623515766642455,4.658681209898652E-20,-0.0011222300308759384,4.0657581468206416E-20,342049.89241225604,1.4731744896624628E-11,1134.5219373247867,-4.6525611344309015,5.999721881658233,4.535296244118877
2280.0,-2527418.4051655624,-5000488.153890468,-3700750.2261269605,3690766.757630205,-4213178.5011934815,-3703463.9820038932,2449.4426994692126,5930.683312466202,-4315.494172969759,-4.855368483368782,5.5426723465428545,4.886452737583289,6764305.437093651,1.1895796774333782,-0.001418419538205648,-0.1619157939286611,0.001160230215463647,-0.7751020651879247,0.48047523808041687,1.3168842134597762,4.658681209898652E-20,-0.0011222300308759384,4.0657581468206416E-20,343159.45377626363,1.421744412036613E-11,1128.5964346687929,-4.8553662192643925,5.54267832998114,4.886448176824027
2340.0,-2158496.0390270157,-4982773.683616798,-3950562.733381405,3828882.5559646185,-3847646.961333145,-3953398.0164657133,2152.6256069154438,6248.866693443035,-4012.368635230971,-5.034518367264232,5.059248467620531,5.213593720076414,6763457.731057355,1.1939549466814758,-0.0013470083389167658,-0.16015922927705872,0.0013123884967106926,-0.752244307993298,0.4318280279871511,1.3687503877295812,4.658681209898652E-20,-0.0011222300308759384,4.0657581468206416E-20,344498.7723344428,1.3644025334799462E-11,1122.238163998348,-5.03451646892428,5.059254520849291,5.213589651618465
2400.0,-1779157.8509107789,-4944851.317814918,-4181627.399124569,3948881.437214683,-3463909.29225956,-4184570.7938427655,1845.790385449188,6537.315481216698,-3690.3748975045132,-5.189178335303805,4.551945932344128,5.515141124739881,6762626.5155293,1.1983302159295892,-0.001264067847499886,-0.15841816992006275,0.001462252181024503,-0.7326121724846089,0.38220356820713147,1.418318857943312,4.658681209898652E-20,-0.0011222300308759384,4.0657581468206416E-20,346050.38038417057,1.3025055077462989E-11,1115.4940934770243,-5.189176793424872,4.55195198012757,5.515137553464423
2460.0,-1391020.8793036938,-4886997.874219601,-4392859.586112499,4050206.834752694,-3063790.9991519894,-4395897.173709142,1530.4280466350845,6794.67481520433,-3351.092351253567,-5.318650948765052,4.02337700926148,5.789661148829345,6761827.953179395,1.2027054851776549,-0.0011697114998066923,-0.15669718732406246,0.0016087224055239843,-0.7159657603502887,0.33176240803136536,1.4659319787053153,4.658681209898652E-20,-0.0011222300308759384,4.0657581468206416E-20,347796.0243316629,1.2373990530131335E-11,1108.4167728895204,-5.318649747428692,4.023382982811847,5.7896580688835755
2520.0,-995744.7940484786,-4809571.487950328,-4583271.841404508,4132392.8146156645,-2649194.118301645,-4586389.267611248,1208.0672743818209,7019.749448433475,-2996.181784640024,-5.422378086017102,3.4762469187259213,6.035875244905078,6761077.474966105,1.207080754425705,-0.0010641365983117877,-0.15500073017742777,0.0017506992644730924,-0.7021001542334692,0.28064718572357594,1.5119071629553567,4.658681209898652E-20,-0.0011222300308759384,4.0657581468206416E-20,349716.96535967384,1.170370696211088E-11,1101.064186028739,-5.4223772039981135,3.4762527572805038,6.035872641148851
2580.0,-595024.183608695,-4713009.1614334155,-4751978.495834605,4195066.084572889,-2222087.4836329096,-4755161.040475627,880.266043447861,7211.508792504652,-2627.3759239158453,-5.499941515809197,2.913336126267182,6.2526646686328915,6760389.469109996,1.211456023673723,-9.47624275755737E-4,-0.15333310293427965,0.0018870895179155737,-0.6908442813416954,0.2289858978076191,1.5565394616316075,4.658681209898652E-20,-0.0011222300308759384,4.0657581468206416E-20,351794.27185392077,1.102610645057045E-11,1093.4991326705576,-5.49994092794626,2.9133417781042734,6.252662518305233
2640.0,-190580.7124599494,-4597823.976400932,-4898199.688971567,4237947.499889021,-1784496.7222586235,-4901432.337123793,548.6032341744868,7369.090907624535,-2246.469742229803,-5.551062466601885,2.3374829135345907,6.4390736986291275,6759776.99753283,1.2158312929217412,-8.205387947788929E-4,-0.15169844563404744,0.0020168143903602693,-0.6820593755682828,0.1768948151490494,1.6001047527347216,4.658681209898652E-20,-0.0011222300308759384,4.0657581468206416E-20,354009.09821292275,1.0351814311932612E-11,1085.787965431396,-5.5510621451428195,2.3374883364427053,6.439071973109155
2700.0,215844.80677539323,-4464601.994176588,-5021264.807949145,4260853.067302454,-1338494.0417672065,-5024532.322274281,214.67030058851807,7491.8054591628725,-1855.3106127047536,-5.5756002959185125,1.7515663808458388,6.594311624775925,6759251.545533016,1.2202065621697118,-6.833261891697553E-4,-0.15010071508247197,0.0021388173874385507,-0.6756373840650823,0.12448108741901312,1.642863225539049,4.658681209898652E-20,-0.0011222300308759384,4.0657581468206416E-20,356342.94516121974,9.689963483124306E-12,1077.9985447695665,-5.575600211766811,1.7515715420938307,6.5943102913247476
2760.0,622500.3835299005,-4313998.871196164,-5120615.332974978,4263694.45197708,-886187.8703968457,-5123902.326841962,-119.93695731525604,7579.135670364733,-1455.7883764983515,-5.57355036598399,1.1584900000712708,6.717753612188986,6758822.8093591565,1.2245818314176822,-5.365122603548944E-4,-0.1485436674615856,0.002252072054962468,-0.6714995346552755,0.07184508987452876,1.6850629784726325,4.658681209898652E-20,-0.0011222300308759384,4.0657581468206416E-20,358777.8972558637,9.0480645717031E-12,1070.1974055517471,-5.573550489790518,1.1584948759530378,6.717752635576995
2820.0,1027630.8208288308,-4146736.217030666,-5195807.086369493,4246478.995043974,-429712.4092812458,-5199098.097389451,-453.62647262726836,7630.739306950617,-1049.825389966197,-5.5450412294854425,0.5611658027912882,6.80894055255276,6758498.525182475,1.228957100665621,-3.806999501393654E-4,-0.14703084241870426,0.002355589605280804,-0.6695951950211226,0.019082571211794665,1.7269436371919207,4.658681209898652E-20,-0.0011222300308759384,4.0657581468206416E-20,361296.8339028565,8.431959966435617E-12,1062.446370358109,-5.545041532547973,0.5611703778383218,6.808939896498224
2880.0,1429485.6491930876,-3963597.722139206,-5246511.885632197,4209309.251835124,28782.846326984196,-5249791.44923382,-784.8178034839501,7646.448733488703,-639.3666083456368,-5.49033122295154,-0.03750074207733968,6.867578013531575,6758284.341786915,1.2333323699135281,-2.1656611784516897E-4,-0.1455655486681148,0.002448426336233222,-0.6699010994764639,-0.03371333770906496,1.7687399555752512,4.658681209898652E-20,-0.0011222300308759384,4.0657581468206416E-20,363883.6108687025,7.845861802342145E-12,1054.7991510970967,-5.4903316779044395,-0.03749647610922521,6.867577641900679
2940.0,1826326.9860159024,-3765425.082241055,-5272518.604278331,4152382.0630463213,487143.5624226876,-5275771.326958968,-1111.9498050920015,7626.27008385986,-226.3697568848002,-5.409804555965322,-0.6346251335236999,6.893534391353185,6758183.738154801,1.2377076391614352,-4.485775480401213E-5,-0.14415085112443757,0.0025296907705011605,-0.672420983679099,-0.08645019493101144,1.8106853961101195,4.658681209898652E-20,-0.0011222300308759384,4.0657581468206416E-20,366523.2099616875,7.292471838814814E-12,1047.2987100577543,-5.40980513726124,-0.6346211787824558,6.893534269097792
3000.0,2216437.285572539,-3553113.745625873,-5273733.647057948,4075987.172884818,943220.9463473476,-5276944.27895471,-1433.4880539349092,7570.381589118963,187.20436570410396,-5.303966973182353,-1.2273575204924236,6.886838362509314,6758197.986041249,1.2420829084093103,1.336123221913486E-4,-0.14278955957251604,0.0025985504475709675,-0.6771856436975451,-0.13903433958580858,1.8530157035551638,4.658681209898652E-20,-0.0011222300308759384,4.0657581468206416E-20,369201.8552565829,6.773173640644421E-12,1039.9761182166517,-5.303967657385506,-1.2273538741686192,6.8868384563450435
3060.0,2598126.9468016736,-3327608.508982602,-5250180.848696513,3980505.4097998664,1394882.0023624361,-5253334.355131928,-1747.9320005338818,7479.13110590444,599.4014120078336,-5.173441053874265,-1.8128956710195563,6.847675718939131,6758326.156654124,1.246458177657154,3.1797025468525606E-4,-0.14148421886583384,0.0026542383056656,-0.6842534168851083,-0.1913689467470913,1.8959724901330555,4.658681209898652E-20,-0.0011222300308759384,4.0657581468206416E-20,371907.0949355378,6.288275354891745E-12,1032.8512657439016,-5.173441819797992,-1.8128923264120793,6.847675997789391
3120.0,2969741.7478748476,-3089898.9864710774,-5202000.807517314,3866406.4467007047,1840019.6160015687,-5205082.439185491,-2053.821830645873,7353.0328875727555,1008.2828041103204,-5.018961201329789,-2.3884972498533994,6.776385658148419,6758565.169686229,1.2508334469049975,5.072863550931958E-4,-0.14023710063523778,0.002696058597872644,-0.6937110622685335,-0.2433519861205107,1.939806842710843,4.658681209898652E-20,-0.0011222300308759384,4.0657581468206416E-20,374627.8485000206,5.8372711705220005E-12,1025.9351869628013,-5.018962030057074,-2.3884941973082485,6.776386093395498
3180.0,3329670.078324567,-2841014.975846404,-5129449.667271384,3734246.158689586,2276562.422993849,-5132445.028742969,-2349.7450175623094,7192.763638737184,1411.934814332911,-4.84136836263896,-2.95149143219451,6.673456586424976,6758909.8822032,1.2552087161527934,7.005806958709097E-4,-0.13905019647912192,0.002723392293074989,-0.7056749917328229,-0.2948740250441486,1.9847829409303654,4.658681209898652E-20,-0.0011222300308759384,4.0657581468206416E-20,377354.4197733244,5.419088042910749E-12,1019.2332701278747,-4.841369237463109,-2.9514886598951358,6.67345715201488
3240.0,3676349.9411280775,-2582021.7445064196,-5032897.362256464,3584663.597308368,2702484.420939593,-5035792.478493872,-2634.342550277753,6999.157892160552,1808.4773807244326,-4.64160450873355,-3.499289883091436,6.539521480487961,6759353.214282656,1.2595839854005895,8.968290220858111E-4,-0.13792521259948748,0.0027357019212742996,-0.720292763286296,-0.3458158160639617,2.031181636021894,4.658681209898652E-20,-0.0011222300308759384,4.0657581468206416E-20,380078.4767448161,5.032293012116619E-12,1012.7484790768926,-4.641605415049352,-3.4992873777048223,6.539522152932176
3300.0,4008275.6986597194,-2314015.257403658,-4912825.342399536,3418377.6011651843,3115814.2842047135,-4915606.7229879275,-2906.314823807847,6773.2027452089615,2196.0726318706875,-4.420706895462027,-4.0293971302845,6.375352841189564,6759886.307802469,1.2639592546483536,0.0010949689321009416,-0.13686356583828901,0.0027325358317443196,-0.7377446853523599,-0.39604561115662457,2.079303876106844,4.658681209898652E-20,-0.0011222300308759384,4.0657581468206416E-20,382792.99990692915,4.675250583663309E-12,1006.4839225725077,-4.420707820628955,-4.029394877481765,6.375353599498185
3360.0,4324004.537829951,-2038117.367872829,-4769823.7964472305,3236183.0635967203,3514644.3446842586,-4772478.497261337,-3164.427178955531,6516.031991538229,2572.933097297657,-4.179802119201282,-4.53942035365647,6.181857262775753,6760498.714406904,1.268334523896086,0.0012939062714530099,-0.1358663810648403,0.0027135318387195052,-0.7582452848773432,-0.44541615112965127,2.1294737648377815,4.658681209898652E-20,-0.0011222300308759384,4.0657581468206416E-20,385492.20129005326,4.346232321848272E-12,1000.4444747460301,-4.1798030523924945,-4.539418338531029,6.181858088346582
3420.0,4622162.631062963,-1755470.9915858817,-4604588.392795425,3038946.8787638247,3897139.2031882056,-4607104.074837681,-3407.51507946473,6228.919682485157,2937.3295808968805,-3.920099975163379,-5.027078607689993,5.960069633013962,6761178.608402763,1.2727097931452471,0.001492521685425949,-0.13493448985774342,0.0026784202384859206,-0.7820442474068606,-0.4937612940929427,2.1820408922704075,4.658681209898652E-20,-0.0011222300308759384,4.0657581468206416E-20,388171.4169102443,4.0434880402978866E-12,994.6374712636107,-3.920100907208823,-5.027076815094073,5.960070509494007
3480.0,4901450.971064393,-1467235.2830156568,-4417916.558818579,2827603.5882890713,4261543.938246171,-4420281.54397993,-3634.488914876949,5913.273151892453,3287.598675526888,-3.6428871231630855,-5.490211485188683,5.711146973399928,6761913.02015508,1.2770850623929477,0.0016896772792876107,-0.13406843042291552,0.0026270261944147423,-0.8094262268502738,-0.5408922778272944,2.237381363017668,4.658681209898652E-20,-0.0011222300308759384,4.0657581468206416E-20,390826.9757987632,3.765289762954408E-12,989.0726853306521,-3.6428880463916995,-5.490209900004356,5.711147886530108
3540.0,5160650.858539097,-1174580.8331994019,-4210703.320855976,2603150.7512386125,4606191.8811420165,-4212906.644367339,-3844.338417640817,5570.625537866683,3622.149897367524,-3.3495205640909087,-5.926787221665255,5.436361924717122,6762688.085450534,1.2814603316406326,0.0018842233328644148,-0.13326844868369228,0.002559271482382837,-0.840708629415457,-0.5865936672686118,2.295896650203597,4.658681209898652E-20,-0.0011222300308759384,4.0657581468206416E-20,393456.04917843174,3.5099580917488437E-12,983.7618353421468,-3.3495214721752595,-5.926785829021613,5.436362862167565
3600.0,5398629.02338882,-878684.9066908924,-3983936.7282890235,2366644.0609319196,4929511.928004873,-3985968.1876485306,-4036.13668321409,5202.6278352673635,3939.4724188563514,-3.0414209305550624,-6.33491023083997,5.137095881412832,6763489.306241265,1.2858356008883016,0.002075005023603122,-0.13253450048027374,0.002475175609710425,-0.8762360914514021,-0.6306191339218377,2.3580090159774167,4.658681209898652E-20,-0.0011222300308759384,4.0657581468206416E-20,396056.48368232755,3.2758779239000614E-12,978.7178452249461,-3.041421818360874,-6.33490901628485,5.1370968326141595
3660.0,5614342.361140009,-580726.7351841176,-3738692.8864066456,2119192.2327313707,5230035.361834974,-3740543.086585579,-4209.043782153834,4811.0405135669325,4238.141379240384,-2.720065596934626,-6.712828053153948,4.81483177846986,6764301.818205333,1.2902108701359387,0.0022608691137040037,-0.13186625481100012,0.0023748563149960486,-0.9163699115272735,-0.6726873660975076,2.4241517772131123,4.658681209898652E-20,-0.0011222300308759384,4.0657581468206416E-20,398626.6227707201,3.0615079282616167E-12,973.954018742482,-2.720066460377145,-6.712827002786493,4.814832734444685
3720.0,5806842.267794724,-281882.884558592,-3476130.6240057657,1861951.6876132446,5506402.1594567625,-3477791.0187544697,-4362.309953591709,4397.724736035276,4516.8237520513085,-2.386981617222083,-7.058937691535362,4.471146536544984,6765110.66060241,1.29458613938356,0.0024406705599829925,-0.13126309805100694,0.002258529467539698,-0.9614702371105424,-0.7124786350961471,2.4947522326655,4.658681209898652E-20,-0.0011222300308759384,4.0657581468206416E-20,401165.120686165,2.865386315511243E-12,969.4832298263368,-2.3869824531308272,-7.058936792104696,4.47114748974301
3780.0,5975278.557754726,16677.288446334078,-3197485.8229031432,1596121.0569404543,5757366.760600485,-3198948.751997109,-4495.278370117438,3964.633217951764,4774.28374926423,-2.043738503296328,-7.371791302253422,4.107703174918059,6765901.044005389,1.2989614086311496,0.002613279010745865,-0.1307241390826884,0.0021265083861609683,-1.011868526296583,-0.7496328523296835,2.5702047858644868,4.658681209898652E-20,-0.0011222300308759384,4.0657581468206416E-20,403670.7533917399,2.686134244986621E-12,965.3171845770212,-2.0437393092893417,-7.371790541228057,4.107704119057457
3840.0,6118902.951057608,313796.0743135959,-2904065.4377279254,1322935.5344288512,5981803.278636634,-2905324.160013722,-4607.387465002345,3513.800763627981,5009.387742620839,-1.691940861417026,-7.650101203894362,3.726242607027272,6766658.611611952,1.3033366778787392,0.0027775851556245323,-0.13024821527740787,0.0019792026015222146,-1.06782805043393,-0.7837503289759215,2.6508320416349607,4.658681209898652E-20,-0.0011222300308759384,4.0657581468206416E-20,406142.23095679586,2.5224575412402336E-12,961.4657789359394,-1.6919416357853538,-7.6501005695066535,3.7262435369443523
3900.0,6237072.117873759,608331.7285806783,-2597241.2355041644,1043661.1018098556,6178710.134941954,-2598289.9576248294,-4698.172813933201,3047.334524341489,5221.10868367614,-1.3332209105112158,-7.892744164571747,3.3285751397936787,6767369.690012514,1.307711947126297,0.0029325069007148006,-0.129833899267895,0.0018171160876321204,-1.1294915110986394,-0.814396819757678,2.736832960219874,4.658681209898652E-20,-0.0011222300308759384,4.0657581468206416E-20,408578.015788008,2.37314706086648E-12,957.9365567115394,-1.3332216521139202,-7.892743645841445,3.328576051302272
3960.0,6329250.270055212,899162.655059231,-2278443.2855979213,759588.6551138001,6347214.101476181,-2279277.186297819,-4767.268565024042,2567.4040217094425,5408.530005611468,-0.9692309119459236,-8.098764926667307,2.9165717052683044,6768021.52549453,1.312087216373823,0.003076995344203822,-0.1294795064565227,0.0016408449896544177,-1.1968178447601836,-0.8411146295543159,2.8282201515922627,4.658681209898652E-20,-0.0011222300308759384,4.0657581468206416E-20,410976.15095212136,2.2370779084881583E-12,954.7342620870297,-0.9692316201156198,-8.098764513407891,2.9165725950297006
4020.0,6395011.291499375,1185191.4407812215,-1949153.231561863,472028.05881660763,6486573.738892113,-1949768.4814917492,-4814.408412840576,2076.2309834391986,5570.848991805979,-0.6016355466681371,-8.267378929864929,2.492154861041178,6768602.5022064615,1.3164624856213492,0.003210040532179299,-0.12918310320883505,0.0014510748753291326,-1.2695153354017101,-0.8634413095790334,2.9247534383934064,4.658681209898652E-20,-0.0011222300308759384,4.0657581468206416E-20,413334.1025965405,2.1132076527577304E-12,951.8604756951943,-0.6016362211267374,-8.26737861267613,2.492155726444992
4080.0,6434040.401188008,1465348.7297788477,-1610897.3772428008,182302.15527912727,6596182.22038682,-1611291.1542068208,-4839.426114505396,1576.0790406477608,5707.379598591282,-0.23210428152499743,-8.397974197073676,2.0572896039719737,6769102.338804134,1.3208377548688435,0.003330676976555851,-0.12894251568718845,0.0012485775385740628,-1.3469846107882495,-0.8809364400313974,3.02588327048368,4.658681209898652E-20,-0.0011222300308759384,4.0657581468206416E-20,415648.620154679,2.00057368192142E-12,949.3133213969943,-0.2321049223091363,-8.397973967323141,2.0572904430279197
4140.0,6446135.344970122,1738596.9236529144,-1265239.6201851803,-108259.24305353285,6675569.534512734,-1265410.1197926574,-4842.2555486249585,1069.2433378869766,5817.55472252096,0.13769622805351117,-8.490112354066273,1.6139740497424186,6769512.260522835,1.325213024116306,0.0034379889223893367,-0.12875533928688074,0.001034207381066676,-1.4282905363548632,-0.8932150022245605,3.1307230116596725,4.658681209898652E-20,-0.0011222300308759384,4.0657581468206416E-20,417915.6176245185,1.8982898347164216E-12,947.0872303695493,0.13769562065804022,-8.490112203862932,1.6139748609826636
4200.0,6431207.114457358,2003933.697829351,-913774.2658453203,-398325.35135792574,6724404.063284828,-913720.707551356,-4822.9303207509965,558.0401085202191,5900.9279058684015,0.5061096473404766,-8.543528762189606,1.1642300380809043,6769825.144017022,1.3295882933637686,0.0035311153530165145,-0.12861894864040754,8.08897399576328E-4,-1.5121822731259915,-0.8999831605438784,-3.0451159362149447,4.658681209898652E-20,-0.0011222300308759384,4.0657581468206416E-20,420130.07874585903,1.8055424325969124E-12,945.172748893887,0.5061090728560346,-8.543528684350884,1.1642308204724507
4260.0,6389280.193761584,2260395.3234378546,-558118.7563965012,-686570.3730265645,6742493.53510923,-557841.3849364175,-4781.582922293682,44.79626902338774,5957.174477849054,0.8714973285898664,-8.558131754163576,0.7100937298567139,6770035.632729019,1.3339635626111994,0.0036092547248978753,-0.12853050816436878,5.7365480347939E-4,-1.5971719738144268,-0.9010698719712734,-2.93670384884992,4.658681209898652E-20,-0.0011222300308759384,4.0657581468206416E-20,422285.98837906396,1.7215858186213382E-12,943.5563755554988,0.8714967863968365,-8.558131742178197,0.7100944827231064
4320.0,6320492.337195101,2507059.785876898,-199906.34793320528,-971679.3966490049,6729785.355282823,-199406.43017661807,-4718.443453167308,-468.1609139834626,5986.092133193057,1.232245477475005,-8.534000975473885,0.2536062671779265,6770140.221023266,1.3383388318585985,0.0036716694260120666,-0.1284869831286833,3.295562867400887E-4,-1.681665056096015,-0.8964470430168959,-2.828773898353105,4.658681209898652E-20,-0.0011222300308759384,4.0657581468206416E-20,424376.29181986273,1.6457375362585124E-12,942.220419339182,1.2322449668550008,-8.534001023461602,0.25360699012950877
4380.0,6225093.883436618,2743049.6923582973,159221.23034420944,-1252354.2035976893,6686366.320031718,159941.41307359684,-4633.837921872256,-978.51403072972,5987.600954066048,1.5867720626947148,-8.471384847767297,-0.20319542923879838,6770137.305837359,1.3427141011059978,0.0037176899532952194,-0.12848515123400336,7.774297601650735E-5,-1.764115671211135,-0.8862329656686865,-2.722825108398981,4.658681209898652E-20,-0.0011222300308759384,4.0657581468206416E-20,426392.88318922394,1.5774197884497589E-12,941.1487915554503,1.5867715828537174,-8.471384950439617,-0.20319473634642599
4440.0,6103446.613991265,2967534.9620290534,517621.1018775281,-1527318.9613606846,6612461.723208501,518558.2659506089,-4528.186140095794,-1483.9655574948233,5961.742885834439,1.9335334134034108,-8.370697185496317,-0.6582876500699751,6770027.205131569,1.347089370353365,0.0037467188063166346,-0.12852161468877787,-1.805849218069024E-4,-1.8431705215560032,-0.8706780890864685,-2.620163494749016,4.658681209898652E-20,-0.0011222300308759384,4.0657581468206416E-20,428326.6234185626,1.5162273348594575E-12,940.3374556605979,1.933532963469693,-8.37069733813155,-0.6582869871389986
4500.0,5956022.166009974,3179735.293643178,873656.5211084977,-1795325.7788859438,6508433.867816249,874806.3971231659,-4401.99923213991,-1982.2476585282316,5908.68068167155,2.2710304526692595,-8.232513012250296,-1.1096686005966387,6769812.1430031685,1.3514646396007006,0.003758234094451905,-0.1285928127811835,-4.441737541498451E-4,-1.9177690958418172,-0.8501369484569624,-2.5218014744132558,4.658681209898652E-20,-0.0011222300308759384,4.0657581468206416E-20,430167.387739578,1.4618043171325343E-12,939.7806850287716,2.2710300317264687,-8.232513210672522,-1.1096679673381618
4560.0,5783400.0116195325,3378922.4071855117,1225704.073154021,-2055160.101510677,6374779.99740164,1227061.426748509,-4255.876782429742,-2471.1317144357195,5828.696335342526,2.59781452087207,-8.057563638041913,-1.5553667469536236,6769496.201897605,1.3558399088480522,0.003751792856137296,-0.12869503494584322,-7.117223192079866E-4,-1.9871855662819926,-0.8250331024568904,-2.4284156009713205,4.658681209898652E-20,-0.0011222300308759384,4.0657581468206416E-20,431904.14198510244,1.4138226403133588E-12,939.4684110706698,2.597814127994888,-8.057563878595786,-1.555366142943375
4620.0,5586265.017818874,3564422.0573001457,1572160.7647886076,-2305645.924523137,6212129.665016178,1573719.4216159594,-4090.5036469110637,-2948.4375348770536,5722.189025542757,2.912492750233285,-7.846731072664855,-1.9934487413640054,6769085.242911619,1.360215178095356,0.003727034088179826,-0.128824434326707,-9.818880058622016E-4,-2.0510169605348225,-0.7958242030497785,-2.340358007866869,4.658681209898652E-20,-0.0011222300308759384,4.0657581468206416E-20,433525.04643563397,1.3719824803570248E-12,939.3862590430787,2.9124923845189263,-7.846731352187084,-1.9934481660930283
4680.0,5365404.602677888,3735615.817824731,1911450.9782353675,-2545650.806017706,6021241.55983163,1913203.8529634306,-3906.646456210651,-3412.042218302801,5589.672598762362,3.2137329607553826,-7.601041862423765,-2.4220268710427,6768586.795754058,1.3645904473426438,0.0036836814833585392,-0.12897704183983624,-0.0012532931586805916,-2.109134718164929,-0.7629723965717383,-2.257704444072794,4.658681209898652E-20,-0.0011222300308759384,4.0657581468206416E-20,435017.58541653963,1.336008013638943E-12,939.5149518968861,3.2137326213524355,-7.601042178211033,-2.4220263239651687
4740.0,5121705.504992769,3891942.638152772,2242033.2609779374,-2774090.6614230326,5802999.813567142,2243972.3901646864,-3705.1498399070697,-3859.888627004948,5431.772620645942,3.5002680583120376,-7.321660447397369,-2.8392659864023306,6768009.920449481,1.3689657165913447,0.0036215458734201395,-0.1291487807380887,-0.0015245316489833707,-2.1616196039030005,-0.7269225276843889,-2.1803189234989433,4.658681209898652E-20,-0.0011222300308759384,4.0657581468206416E-20,436368.72037154617,1.3056247931598452E-12,939.8269684809592,3.500267744450999,-7.321660797165682,-2.839265466987738
4800.0,4856150.185650091,4032900.173554329,2562406.9266739367,-2989934.3238736396,5558409.810612749,2564523.505354694,-3486.9324020754902,-4289.9934518094615,5249.223028102774,3.770899927139507,-7.009882143318614,-3.2433898770646654,6767365.043366495,1.373340985838585,0.0035405273741751482,-0.12933548168135311,-0.0017941756337222531,-2.208695936693314,-0.688088294296269,-2.1079190221478163,4.658681209898652E-20,-0.0011222300308759384,4.0657581468206416E-20,437565.063724821,1.2806013497108095E-12,940.2926647341078,3.7708996381487725,-7.0098825251697505,-3.2433893848280566
4860.0,4569812.879886789,4158045.8926981534,2871118.444233674,-3192207.8564090226,5288593.527079512,2873402.866044917,-3252.982478370202,-4700.4548471041835,5042.862415884867,4.024502821140683,-6.6671258556133655,-3.632687078613088,6766663.770558083,1.3777162550858253,0.003440617228117706,-0.12953289830974912,-0.002060782483595359,-2.2506746269016698,-0.6468451100679354,-2.040132322827171,4.658681209898652E-20,-0.0011222300308759384,4.0657581468206416E-20,438593.0704888202,1.26131931752871E-12,940.9682365641617,4.024502556340875,-6.6671262681895875,-3.6326866129316433
4920.0,4263855.3199586375,4266997.967031302,3166767.5941710924,-3379998.603788515,4994784.424975673,3169209.4948250307,-3004.3537042927705,-5089.459623383049,4813.629991945423,4.260026270141162,-6.294926633668487,-4.005516107423406,6765918.681819414,1.3820915243330338,0.0033218993378338903,-0.12973672331525612,-0.002322901857735911,-2.287908774468102,-0.6035279206482173,-1.9765402458222783,4.658681209898652E-20,-0.0011222300308759384,4.0657581468206416E-20,439439.2443013567,1.248216786606171E-12,941.9145365697752,4.2600260288931695,-6.29492707618993,-4.005515667594785
4980.0,3939522.14812245,4359435.947398405,3448013.3733862704,-3552458.9734495254,4678321.928280644,3450601.6773011843,-2742.160422945235,-5455.289990850133,4562.561235547932,4.476497529843648,-5.894928168549875,-4.3603101377717035,6765143.109169873,1.3864667935802266,0.003184551484317007,-0.12994260500052046,-0.002579082904467671,-2.3207618103773924,-0.5584322841620808,-1.9167092731424884,4.658681209898652E-20,-0.0011222300308759384,4.0657581468206416E-20,440090.3543614282,1.2416996250095999E-12,943.1807297492542,4.476497311617489,-5.894928640812575,-4.3603097231106505
5040.0,3598136.0396351074,4435101.23426846,3713579.6315414784,-3708809.936777633,4340645.507897681,3716302.601424911,-2467.572958521626,-5796.329853609419,4290.7832908011505,4.6730236146187405,-5.468875329920791,-4.695581149842172,6764350.903643105,1.3908420628273876,0.003028846218616628,-0.13014616430994103,-0.0028278815641580497,-2.3495862844949564,-0.5118173564256316,-1.860211451859788,4.658681209898652E-20,-0.0011222300308759384,4.0657581468206416E-20,440533.65959708253,1.2422085370394892E-12,944.8114371899535,4.673023419048752,-5.468875832303629,-4.695580759755976
5100.0,3241092.5551566556,4493797.348506736,3962260.424091636,-3848344.243356599,3983288.4023258993,3965105.7132667983,-2181.8127791508023,-6111.07065938441,3999.5101261464215,4.848792961823392,-5.018606826342243,-5.009923591587583,6763556.19443208,1.3952173320745327,0.002855151418532065,-0.13034301230618878,-0.003067867948385068,-2.37471082650672,-0.46390980836002876,-1.8066366366813176,4.658681209898652E-20,-0.0011222300308759384,4.0657581468206416E-20,440757.1363222649,1.2502561824322535E-12,946.8494758084404,4.848792788760197,-5.018607359819534,-5.00992322564573
5160.0,2869854.741357819,4535390.0100564575,4192925.0687752315,-3970429.3421891066,3607871.0004543583,4195879.776035281,-1886.1475695408521,-6398.1168143289415,3690.037487354458,5.00307678402614,-4.546048058118725,-5.302017610128764,6762773.144503909,1.399592601321678,0.0026639304969959345,-0.13052876806093816,-0.0032976337678606647,-2.3964329382776426,-0.41490804255330865,-1.7555987983597992,4.658681209898652E-20,-0.0011222300308759384,4.0657581468206416E-20,440749.7056256438,1.2664590408358581E-12,949.3375740982623,5.003076633589765,-4.546048624279485,-5.302017268132632
5220.0,2485947.497772234,4559807.032096934,4404522.893918141,-4074510.005002062,3216093.912192421,4407573.620688218,-1581.8862303176331,-6656.190676116864,3363.7376679201407,5.135230170912417,-4.053204214030004,-5.570631918825938,6762015.706777824,1.4039678705687753,0.0024557422483384283,-0.13069907691770952,-0.003515799778852496,-2.4150156964757974,-0.36498633371242606,-1.7067383017420825,4.658681209898652E-20,-0.0011222300308759384,4.0657581468206416E-20,440501.4567738445,1.2915687431117344E-12,952.3195669634363,5.135230043550048,-4.0532048151049365,-5.57063160088314
5280.0,2090951.7270520658,4567038.03822968,4596087.668209864,-4160110.647649424,2809730.7517788378,4599220.5777927,-1270.3738171457978,-6884.137140987414,3022.0541165308578,5.244693005507529,-3.5421536432581924,-5.814626373909333,6761297.384867754,1.4083431398158728,0.0022312403183273313,-0.13084962907666556,-0.0037210232167645867,-2.4306869171708305,-0.31429869608224187,-1.6597215817989592,4.658681209898652E-20,-0.0011222300308759384,4.0657581468206416E-20,440003.862995897,1.3265038787044006E-12,955.841044445955,5.244692902059324,-3.542154282154437,-5.814626080517492
5340.0,1686498.2848375686,4557134.010026012,4766741.702657264,-4226837.346296122,2390620.65762723,4769942.581334704,-952.9864288235059,-7080.927841663507,2666.495896692812,5.330990759488561,-3.0150415123317402,-6.032954339206847,6760631.002234762,1.4127184090629386,0.001991172280398063,-0.13097617844103815,-0.003912005181053431,-2.4436397514284307,-0.2629823957937972,-1.6142392257575313,4.658681209898652E-20,-0.0011222300308759384,4.0657581468206416E-20,439249.9861435451,1.3723812132566355E-12,959.9491704588266,5.330990681265004,-3.015042192673448,-6.032954071352074
5400.0,1274261.7445207126,4530206.671846392,4915699.616180839,-4274379.545499739,1960660.5715472454,4918953.935940489,-631.1260497219756,-7245.66497298476,2298.6320088330262,5.393735229688777,-2.474073734827916,-6.2246649187874254,6760028.483365604,1.4170936783099726,0.00173637830292329,-0.13107456165466674,-0.004087497936742808,-2.4540340087705137,-0.21116109555377027,-1.5700031384100477,4.658681209898652E-20,-0.0011222300308759384,4.0657581468206416E-20,438234.6668785703,1.4305431188563564E-12,964.6912039501733,5.393735178562864,-2.474074460997474,-6.224664678063311
5460.0,855953.9913132767,4486427.719256408,5042271.7567962725,-4302511.4555222355,1521797.2992044336,5045564.739449567,-306.21534836462683,-7377.584760707744,1920.0855804546434,5.432625272460922,-1.9215111397610234,-6.388905135102828,6759500.650333347,1.4214689475570224,0.0014677893890669362,-0.1311407172538492,-0.004246312092351557,-2.4619977454556436,-0.15894765831782084,-1.5267432242044991,4.658681209898652E-20,-0.0011222300308759384,4.0657581468206416E-20,436954.6972275029,1.5025756274685943E-12,970.1111731621991,5.432625250977572,-1.9215119169310744,-6.388904923855557
5520.0,433317.659307063,4426027.896625746,5145867.2705212785,-4311093.136213388,1076019.3728288505,5149183.952976395,20.307569230925445,-7476.060586249821,1532.5279254227298,5.4474475845194785,-1.359663823933682,-6.524922124474824,6759057.037777287,1.4258442168040246,0.0011864251722326627,-0.13117070484469573,-0.004387323615452268,-2.4676288220360627,-0.10644665693396521,-1.4842038488275404,4.658681209898652E-20,-0.0011222300308759384,4.0657581468206416E-20,435408.97255450976,1.5903094865494449E-12,976.244295894681,5.447447596022525,-1.3596646580742735,-6.52492194597857
5580.0,8119.424694530577,4349295.928646795,5225996.810087337,-4300071.264643568,625348.7365263687,5229322.110537418,346.99445544070176,-7540.605776302473,1137.6724694037823,5.4380775684875315,-0.7908856148739519,-6.632065412688088,6758705.729007521,1.430219486051027,8.93391250279028E-4,-0.13116072421162672,-0.004509480644022287,-2.4709962473196057,-0.053756645964594486,-1.4421402272575161,4.658681209898652E-20,-0.0011222300308759384,4.0657581468206416E-20,433598.6202351041,1.6957964192620493E-12,983.109261642099,5.4380776172612135,-0.7908865127136316,-6.632065271351265
5640.0,-417856.8319536829,4256577.309583944,5282274.875253074,-4269479.583361555,171832.2741528408,5285593.660037013,672.3922720756791,-7570.8760613394315,737.2685350663844,5.404480308984298,-0.2175685550808477,-6.70978932129853,6758453.215574046,1.4345947552979816,5.898760425879356E-4,-0.1311071342532873,-0.0046118100518993755,-2.4721411995291023,-9.722550879028907E-4,-1.4003148094474709,4.658681209898652E-20,-0.0011222300308759384,4.0657581468206416E-20,431527.1025659567,1.821256473093126E-12,990.6994518006773,5.404480400401429,-0.2175695239980814,-6.709789222895506
5700.0,-842816.9814126911,4148272.953101493,5314421.776049016,-4219439.025760175,-282466.80036176386,5317718.92693854,995.0486036386096,-7566.67170130108,333.09497804647293,5.3467116711420655,0.3578626941901168,-6.75765554045136,6758304.282283828,1.4389700245449362,2.771471554755874E-4,-0.1310064716381374,-0.004693423725664447,-2.471077662771196,0.051813836194886755,-1.3584936871782474,4.658681209898652E-20,-0.0011222300308759384,4.0657581468206416E-20,429200.29171763716,1.9690009360760598E-12,998.9753204843212,5.346711811806505,0.3578616463648871,-6.757655492366906
5760.0,-1264963.7062151239,4024837.7045614673,5322265.209689065,-4150157.514596365,-735477.670059452,5325525.691352071,1313.5171401250823,-7527.939270348401,-73.04633696750278,5.264919518418721,0.9329566399316609,-6.775335887024704,6758261.9192749625,1.443345293791875,-4.345275748538671E-5,-0.13085546906397774,-0.004753524511125232,-2.4677926476141483,0.10450898345709932,-1.3164430180165996,4.658681209898652E-20,-0.0011222300308759384,4.0657581468206416E-20,426626.5148303163,2.1413466244934452E-12,1007.8608256655709,5.264919716287306,0.9329555052109944,-6.775335898492228
5820.0,-1682503.6516895085,3886778.7167704385,5305741.44122452,-4061929.4292864148,-1185130.738503043,5308950.368610316,1626.3632360435608,-7454.7730858111,-479.33723125211253,5.1593450309900355,1.5052410497691517,-6.7626152483413895,6758327.262400372,1.447720563038782,-3.7051064803287275E-4,-0.1306510730041274,-0.004791411787394457,-2.462245986126408,0.15701866332095402,-1.2739254496204302,4.658681209898652E-20,-0.0011222300308759384,4.0657581468206416E-20,423816.5676701397,2.3405450129455815E-12,1017.2462011395776,5.15934529546074,1.5052398203910502,-6.762615330654261
5880.0,-2093654.6524508095,3734653.689333595,5264896.07735293,-3955134.7372417557,-1629366.52786074,5268038.78274058,1932.169550736685,-7347.416259566102,-883.9500888231082,5.030324090403211,2.0722294640458587,-6.719394692136251,6758499.562828692,1.4520958322856732,-7.025482471308575E-4,-0.13039046081607852,-0.004806486629543793,-2.4543697103219726,0.20924450198826042,-1.2306965274122534,4.658681209898652E-20,-0.0011222300308759384,4.0657581468206416E-20,420783.69560810534,2.56874639698389E-12,1026.9973034386014,5.030324432361823,2.072228132919222,-6.7193948588157095
5940.0,-2496653.0176787963,3569068.971073756,5199884.422203074,-3830237.7842732794,-2066144.6280499266,5202946.5216492545,2229.541772570485,-7206.261343343594,-1285.0549238647707,4.878288681059978,2.6314282370709123,-6.645694703574975,6758776.186429669,1.4564711015325642,-0.0010380277624983327,-0.13007105708926556,-0.004798256520930043,-2.4440670442983072,0.2610821872671011,-1.1865010808457017,4.658681209898652E-20,-0.0011222300308759384,4.0657581468206416E-20,417543.5410565696,2.828003631029723E-12,1036.9691795600772,4.8782891128840715,2.6314267982551574,-6.645694970486248
6000.0,-2889760.8566775327,3390677.524442181,5110971.403464038,-3687785.7390405242,-2493452.6715619667,5113938.86238191,2517.11442616174,-7031.85053315101,-1680.826644769275,4.7037682449705756,3.180344207617932,-6.541658490501222,6759152.643198446,1.4608463707794237,-0.001375358098740428,-0.1296905491060925,-0.0047663395799181696,-2.43121107058118,0.3124192043814793,-1.141069610473814,4.658681209898652E-20,-0.0011222300308759384,4.0657581468206416E-20,414114.05690759514,3.1202999261720983E-12,1047.0199371054032,4.7037687804931565,3.180342656816356,-6.541658875916375
6060.0,-3271273.424040456,3200176.750500557,4998531.056989853,-3528406.6866891854,-2909315.3063276387,5001390.254585669,2793.556757610858,-6824.875392388268,-2069.4525166437757,4.507390913513267,3.7164930850753732,-6.407555279365457,6759622.646661663,1.4652216400262512,-0.001712901593917012,-0.12924690129015057,-0.004710468267562873,-2.4156431777421714,0.36313233611652485,-1.0941147447858857,4.658681209898652E-20,-0.0011222300308759384,4.0657581468206416E-20,410515.3859601851,3.4475726262186082E-12,1057.021370322539,4.507391567946758,3.7164914201372343,-6.407555803972805
6120.0,-3639526.4612967656,2998306.172936762,4863045.558044681,-3352807.367270608,-3311803.1364129577,4865783.350334188,3057.57868779642,-6586.176048557572,-2449.139818963221,4.289884529063181,4.2374086199565,-6.243783506997606,6760178.202907889,1.4695969092745076,-0.0020489812611923838,-0.12873836851661774,-0.0046304925488006,-2.39717146884231,0.4130848708881216,-1.0453279103719386,4.658681209898652E-20,-0.0011222300308759384,4.0657581468206416E-20,406769.7068019351,3.811705860807438E-12,1066.8646312060505,4.289885318878525,4.237406841395688,-6.243784193852226
