time,gePosition_m_X,gePosition_m_Y,gePosition_m_Z,eiPosition_m_X,eiPosition_m_Y,eiPosition_m_Z,eiVelocity_m_s_X,eiVelocity_m_s_Y,eiVelocity_m_s_Z,eiAccel_m_s2_X,eiAccel_m_s2_Y,eiAccel_m_s2_Z,semiMajorAxis_m,gast_rad,eulerAngle_rad_Roll,eulerAngle_rad_Pitch,eulerAngle_rad_Yaw,eulerAngleWrtEi_rad_Roll,eulerAngleWrtEi_rad_Pitch,eulerAngleWrtEi_rad_Yaw,bodyAngularRateWrtEi_rad_s_Roll,bodyAngularRateWrtEi_rad_s_Pitch,bodyAngularRateWrtEi_rad_s_Yaw,altitudeMsl_m,airDensity_kg_m3,ambientTemperature_dgK,eiGravitation_m_s2_X,eiGravitation_m_s2_Y,eiGravitation_m_s2_Z
0.0,-1436381.48862739,4185811.47756286,5163944.85376219,-4315967.73999999,960356.199999999,5167269.52999999,129.091036999934,-7491.51385500013,1452.51565399991,5.45462502556864,-1.21381446458313,-6.54922150653718,6759052.98367584,1.02331933954551,0.0,-0.202458193231342,-1.0E-16,-2.47159390556422,-0.0371889647578316,-1.42899313520438,0.0,-0.0011222299538715,0.0,434991.318347183,1.782E-12,992.872619628906,5.45462505155714,-1.21381540129775,-6.54922131695573
60.0,-1794959.86847277,3943151.45618132,5239238.50050778,-4298410.79411335,509021.635651611,5242566.73972817,455.965800770695,-7547.27265161981,1056.37889974527,5.43715578285571,-0.643957423448699,-6.6504564493894,6758724.42543368,1.02769460895833,-3.1574701259E-6,-0.202437020471788,-9.14135066266E-5,-2.47204519445283,0.0156058984055744,-1.38719418655663,0.0,-0.0011222299538715,0.0,433112.108036117,1.7267E-12,986.205932617187,5.43715584523645,-0.643958338599222,-6.65045631574673
120.0,-2147589.79520856,3685729.12289212,5290614.51378656,-4261287.36472525,55370.0011581317,5293931.16573239,781.064607008927,-7568.71031753307,655.051476859621,5.39543339332097,-0.0701799175817963,-6.72216518381868,6758493.80007072,1.03206987837114,-1.26853612882E-5,-0.202371155474641,-1.824277621897E-4,-2.4702868224414,0.0683734591138526,-1.3453262721125,0.0,-0.0011222299538715,0.0,430973.213476463,1.8565E-12,994.00390625,5.3954335001492,-0.0701809051459073,-6.72216509468672
180.0,-2492787.67455956,3414636.57899711,5317814.82915176,-4204747.62614707,-398533.83438488,5321104.78166599,1102.93443715781,-7555.66447316392,250.318013368888,5.32954555456705,0.505085181142024,-6.76393084015597,6758365.62582494,1.03644514778395,-2.8624008056E-5,-0.202257204987879,-2.721929379617E-4,-2.46629730856899,0.121020690681026,-1.30315483303669,0.0,-0.0011222299538715,0.0,428581.072493364,2.0097E-12,1002.474609375,5.32954571280193,0.505084113026389,-6.76393080326956
240.0,-2829089.63371329,3131015.83929045,5320689.07635279,-4129028.72048326,-850619.654063491,5323937.32290651,1420.13031083019,-7508.11948789565,-156.01517322779,5.23967271237731,1.07938004938451,-6.77544776349339,6758342.68167094,1.04082041719676,-5.09558360764E-5,-0.202091977451492,-3.598654084754E-4,-2.46002784214147,0.173452077418911,-1.26044067503454,0.0,-0.0011222299538715,0.0,425944.588823891,2.1886E-12,1011.53186035156,5.23967293039891,1.07937889244757,-6.77544778853349
300.0,-3155057.44808417,2836054.46115243,5299195.67898344,-4034454.10765307,-1298820.73941844,5302387.38603552,1731.22088785622,-7426.20779486231,-562.126834836148,5.12608930670926,1.65022813449643,-6.75652442179554,6758425.94191926,1.04519568660958,-7.9604753553E-5,-0.201872500171225,-4.446136240155E-4,-2.45140153543319,0.225567612984537,-1.2169363688748,0.0,-0.0011222299538715,0.0,423075.137919689,2.3956E-12,1021.05712890625,5.12608959440885,1.65022688072514,-6.75652452060777
360.0,-3469284.47903433,2530981.01937969,5253402.54350797,-3921432.57702063,-1741082.78402078,5256523.11743537,2034.79414636141,-7310.21081547017,-966.187731334562,4.98916505607642,2.21514087268543,-6.70708646584559,6758614.53784239,1.04957095602238,-1.144359140753E-4,-0.201596035839114,-5.256239094497E-4,-2.4403123052206,0.277260663528004,-1.17238263276538,0.0,-0.0011222299538715,0.0,419986.539566063,2.633E-12,1030.91064453125,4.98916542490322,2.21513951478654,-6.70708665261578
420.0,-3770401.60651054,2217060.4332727,5183487.32666435,-3790456.91602343,-2175372.85013402,5186522.4799976,2329.46313803815,-7160.55946597587,-1366.36775595907,4.82936623761869,2.77162491883589,-6.62717988930659,6758905.7476486,1.0539462254352,-1.552558627257E-4,-0.201260098285358,-6.021061484182E-4,-2.42662345611852,0.328415635844809,-1.1265047310276,0.0,-0.0011222299538715,0.0,416694.996622907,2.9031E-12,1040.94470214843,4.82936670058728,2.77162345072058,-6.62718018068663
480.0,-4057083.13872237,1895589.15274919,5089737.26988868,-3642102.23120843,-2599688.34240672,5092673.08658241,2613.8718186577,-6977.83421251899,-1760.84325202594,4.64725690416072,3.31718998337293,-6.5169742362677,6759295.01589746,1.05832149484801,-2.018130755855E-4,-0.200862467342904,-6.732993138375E-4,-2.41016609222267,0.378905391623042,-1.0790089779852,0.0,-0.0011222299538715,0.0,413218.999616075,3.2081E-12,1051.0185546875,4.64725747581705,3.31718840066583,-6.51697465144926
540.0,-4328052.67893413,1567890.21078472,4972548.5892393,-3477023.91731591,-3012065.97035744,4975371.5887034,2886.70094795607,-6762.76463557638,-2147.80452180205,4.44349996666444,3.84935736104266,-6.37676578528856,6759776.00316357,1.06269676426082,-2.53798900889E-4,-0.200401202703969,-7.384768082955E-4,-2.39073756663118,0.428588353352696,-1.02957952153461,0.0,-0.0011222299538715,0.0,409579.197361492,3.55E-12,1061.00610351562,4.44350066301054,3.84935566160655,-6.37676634602286
600.0,-4582088.92721622,1235308.15030922,4832425.40938907,-3295955.27053919,-3410590.66892717,4835122.60900164,3146.67404837357,-6516.22846013799,-2525.46352353639,4.21885805879244,4.36566922163068,-6.20698062115932,6760340.6664176,1.06707203367362,-3.108489078039E-4,-0.199874656646486,-7.969515808516E-4,-2.36810030457777,0.477305259161748,-0.977875710221154,0.0,-0.0011222299538715,0.0,405798.234287936,3.9311E-12,1070.802734375,4.21885889716411,4.36566740611239,-6.20698135171634
660.0,-4818031.39265044,899203.834817513,4669978.23066266,-3099704.74287598,-3793404.44363744,4672537.20648243,3392.56340682084,-6239.25000425302,-2892.06174683229,3.97419409027219,4.86369871359543,-6.0081774889566,6760979.37020054,1.07144730308643,-3.725446465787E-4,-0.199281485508435,-8.480809898844E-4,-2.34198152173847,0.524875548503723,-0.923530536890918,0.0,-0.0011222299538715,0.0,401900.555637132,4.3532E-12,1080.32360839843,3.97419508914661,4.86369678602303,-6.00817841599894
720.0,-5034785.98907062,560949.153376496,4485921.91888332,-2889152.8356094,-4158715.10397259,4488330.86427614,3623.19609779541,-5932.99799620746,-3245.87824975774,3.71047138782816,5.3410609085625,-5.78105031009484,6761681.02820721,1.07582257249925,-4.384158211505E-4,-0.198620659789297,-8.912713851606E-4,-2.31207462246155,0.571093406929628,-0.866150918523769,0.0,-0.0011222299538715,0.0,397912.182258588,4.8182E-12,1089.50244140625,3.71047256654487,5.34105887698338,-5.78105146244065
780.0,-5231330.48501904,221921.632416059,4281073.20901315,-2665248.6314436,-4504804.8455855,4283320.99090545,3837.45999992743,-5598.78270970774,-3585.23783348745,3.42875331718281,5.7954245877305,-5.52643022766706,6762433.27437359,1.08019784191205,-5.079428726341E-4,-0.197891472760699,-9.259823856202E-4,-2.27804341613892,0.615723578532658,-0.805320928444332,0.0,-0.0011222299538715,0.0,393860.457275393,5.3273E-12,1098.28662109375,3.42875469556366,5.79542246486703,-5.5264316359166
840.0,-5406719.77628718,-116501.031352885,4056347.7152668,-2429005.9666872,-4830038.63890464,4058423.92773815,4034.30977156144,-5238.05236727187,-3908.519322013,3.13020227747816,6.22452484102445,-5.24528703913541,6763222.66197328,1.08457311132487,-5.805599691785E-4,-0.197093547472818,-9.517308328008E-4,-2.23953072833746,0.658497185275644,-0.740609538334227,0.0,-0.0011222299538715,0.0,389773.767467895,5.8812E-12,1106.63403320312,3.13020387531448,6.22452264494246,-5.24528873511584
900.0,-5560090.94727568,-452946.500378591,3812756.44258392,-2181499.24713695,-5132872.37880388,3814651.45751226,4212.7727444831,-4852.3887647514,-4214.16390575634,2.81607796078646,6.62617641705982,-4.93872986896367,6764034.88858499,1.08894838073768,-6.556583946151E-4,-0.196226842049488,-9.680944030498E-4,-2.19617345685161,0.699107991457945,-0.671584903514905,0.0,-0.0011222299538715,0.0,385681.242793294,6.4796E-12,1114.50964355468,2.81607979719578,6.62617417177741,-4.93873188497823
960.0,-5690668.08554145,-786053.369212634,3551401.79708074,-1923858.91395815,-5411860.74730431,3553106.81155654,4371.95468859966,-4443.50207466153,-4500.68349902699,2.48773477470716,6.99828772718683,-4.60800693289771,6764855.04410272,1.09332365015049,-7.325903250616E-4,-0.195291653173337,-9.747148644854E-4,-2.14762649395811,0.73720983281946,-0.597837598274158,0.0,-0.0011222299538715,0.0,381612.438016725,7.1212E-12,1121.88403320312,2.48773686734747,6.99828546317862,-4.60800930075184
1020.0,-5797766.81239613,-1114476.75966243,3273473.09636695,-1657266.56886814,-5665664.73893301,3274980.1765982,4511.04539452393,-4013.22479286122,-4766.66905246127,2.14661833548773,7.33887537143586,-4.25450424970366,6765667.87824122,1.0976989195633,-8.106729793116E-4,-0.194288617672749,-9.713009672064E-4,-2.0935979220477,0.772416288152419,-0.519015195786379,0.0,-0.0011222299538715,0.0,377597.000956072,7.8033E-12,1128.73083496093,2.14662069962729,7.33887312596827,-4.25450699949013
1080.0,-5880798.4913678,-1436893.91437738,2980241.58439863,-1382949.77127148,-5893058.79649577,2981543.7058362,4629.32401584924,-3563.50480211446,-5010.79875319096,1.79426095283067,7.64607901917176,-3.87974316572022,6766458.08326528,1.10207418897612,-8.891931252779E-4,-0.193218712135136,-9.576309573297E-4,-2.0338970172306,0.80430405688161,-0.434869716206493,0.0,-0.0011222299538715,0.0,373664.332320179,8.5216E-12,1135.02685546875,1.79426360035257,7.64607683633432,-3.87974632444112
1140.0,-5939274.07582783,-1752009.762656,2673054.95980371,-1102176.52361958,-6092937.50375353,2674146.04322749,4726.164108699,-3096.3975371092,-5231.84603784743,1.43227604587643,7.91817644379555,-3.48537657325575,6767210.58696954,1.10644945838892,-9.674119212475E-4,-0.192083250485848,-9.335547069202E-4,-1.96849424162766,0.832421788233729,-0.345317113992177,0.0,-0.0011222299538715,0.0,369843.24252716,9.2699E-12,1140.75073242187,1.43227898415154,7.91817437425525,-3.48538016319603
1200.0,-5972807.55719329,-2058562.42995537,2353331.43130987,-816249.465109156,-6264321.78094673,2354206.37462934,4801.0383031395,-2614.05724845802,-5428.68733696691,1.06235145161805,8.15359848133484,-3.07318372462252,6767910.85028748,1.11082472780174,-0.0010445700669105,-0.190883879489074,-8.989954529141E-4,-1.8975880567891,0.856306046586332,-0.250503628377508,0.0,-0.0011222299538715,0.0,366161.611205457,1.00406E-11,1145.88330078125,1.06235468245614,8.15359658160626,-3.07318776171699
1260.0,-5981118.97590974,-2355328.66049381,2022553.31894872,-526499.79781266,-6406364.52939335,2023208.02448873,4853.5225394945,-2118.72737780733,-5600.30946426689,0.686241613433337,8.35094365723894,-2.64506357118318,6768545.16335187,1.11519999721455,-0.0011198932354984,-0.189622572146042,-8.539511386002E-4,-1.82166724799808,0.875505368607211,-0.150867679179676,0.0,-0.0011222299538715,0.0,362646.055284674,1.08235E-11,1150.40771484375,0.686245131997453,8.35094198856834,-2.64506806324138
1320.0,-5964036.95895051,-2641129.12055308,1682260.22500802,-234280.973357567,-6518355.67258669,1682691.62207006,4883.2998026913,-1612.73007209766,-5745.81656093877,0.305758665496491,8.50899220772362,-2.20302658791115,6769100.9334,1.11957526662736,-0.0011925977545817,-0.18830161898662,-7.984953513169E-4,-1.74155126111542,0.889611704009718,-0.0471798027874684,0.0,-0.0011222299538715,0.0,359321.611658144,1.16072E-11,1154.30798339843,0.305762459462935,8.5089908344234,-2.20303153305313
1380.0,-5921500.74986251,-2914833.5487014,1334041.80414081,59037.8277638072,-6599726.54340136,1334247.86665344,4890.16328965575,-1098.45488181803,-5864.43650382863,-0.0772375395652385,8.6267192107843,-1.74918508115627,6769566.95764874,1.12395053604017,-0.0012618964993922,-0.186923617272742,-7.327778495077E-4,-1.65838850205414,0.898296012532675,0.0594594277738313,0.0,-0.0011222299538715,0.0,356211.440327845,1.23783E-11,1157.5703125,-0.0772334906660937,8.62671819813778,-1.74919046639841
1440.0,-5853561.70045433,-3175365.71824717,979530.167486775,352078.38837694,-6650053.57022194,979509.926584803,4874.01894854617,-578.346705272449,-5955.52668738508,-0.460850381183744,8.70330654074271,-1.28574201602536,6769933.67419319,1.12832580545299,-0.0013270049589781,-0.185491458155307,-6.570246717579E-4,-1.57359797714451,0.901342140956061,0.167678126161451,0.0,-0.0011222299538715,0.0,353336.553716233,1.31222E-11,1160.18310546875,-0.460846106270759,8.70330595248866,-1.28574781626162
1500.0,-5760384.1970385,-3421708.17686832,620391.960974708,643460.278911514,-6669061.21904153,620145.512375851,4834.88733429629,-54.8930578586363,-6018.57909268597,-0.84315828914929,8.73815336818935,-0.81497844135561,6770193.38413356,1.13270107486579,-0.0013871474319726,-0.184008311850374,-5.715378195001E-4,-1.48875463280141,0.898671663261705,0.275948106381844,0.0,-0.0011222299538715,0.0,350715.5774425,1.38235E-11,1162.13818359375,-0.843153825445812,8.73815326371491,-0.814984618893008
1560.0,-5642245.99865697,-3652906.72860277,258320.163008687,931807.771287932,-6656624.15380843,257848.669088021,4772.90473246062,469.389238460066,-6053.22456277276,-1.22222728953346,8.73088494575953,-0.339239631578817,6770340.43852489,1.1370763442786,-0.0014415633056217,-0.182477610924475,-4.766945042436E-4,-1.40543861087806,0.890353408722482,0.382735975570324,0.0,-0.0011222299538715,0.0,348364.547314779,1.44667E-11,1163.43017578125,-1.22222268199832,8.73088537718153,-0.33924613623688
1620.0,-5499537.96986338,-3868074.62426541,-104974.348654278,1215756.79728851,-6612768.58346147,-105668.662157724,4688.32351257802,991.967835546748,-6059.23621187097,-1.59612411168586,8.68135944891504,0.139079895969983,6770371.38438095,1.14145161369142,-0.0014895133686779,-0.180903031802552,-3.729459496009E-4,-1.3250832579708,0.87659508491412,0.486655472654379,0.0,-0.0011222299538715,0.0,346296.746594628,1.50368E-11,1164.0576171875,-1.59611941194567,8.68136045823414,0.139073126048642
1680.0,-5332763.19630789,-4066396.42789265,-467771.4069917,1493961.90428496,-6537672.77108529,-468685.259666165,4581.51168295914,1510.30898665395,-6036.53190670247,-1.96292966744751,8.58967267908023,0.617552293477462,6770285.06484156,1.14582688310422,-0.0015302861063233,-0.179288474634607,-2.608157379268E-4,-1.24885725461018,0.857719280693578,0.586585691997715,0.0,-0.0011222299538715,0.0,344522.58676118,1.55198E-11,1164.021484375,-1.96292493227702,8.58967429563237,0.617545330317139
1740.0,-5142535.47744144,-4247131.52900539,-828350.285588255,1765103.15985862,-6431666.68829794,-829479.356431141,4452.95163065164,2021.89188826593,-5985.17577072652,-2.32075269747794,8.45616048304746,1.09373299951318,6770082.66970928,1.15020215251704,-0.0015632039230438,-0.177638041678096,-1.408976916134E-4,-1.17760232747199,0.834129955495516,0.68173373402934,0.0,-0.0011222299538715,0.0,343049.534063074,1.59038E-11,1163.32666015625,-2.32074798688563,8.45616272147205,1.09372592312333
1800.0,-4929577.19698826,-4409617.27328956,-1184998.48858572,2027892.95625127,-6295230.80618907,-1186337.43543109,4303.2380429705,2524.22309612865,-5905.37867641659,-2.66774336984697,8.2813987957023,1.56517781122474,6769767.73385086,1.15457742192984,-0.0015876292378853,-0.175956014371746,-1.38532798835E-5,-1.11182815163961,0.80627674941942,0.771640181183789,0.0,-0.0011222299538715,0.0,341882.083125987,1.61794E-11,1161.98095703125,-2.66773874492716,8.28140165459159,1.56517070693164
1860.0,-4694716.57827181,-4553271.68766544,-1536020.53936761,2281082.66575665,-6128994.0226656,-1537563.02357623,4133.07501997421,3014.85087150616,-5797.49770612577,-3.00210661396964,8.06620127051084,2.02946014767268,6769346.08239143,1.15895269134266,-0.0016029703954566,-0.174246829292486,1.195914564858E-4,-1.05175052705713,0.774623138813344,0.856141320707125,0.0,-0.0011222299538715,0.0,341021.777815006,1.634E-11,1159.99450683593,-3.00210213456427,8.06620473191671,2.02945310298302
1920.0,-4438884.33785336,-4677595.7795832,-1879746.70594982,2523469.09911449,-5933730.73472777,-1881485.4222409,3943.27240016948,3491.37931334974,-5662.03457819409,-3.32211497791612,7.81161452172586,2.48418823325541,6768825.72315345,1.16332796075546,-0.0016086873358222,-0.172515053199844,2.586494675414E-4,-0.997352850114571,0.73962184730683,0.935308099546529,0.0,-0.0011222299538715,0.0,340467.278470718,1.63826E-11,1157.38073730468,-3.32211070038881,7.81161855150853,2.48418133467624
1980.0,-4163109.75710255,-4782175.39463419,-2214541.60133361,2753900.72068002,-5710357.07277913,-2216468.31260088,3734.7413340832,3951.48213526162,-5499.63305114253,-3.62612081051176,7.51891106042703,2.9270219342999,6768216.68834695,1.16770323016828,-0.0016042969668092,-0.170765357381406,4.024767452868E-4,-0.948453052767025,0.701698364090558,1.00937964568383,0.0,-0.0011222299538715,0.0,340214.473582635,1.63076E-11,1154.15576171875,-3.62611678561607,7.51891560954469,2.92701526406664
2040.0,-3868516.1971024,-4866682.62110889,-2538812.59832118,2971283.5765677,-5459926.32235925,-2540918.17524078,3508.48915171403,4392.91595274508,-5311.07533450743,-3.91256758871864,7.18958006182317,3.35568899358162,6767530.82902965,1.17207849958109,-0.0015893781834427,-0.169002491518414,5.501768607091E-4,-0.904764262395779,0.661241692923337,1.07870311022515,0.0,-0.0011222299538715,0.0,340256.632968808,1.61188E-11,1150.3388671875,-3.91256385984256,7.18958506838419,3.35568262672866
2100.0,-3556316.08757207,-4930876.73482751,-2851018.0004526,3174586.89503666,-5183623.56648096,-2853292.46565727,3265.6135798867,4813.53295596846,-5097.27754955513,-4.18000023688231,6.82531614985371,3.76800042962799,6766781.56727391,1.1764537689939,-0.0015635764813979,-0.167231257292155,7.00805978631E-4,-0.865943656409797,0.618600671029557,1.14368536469901,0.0,-0.0011222299538715,0.0,340584.598628676,1.5823E-11,1145.95275878906,-4.17999683877545,6.82532154172474,3.76799443159883
2160.0,-3227805.42514427,-4974604.6823042,-3149674.91371803,3362848.3220051,-4882759.58887964,-3152107.49028166,3007.29637385741,5211.29285569923,-4859.28429628266,-4.42707431468011,6.42800642549275,4.16186489669546,6765983.6122265,1.18082903840671,-0.0015266081140929,-0.165456481949603,8.533783360019E-4,-0.831628470604744,0.574084102476163,1.20475760412149,0.0,-0.0011222299538715,0.0,341187.008654414,1.543E-11,1141.02331542968,-4.42707127256364,6.42801212349421,4.16185932134652
2220.0,-2884357.82028073,-4997801.10495033,-3433366.76742858,3535178.75864498,-4558764.0847948,-3435945.93137766,2734.79643393113,5584.27400463973,-4598.26239435298,-4.65256398329092,5.99971599675305,4.53530183520079,6765152.64728476,1.18520430781953,-0.0014782637469181,-0.163682992040996,0.0010068721624168,-0.801460593525618,0.527963218794046,1.26235143450256,0.0,-0.0011222299538715,0.0,342050.548947032,1.49515E-11,1135.58154296875,-4.65256131262773,5.99972191786088,4.535296723722
2280.0,-2527418.13528786,-5000487.91145974,-3700750.43696688,3690766.77239447,-4213178.23129309,-3703463.97351109,2449.44248221913,5930.68361249068,-4315.49387462769,-4.85536869482272,5.54267228689733,4.88645328293328,6764304.99638963,1.18957957723233,-0.0014184115665832,-0.161915587532852,0.001160236014317,-0.775102129224934,0.480475363499946,1.31688407491215,0.0,-0.0011222299538715,0.0,343160.226999308,1.44009E-11,1129.66259765625,-4.85536640149846,5.54267834755701,4.88644866331408
2340.0,-2158495.75827983,-4982773.40965062,-3950562.92594538,3828882.55731332,-3847646.67353702,-3953397.98909858,2152.62537695947,6248.86699001071,-4012.36830456704,-5.03451858339727,5.05924840712823,5.21359425685502,6763457.27793441,1.19395484664514,-0.0013469998088863,-0.160159016487869,0.0013123954865086,-0.752244364731159,0.431828159555619,1.36875025216611,0.0,-0.0011222299538715,0.0,344499.661689119,1.37924E-11,1123.30712890625,-5.03451666440697,5.05925452620564,5.21359014413984
2400.0,-1779157.55953357,-4944851.01277219,-4181627.57042937,3948881.42436934,-3463908.98677287,-4184570.74567506,1845.79014211459,6537.31577445746,-3690.37453490403,-5.18917856917496,4.55194587635193,5.51514165738605,6762626.05498083,1.19833011605796,-0.0012640586742547,-0.158417950488603,0.0014622602570952,-0.732612222169497,0.382203705602165,1.41831872472849,0.0,-0.0011222299538715,0.0,346051.382870492,1.31407E-11,1116.56127929687,-5.1891770136062,4.55195197783278,5.51513805440227
2460.0,-1391020.57752796,-4886997.53855678,-4392859.73318661,4050206.80686989,-3063790.67616477,-4395897.10282771,1530.42778841657,6794.67510545431,-3351.09195673731,-5.31865121489279,4.02337695917825,5.78966168492141,6761827.49038069,1.20270538547076,-0.0011697016070352,-0.156696960965329,0.0016087314143993,-0.715965803182059,0.331762550950647,1.46593184720343,0.0,-0.0011222299538715,0.0,347797.134553875,1.24598E-11,1109.47729492187,-5.3186500052232,4.0233829741663,5.789658583611
2520.0,-995744.482111561,-4809571.12206529,-4583271.96126636,4132392.77073523,-2649193.77798415,-4586389.17208904,1208.06699888726,7019.74973596168,-2996.18135769813,-5.42237839923959,3.4762468708554,6.03587579436851,6761077.01502101,1.20708065488357,-0.0010641259215967,-0.155000496570642,0.0017507090076253,-0.702100190358212,0.280647333880532,1.51190703253136,0.0,-0.0011222299538715,0.0,349718.175617755,1.17633E-11,1102.11291503906,-5.42237751272899,3.47625273914403,6.0358731773526
2580.0,-595023.861784829,-4713008.76561378,-4751978.58546227,4195066.02356477,-2222087.1261493,-4755160.91833616,880.265747419034,7211.50907718699,-2627.37546340205,-5.49994188994837,2.9133360712269,6.25266524254277,6760389.01679056,1.21145592429638,-9.476127658139E-4,-0.153332861724606,0.0018870997569876,-0.690844310846548,0.228986050926655,1.55653933164893,0.0,-0.0011222299538715,0.0,351795.572277376,1.10633E-11,1094.53076171875,-5.49994130010115,2.91334174214365,6.25266308495644
2640.0,-190580.381107431,-4597823.55078219,-4898199.74526859,4237947.42040404,-1784496.34780099,-4901432.18630181,548.602913588991,7369.09118859593,-2246.46924633282,-5.55106291310511,2.33748283614178,6.43907430784827,6759776.55703049,1.2158311937092,-8.205264201804E-4,-0.151698196435291,0.0020168248540799,-0.682059398477153,0.176894972960839,1.60010462255091,0.0,-0.0011222299538715,0.0,354010.476935249,1.03706E-11,1086.7978515625,-5.55106259106149,2.337488268915,6.43907257918977
2700.0,215845.14715064,-4464601.53871389,-5021264.82771111,4260852.96773149,-1338493.65061019,-5024532.14057722,214.669950841607,7491.80573448207,-1855.31007900469,-5.57560082258476,1.75156626061789,6.59431227851239,6759251.12023677,1.220206463122,-6.833129385279E-4,-0.150100457480574,0.0021388277796697,-0.675637400334763,0.124481249655684,1.64286309449952,0.0,-0.0011222299538715,0.0,356344.388532062,9.6944E-12,1078.98278808593,-5.57560073839486,1.75157142422266,6.59431094445276
2760.0,622500.732198549,-4313998.38565337,-5120615.31286155,4263694.33042341,-886187.462971156,-5123902.11191704,-119.937341158621,7579.13593672822,-1455.78780210847,-5.57355097590996,1.15848981236266,6.71775431662632,6758822.40167793,1.22458173253482,-5.364981439372E-4,-0.148543401018788,0.0022520820638471,-0.671499544171357,0.0718452562649063,1.68506284590302,0.0,-0.0011222299538715,0.0,358779.390087335,9.0418E-12,1071.15295410156,-5.57355109963145,1.1584946848863,6.71775334068737
2820.0,1027631.17675365,-4146735.70098838,-5195807.02288755,4246478.84931242,-429711.986262047,-5199097.84670189,-453.626895526701,7630.73955948648,-1049.82477174914,-5.54504192034475,0.561165520316013,6.80894130974544,6758498.13642262,1.22895700194763,-3.80685000824E-4,-0.147030566678318,0.0023555989129937,-0.669595197593234,0.0190827414763376,1.72694350238929,0.0,-0.0011222299538715,0.0,361298.359746496,8.4186E-12,1063.37084960937,-5.54504222292685,0.561170088106979,6.80894065473183
2880.0,1429486.01094211,-3963597.17502211,-5246511.77513353,4209309.07944056,28783.283922377,-5249791.1600599,-784.818270086691,7646.44896565712,-639.365943186459,-5.49033198668306,-0.0375011472761603,6.8675788206375,6758283.97209644,1.23333227136044,-2.165503910552E-4,-0.145565263159817,0.0024484346289224,-0.66990109483224,-0.0337131638638819,1.76873981779806,0.0,-0.0011222299538715,0.0,363885.152318209,7.8285E-12,1055.69189453125,-5.49033244062718,-0.0374968907693179,6.86757844983123
2940.0,1826327.35167907,-3765424.50336344,-5272518.44297439,4152381.86124269,487144.013134749,-5275770.99639623,-1111.95031939067,7626.27028747402,-226.36904199626,-5.40980537890757,-0.634625688028361,6.89353524033029,6758183.38653624,1.23770754077325,-4.48413283475E-5,-0.144150555369693,0.0025296977482302,-0.672420971457565,-0.0864500178187577,1.81068525456716,0.0,-0.0011222299538715,0.0,366524.748975944,7.2738E-12,1048.16015625,-5.40980595871319,-0.634621743427708,6.89353511838877
3000.0,2216437.65268842,-3553113.13425284,-5273733.4310532,4075986.93871432,943221.408179275,-5276943.90395101,-1433.48861894683,7570.38175449062,187.205132472247,-5.30396783665098,-1.22735824745819,6.88683924028731,6758197.65043602,1.24208281018606,1.336293492005E-4,-0.142789253089661,0.0025985558338497,-0.677185623440863,-0.139034159546657,1.85301555739309,0.0,-0.0011222299538715,0.0,369203.373497912,6.7555E-12,1040.80737304687,-5.3039685190655,-1.22735461066785,6.88683933387809
3060.0,2598127.31230005,-3327607.86440234,-5250180.57403949,3980505.14015982,1394882.47269732,-5253333.93253242,-1747.93261802678,7479.13122210413,599.402231884316,-5.17344193512146,-1.81289658841782,6.84767660806072,6758325.83409013,1.24645807959887,3.179877636979E-4,-0.141483901174896,0.0026542418562818,-0.684253388028604,-0.191368764155272,1.89597233842272,0.0,-0.0011222299538715,0.0,371908.574116368,6.2734E-12,1033.65502929687,-5.17344269924048,-1.81289325169214,6.84767688625423
3120.0,2969742.10803984,-3089898.30807426,-5202000.4702671,3866406.1384253,1840020.09153824,-5205081.96579524,-2053.82250093119,7353.03294278561,1008.28367716874,-5.01896207481542,-2.38849836906536,6.77638653781076,6758564.856483,1.25083334901168,5.073042105014E-4,-0.140236771262155,0.0026960601084102,-0.693711024129251,-0.243351801392966,1.93980668443215,0.0,-0.0011222299538715,0.0,374629.270731909,5.8268E-12,1026.71472167968,-5.01896290205448,-2.38849532200291,6.77638697227647
3180.0,3329670.42878085,-2841014.2632069,-5129449.26357568,3734245.80864132,2276562.89970606,-5132444.50140149,-2349.74573937008,7192.76362068433,1411.93573932977,-4.84136920146025,-2.95149275725102,6.67345743380364,6758909.5742189,1.2552086184245,7.005987480076E-4,-0.139049854959652,0.0027233916052111,-0.705674943496457,-0.29487383865079,1.9847827749562,0.0,-0.0011222299538715,0.0,377355.767910943,5.414E-12,1019.99243164062,-4.84137007547086,-2.95148998753057,6.67345799886778
3240.0,3676350.27685232,-2582020.99745814,-5032896.88843688,3584663.20247455,2702484.89406169,-5035791.89415704,-2634.34332071986,6999.15778855,1808.47835502194,-4.64160528611436,-3.49929141045769,6.53952227221119,6759352.90718706,1.2595838878373,8.968471104454E-4,-0.137924858481891,0.0027356989277151,-0.720292703993083,-0.345815628539167,2.03118146110106,0.0,-0.0011222299538715,0.0,380079.734718515,5.0334E-12,1013.49230957031,-4.64160619263878,-3.49928890449516,6.53952294481035
3300.0,4008276.01401501,-2314014.47610975,-4912824.79503826,3418377.15875383,3115814.74824428,-4915606.07881162,-2906.3156384281,6773.20254417918,2196.07365144831,-4.42070758614386,-4.02939884929856,6.37535355480186,6759885.99735848,1.26395915725012,0.0010949868888388,-0.136863198685367,0.0027325304788891,-0.737744613882404,-0.396045423113264,2.07930369084637,0.0,-0.0011222299538715,0.0,382794.153036298,4.683E-12,1007.21728515625,-4.42070851285283,-4.02939659274163,6.37535431437454
3360.0,4324004.82662179,-2038116.55288272,-4769823.17247028,3236182.57112722,3514644.79346026,-4772477.79068197,-3164.42803185742,6516.03168205793,2572.93415684724,-4.17980270060823,-4.53942224755012,6.18185787802969,6760498.39674184,1.26833442666293,0.001293923925151,-0.135866000454848,0.0027135241275925,-0.758245199936343,-0.445415963275185,2.12947356768601,0.0,-0.0011222299538715,0.0,385493.236572158,4.3609E-12,1001.17279052734,-4.17980363693967,-4.53942022564434,6.18185870637872
3420.0,4622162.88661424,-1755470.1438716,-4604587.68954771,3038946.33414799,3897139.62989099,-4607103.30364477,-3407.51596349996,6228.91925467893,2937.3306739874,-3.92010042826901,-5.02708065501003,5.96007013287836,6761178.28025072,1.27270969607574,0.0014925388653197,-0.134934095384819,0.0026784102250435,-0.782044147514375,-0.493761107247541,2.182040681504,0.0,-0.0011222299538715,0.0,388172.323275914,4.0649E-12,995.3662109375,-3.92010136525138,-5.02707885291955,5.96007101400111
3480.0,4901451.18629093,-1467234.40401973,-4417915.77412719,2827602.98989952,4261544.33551432,-4420280.70637724,-3634.48982187521,5913.27259727131,3287.59979481786,-3.64288743297255,-5.4902136615198,5.71114734466678,6761912.67905629,1.27708496548855,0.0016896938184915,-0.134068021696512,0.0026270139860843,-0.809426110334321,-0.540892092945705,2.23738113673301,0.0,-0.0011222299538715,0.0,390827.744331161,3.7933E-12,989.80712890625,-3.64288836306344,-5.49021206455351,5.71114826458425
3540.0,5160651.02604704,-1174579.9248289,-4210702.45307965,2603150.09796273,4606192.24114962,-4212905.73902053,-3844.33933865639,5570.62484945121,3622.15103484579,-3.34952071974063,-5.92678950141412,5.43636215817466,6762687.72989151,1.28146023490136,0.0018842390719034,-0.133268025327987,0.0025592572349045,-0.840708494418044,-0.586593485463479,2.29589640632107,0.0,-0.0011222299538715,0.0,393456.67328884,3.5441E-12,984.506896972656,-3.34952163666195,-5.92678809521858,5.4363631047479
3600.0,5398629.13556006,-878683.971324245,-3983935.77635289,2366643.35221094,4929512.2425533,-3985967.21371834,-4036.13760876691,5202.62700760666,3939.47356606935,-3.04142092502087,-6.33491258894139,5.13709597155126,6763488.93573043,1.28583550431417,0.0020750198137862,-0.132534062132617,0.0024751595213922,-0.87623593595159,-0.630618956489031,2.35800875226265,0.0,-0.0011222299538715,0.0,396056.959239053,3.3157E-12,979.478149414062,-3.04142182362496,-6.33491135961427,5.13709693432199
3660.0,5614342.410215,-580725.775661197,-3738691.84982335,2119191.46858589,5230035.62244269,-3740542.0437478,-4209.04470244418,4811.03954266406,4238.14252750048,-2.7200654264604,-6.71283046643807,4.81483172281907,6764301.43327726,1.29021077372699,0.0022608828199123,-0.131865801120356,0.0023748386200803,-0.916369733392621,-0.672687194541328,2.42415149132678,0.0,-0.0011222299538715,0.0,398626.948178243,3.1064E-12,974.733520507812,-2.72006630257821,-6.71282940065173,4.8148326928276
3720.0,5806842.24594582,-281881.904163738,-3476129.50288557,1861950.86865708,5506402.35744255,-3477789.90720915,-4362.31085867289,4397.72361920207,4516.82489258994,-2.38698128051642,-7.05894013968813,4.47114633469201,6765110.26275258,1.29458604313979,0.0024406830631746,-0.131262628676247,0.0022585104284044,-0.961470034188901,-0.712478471151579,2.49475192225359,0.0,-0.0011222299538715,0.0,401165.296913124,2.9148E-12,970.285095214843,-2.38698213083319,-7.05893922475498,4.47114730431973
3780.0,5975278.45714757,16678.2860047402,-3197484.61795638,1596120.18438538,5757366.88715651,-3198947.5724705,-4495.27925001681,3964.6319536216,4774.28487332089,-2.043738000627,-7.3717937682486,4.1077028273479,6765900.63555891,1.29896131255261,0.0026132902094402,-0.130723653691728,0.0021264882850225,-1.01186829656376,-0.749632697977078,2.57020444870444,0.0,-0.0011222299538715,0.0,403670.783947249,2.7393E-12,966.143981933593,-2.04373882256788,-7.37179299216553,4.10770379016864
3840.0,6118902.7639002,313797.08492444,-2904064.15026371,1322934.61008402,5981803.32488967,-2905322.91375678,-4607.38830978794,3513.79935115954,5009.38884146161,-1.69194019372891,-7.6501036738633,3.72624211393864,6766658.19553686,1.30333658196542,0.0027775949670716,-0.13024771354635,0.0019791817317811,-1.06782779220836,-0.783750186440593,2.65083167584888,0.0,-0.0011222299538715,0.0,406142.121816102,2.5786E-12,962.318664550781,-1.69194098534861,-7.65010302534309,3.72624306457243
3900.0,6237071.83645461,608332.747748616,-2597239.86742999,1043660.12807855,6178710.09200357,-2598288.64641299,-4698.17361373052,3047.33296384615,5221.10974854279,-1.33322007865689,-7.89274662716329,3.32857450001097,6767369.26969012,1.30771185137822,0.0029325152615241,-0.129833380880693,0.0018170947451425,-1.12949122332751,-0.814396691485516,2.7368325645593,0.0,-0.0011222299538715,0.0,408577.775270345,2.4317E-12,958.816223144531,-1.33322083855509,-7.89274609563616,3.32857543400669
3960.0,6329249.88677354,899163.677919483,-2278441.8394234,759587.634990596,6347213.96048413,-2279275.81243525,-4767.26930999341,2567.40231393077,5408.53102761278,-0.969229916157973,-8.09876737195784,2.91657091542386,6768021.10446167,1.31208712079104,0.0030770022104885,-0.129478971105224,0.001640823464124,-1.19681752736287,-0.841114518153451,2.82821972578027,0.0,-0.0011222299538715,0.0,410975.789554054,2.2973E-12,955.640441894531,-0.969230643385935,-8.09876694757713,2.91657182913053
4020.0,6395010.79889113,1185192.46211028,-1949151.71041025,472026.995886513,6486573.49104654,-1949767.04782369,-4814.40909313074,2076.22912970763,5570.84996177044,-0.601634386309304,-8.26738134798205,2.49215391510115,6768602.08388943,1.31646239020385,0.0032100458788792,-0.12918255059462,0.0014510534424465,-1.26951498962715,-0.863441217719235,2.92475298348053,0.0,-0.0011222299538715,0.0,413333.632785671,2.1744E-12,952.791809082031,-0.601635080296184,-8.2673810216097,2.49215480556189
4080.0,6434039.79195259,1465349.74400005,-1610895.78487155,182301.053719895,6596181.85698599,-1611289.66414132,-4839.42672020152,1576.07704292214,5707.38050690256,-0.232102955149039,-8.39797657669644,2.05728849317397,6769101.92625743,1.32083765961666,0.0033306807965471,-0.128941945522597,0.0012485564525414,-1.3469842395072,-0.880936370299907,3.02588278913901,0.0,-0.0011222299538715,0.0,415648.056128711,2.0621E-12,950.267761230468,-0.232103615645931,-8.3979763398783,2.05728935804222
4140.0,6446134.61200329,1738597.92483982,-1265237.96101587,-108260.378466329,6675569.04699432,-1265408.57733202,-4842.25606971056,1069.24119888585,5817.5555589646,0.137697722310024,-8.49011468097037,1.61397276300164,6769511.85619457,1.32521292902947,0.0034379912249445,-0.12875475129819,0.0010341868685729,-1.4282901441823,-0.893214956947386,3.13072250829182,0.0,-0.0011222299538715,0.0,417914.975042445,1.9596E-12,948.062255859375,0.137697095295944,-8.49011452591584,1.6139736004446
4200.0,6431206.25089462,2003934.67970946,-913772.545001427,-398326.515244404,6724403.44327751,-913719.117331769,-4822.93074710102,558.037831934008,5900.92865951476,0.506111311107717,-8.54353101803131,1.16422856280228,6769824.74955332,1.32958819844228,0.0035311161618953,-0.128618342570745,8.088776548144E-4,-1.51218186627839,-0.899983141597871,-3.04511645560203,0.0,-0.0011222299538715,0.0,420129.374437464,1.8661E-12,946.165283203125,0.506110717359293,-8.54353093758275,1.1642293714295
4260.0,6389279.19303595,2260396.27939782,-558116.979746202,-686571.559396916,6742492.77449891,-557839.752272877,-4781.58324371342,44.7938597887613,5957.17513699626,0.871499162409539,-8.55813391564682,0.710092053108872,6770035.24883072,1.33396346785509,0.0036092540761445,-0.12852988377724,5.736359844733E-4,-1.59717155966514,-0.901069880622736,-2.93670437710318,0.0,-0.0011222299538715,0.0,422285.24003905,1.7809E-12,944.563110351562,0.871498601545966,-8.55813390324902,0.710092831900415
4320.0,6320491.1931115,2507060.70897506,-199904.522133094,-971680.598901842,6729784.44629697,-199404.761109105,-4718.44365948606,-468.163449373767,5986.09268538819,1.23224747984848,-8.534003014016,0.253604377106203,6770139.84736478,1.33833873726791,0.0036716673655684,-0.128486340211835,3.295385129096E-4,-1.68166464249026,-0.896447079823538,-2.82877442785696,0.0,-0.0011222299538715,0.0,424375.517693688,1.7033E-12,943.237548828125,1.2322469513602,-8.53400306368327,0.253605125356253
4380.0,6225092.59026271,2743050.57534604,159223.097809676,-1252355.41452576,6686365.25534177,159943.111737938,-4633.83800309451,-978.51668391371,5987.60138621563,1.58677422912998,-8.47138672972799,-0.203197541874414,6770136.94105053,1.34271400668071,0.0037176865346179,-0.128484489603439,7.77263278101E-5,-1.76411526569327,-0.886233030467036,-2.72282563184964,0.0,-0.0011222299538715,0.0,426392.10175563,1.6329E-12,942.1728515625,1.58677373240208,-8.47138683601393,-0.203196824597251
4440.0,6103445.16656479,2967535.79738329,517623.002666205,-1527320.17316725,6612460.49605081,518559.986604642,-4528.18608660646,-1483.9683179589,5961.74318440672,1.9335357355838,-8.37069887297384,-0.658289990397361,6770026.84685791,1.34708927609353,0.0037467140878437,-0.128520934192483,-1.806004023667E-4,-1.84317013069429,-0.870678181065375,-2.62016400583171,0.0,-0.0011222299538715,0.0,428325.853075683,1.5693E-12,941.365173339843,1.93353526988868,-8.37069903095627,-0.658289304243556
4500.0,5956020.55985849,3179736.07361372,873658.44600574,-1795326.98321493,6508432.47212825,874808.131341697,-4401.99903495373,-1982.25051338849,5908.68083298425,2.27103291783396,-8.2325144643949,-1.1096711683058,6769811.78801017,1.35146454550634,0.0037582281372556,-0.128592113302663,-4.441880614587E-4,-1.91776872478978,-0.850137066293647,-2.52180196824281,0.0,-0.0011222299538715,0.0,430166.646499531,1.5123E-12,940.808959960937,2.27103248236324,-8.23251466966555,-1.10967051319174
4560.0,5783398.24308805,3378923.12385687,1225706.01207761,-2055161.28949271,6374778.42796842,1227063.16528972,-4255.87643346933,-2471.13464831117,5828.69632592129,2.59781711148905,-8.05756481278601,-1.55536953527374,6769495.84625109,1.35583981491915,0.0037517857216693,-0.128694316407023,-7.117354808014E-4,-1.98718521862234,-0.825033244481229,-2.42841607425059,0.0,-0.0011222299538715,0.0,431903.447181623,1.4614E-12,940.495178222656,2.59781670539035,-8.05756506143558,-1.55536891093665
4620.0,5586263.0842002,3564422.70266643,1572162.70681699,-2305647.08683866,6212127.91762128,1573721.15444592,-4090.50313929467,-2948.44052987576,5722.18884252995,2.91249544401614,-7.84673192872736,-1.99345173644561,6769084.88219537,1.36021508433196,0.0037270258363488,-0.128823696690267,-9.819000779653E-4,-2.05101663836419,-0.795824367404183,-2.3403584588044,0.0,-0.0011222299538715,0.0,433524.414448902,1.4165E-12,940.409729003906,2.91249506642737,-7.84673221732575,-1.99345114249608
4680.0,5365402.50233767,3735616.38387873,1911452.91166152,-2545651.93297701,6021239.63140485,1913205.56930608,-3906.64578452762,-3412.04525413219,5589.67223034852,3.2137357310442,-7.60104236141645,-2.4220300518141,6768586.42532098,1.36459035374478,0.0036836721708692,-0.128976285110549,-0.0012533042206036,-2.10913442233121,-0.762972581344679,-2.25770487214837,0.0,-0.0011222299538715,0.0,435017.031418849,1.3774E-12,940.534606933593,3.21373538112404,-7.6010426869895,-2.42202948778401
4740.0,5121703.23747869,3891943.11699176,2242035.17338916,-2774091.74306217,5802997.70232248,2243974.07857751,-3705.1490004601,-3859.89168120691,5431.77205649478,3.50027087479912,-7.32166055585082,-2.83926932491878,6768009.53569043,1.36896562315758,0.0036215355525981,-0.129148004963885,-0.0015245417971045,-2.16161933430516,-0.726922731008363,-2.1803193291666,0.0,-0.0011222299538715,0.0,436368.258097569,1.3438E-12,940.843383789062,3.50027055175904,-7.32166091584868,-2.83926879031354
4800.0,4856147.75180523,4032900.55746196,2562408.80505648,-2989935.35006301,5558407.51616797,2564525.15382907,-3486.93139307041,-4289.99650011046,5249.22225974167,3.77090275688445,-7.00988183446256,-3.24339333931996,6767364.63997962,1.37334089257039,0.003540516092193,-0.129334686952977,-0.0017941849751976,-2.2086956925759,-0.688088514411159,-2.10791940654478,0.0,-0.0011222299538715,0.0,437564.70526782,1.3155E-12,941.306396484375,3.77090246001125,-7.0098822267294,-3.24339283365713
4860.0,4569810.2819075,4158046.17427468,2871120.27509923,-3192208.8169718,5288591.0505524,2873404.46212821,-3252.98130003797,-4700.45786386097,5042.86143703404,4.02450562980065,-6.66712511075356,-3.63269062575619,6766663.34480511,1.37771616198321,0.0034406050265225,-0.129532084759498,-0.0020607911291836,-2.25067440710655,-0.646845345354836,-2.04013268752609,0.0,-0.0011222299538715,0.0,438592.826126648,1.293E-12,941.976196289062,4.02450535835585,-6.66712553368356,-3.63269014838867
4920.0,4263852.56144754,4266998.13928976,3166769.36370072,-3379999.48862379,4994781.76905087,3169211.02575995,-3004.35235893317,-5089.46258209538,4813.62879876348,4.26002902332397,-6.29492544303609,-4.00551969729346,6765918.2307489,1.38209143139601,0.0033218862528546,-0.129735891114861,-0.0023229099150951,-2.28790857763048,-0.603528169642263,-1.97654059263943,0.0,-0.0011222299538715,0.0,439439.12235272,1.2766E-12,942.914855957031,4.26002877658814,-6.29492589562434,-4.00551924745966
4980.0,3939519.23410744,4359436.00386179,3448015.06758638,-3552459.77265561,4678319.097245,3450603.1301771,-2742.15891488932,-5455.29286470783,4562.55982678026,4.47650019445347,-5.89492653157906,-4.36031372659399,6765142.63079801,1.38646670080883,0.0031845375468982,-0.129941754358946,-0.0025790904716784,-2.32076163506881,-0.558432545550576,-1.91670960400008,0.0,-0.0011222299538715,0.0,440090.361074747,1.2669E-12,944.171997070312,4.47649997180025,-5.89492701342286,-4.3603133035208
5040.0,3598132.97655887,4435101.16905586,3713581.23640571,-3708810.64077098,4340642.50764223,3716303.96333493,-2467.57129401601,-5796.33261603781,4290.78166782466,4.67302616009099,-5.46887325494005,-4.69558469395627,6764350.39707964,1.39084197022164,0.0030288314555821,-0.130145295469845,-0.0028278887236955,-2.34958612931966,-0.511817629037988,-1.86021176869509,0.0,-0.0011222299538715,0.0,440533.799072421,1.2643E-12,945.79296875,4.67302596104879,-5.46887376624294,-4.69558429694424
5100.0,3241089.35083875,4493797.15640482,3962261.92576233,-3848344.84298149,3983285.24031615,3965106.97146438,-2181.81096617377,-6111.07328455469,3999.50829291296,4.84879536115357,-5.01860432970438,-5.00992704908182,6763555.65994595,1.39521723963445,0.0028551358538182,-0.130342125540231,-0.0030678747617923,-2.37471069016366,-0.463910091153025,-1.80663694139116,0.0,-0.0011222299538715,0.0,440757.410467152,1.2693E-12,947.821655273437,4.84879518545769,-5.01860487129779,-5.009926677573
5160.0,2869851.40493294,4535389.68657391,4192926.45369893,-3970429.82881468,3607867.68567188,4195880.91808479,-1886.14561756518,-6398.11927760221,3690.03545024274,5.00307901449697,-4.54604516289406,-5.30202094222661,6762772.58352403,1.39959250904726,0.0026639141532528,-0.130527863667829,-0.0032976402714183,-2.39643281959763,-0.414908334594487,-1.75559909277098,0.0,-0.0011222299538715,0.0,440750.114145101,1.2825E-12,950.301391601562,5.00307886215024,-4.54604573624519,-5.30202059588738
5220.0,2485944.03960879,4559806.57350086,4404524.14898974,-4074510.37060382,3216090.45505233,4407574.63460405,-1581.88415004,-6656.19295439875,3363.73543551381,5.13523221448116,-4.05320094835463,-5.57063509095367,6762015.12182957,1.40396777846008,0.0024557251488695,-0.130698155218325,-0.0035158059804743,-2.41501559444174,-0.364986634163273,-1.70673858759946,0.0,-0.0011222299538715,0.0,440501.997194075,1.3048E-12,953.276794433593,5.13523208581084,-4.05320155560339,-5.57063476974551
5280.0,2090948.15865602,4567037.44156489,4596088.7809021,-4160110.88487445,2809727.16402898,4599221.45216377,-1270.3716202041,-6884.13921297849,3022.05169934456,5.2446948488186,-3.54215003852737,-5.81462935635059,6761296.77945036,1.40834304787288,0.0022312224888945,-0.13084869041023,-0.0037210290938833,-2.43068683092737,-0.314299004181775,-1.6597218607659,0.0,-0.0011222299538715,0.0,440004.530721749,1.3371E-12,956.794799804687,5.24469474454535,-3.54215068252052,-5.81462906061849
5340.0,1686494.61874929,4557133.27311697,4766742.66113251,-4226837.4485111,2390616.95223581,4769943.30543117,-952.984127524286,-7080.92968799997,2666.49330687188,5.33099239353029,-3.01503760139732,-6.03295710732703,6760630.38064461,1.4127183172857,0.0019911537515893,-0.130975223161301,-0.003912010680263,-2.44363968028496,-0.262982710843732,-1.61423949942401,0.0,-0.0011222299538715,0.0,439250.774547976,1.3804E-12,960.903137207031,5.33099231484784,-3.01503828573213,-6.03295683790048
5400.0,1274257.9942085,4530205.79328575,4915700.40938503,-4274379.50682358,1960656.76258507,4918954.4998026,-631.123656798076,-7245.66657627612,2298.62925985265,5.39373664913816,-2.47406955037426,-6.22466745283601,6760027.85047973,1.41709358669851,0.0017363591122143,-0.131073590127087,-0.0040875029743025,-2.45403395220119,-0.211161416903965,-1.57000340830572,0.0,-0.0011222299538715,0.0,438235.567423593,1.4362E-12,965.64990234375,5.39373659780886,-2.47407027943603,-6.22466721115348
5460.0,855950.171069392,4486426.69838286,5042272.37453524,-4302511.27084557,1521793.40172759,5045565.133959,-306.212876779624,-7377.58610548512,1920.08268684191,5.43262647479429,-1.92150671298688,-6.38890741965456,6759500.01136368,1.42146885611132,0.0014677695828376,-0.131139729852957,-0.0042463165563743,-2.46199770309831,-0.158947985353202,-1.52674349181485,0.0,-0.0011222299538715,0.0,436955.699614835,1.5061E-12,971.079711914062,5.43262645326058,-1.92150749198747,-6.38890720791008
5520.0,433313.784151127,4426026.73349487,5145867.70352139,-4311092.80120811,1076015.40276672,5149184.16991191,20.3101064201772,-7476.06165884821,1532.52490252125,5.44744856898296,-1.35965918366524,-6.52492414759047,6759056.39801197,1.42584412552413,0.0011864048076256,-0.13116970195221,-0.0043873273692631,-2.46762879369136,-0.106446989062053,-1.48420411561213,0.0,-0.0011222299538715,0.0,435410.064904108,1.5919E-12,977.228271484375,5.44744858049791,-1.35966001865041,-6.52492396891386
5580.0,8115.51028454307,4349294.62399896,5225997.0500439,-4300070.77576574,625344.710578051,5229322.14261834,346.997045158266,-7540.60656470311,1137.66933319409,5.43807833503602,-0.790880787154002,-6.63206716491286,6758705.09355207,1.43021939493695,8.933703968095E-4,-0.131159706214939,-0.0045094835307929,-2.47099623295147,-0.053756982603807,-1.44214049466965,0.0,-0.0011222299538715,0.0,433599.789289614,1.6958E-12,984.114624023437,5.438078383809,-0.790881684975717,-6.63206702357927
5640.0,-417860.769399717,4256575.86481304,5282274.91486948,-4269478.93785184,171828.209693291,5285593.50095755,672.394901238878,-7570.87655500386,737.265302048468,5.40448085729778,-0.217563563264085,-6.70979079461745,6758452.58911045,1.43459466434975,5.898547833021E-4,-0.131106101544944,-0.0046118119002032,-2.47214119926722,-9.725956556991E-4,-1.40031507895491,0.0,-0.0011222299538715,0.0,431528.333918726,1.8199E-12,991.731506347656,5.40448094864855,-0.217564531474693,-6.70979069628663
5700.0,-842820.925186979,4148271.37022776,5314421.60907045,-4219438.22164533,-282470.885365905,5317718.57139679,995.051259116239,-7566.67189102416,333.091665182889,5.34671199982002,0.357867828886543,-6.75765672733004,6758303.66885822,1.43896993376255,2.771255875001E-4,-0.131005424615615,-0.0046934243558754,-2.47107767691597,0.0518134922937564,-1.35849396028509,0.0,-0.0011222299538715,0.0,429201.570061614,1.9668E-12,1000.03918457031,5.34671214032809,0.357866782228628,-6.75765667929963
5760.0,-1264967.63918306,4024835.98621074,5322264.83093459,-4150156.55069444,-735481.757126531,5325525.13507753,1313.51980865462,-7527.93914815578,-73.0497122563258,5.26491962442905,0.932961897523899,-6.7753367796468,6758261.32212722,1.44334520317537,-4.34745221351E-5,-0.130854408130289,-0.0047535237422823,-2.46779267664362,0.1045086368432,-1.31644329628624,0.0,-0.0011222299538715,0.0,426627.824225194,2.1388E-12,1008.96038818359,5.26491982206619,0.932960764132634,-6.77533679110142
5820.0,-1682507.55634978,3886776.86616139,5305740.84661976,-4061928.30521793,-1185134.8087087,5308949.60839215,1626.36590412446,-7454.77264491956,-479.340651054924,5.15934490942859,1.50524641034768,-6.76261583812643,6758326.68384385,1.44772047258818,-3.705324826679E-4,-0.130649998568119,-0.0047914094447165,-2.46224603070652,0.157018314652931,-1.27392573469995,0.0,-0.0011222299538715,0.0,423817.8918241,2.3384E-12,1018.3837890625,5.15934517365859,1.50524518209046,-6.76261592036484
5880.0,-2093658.51099611,3734651.71027255,5264895.26396542,-3955133.45344699,-1629370.56190998,5268037.81645873,1932.17220451921,-7347.41549441667,-883.953534685949,5.03032373458337,2.07223490652578,-6.71939496959506,6758499.00418469,1.45209574200099,-7.025700110384E-4,-0.13038937329321,-0.0048064825517825,-2.45436977131968,0.209244151977237,-1.23069682105811,0.0,-0.0011222299538715,0.0,420785.018170065,2.5678E-12,1028.173828125,5.03032407642134,2.07223357587059,-6.71939513621616
5940.0,-2496656.81206133,3569066.86795763,5199883.38828021,-3830236.34203659,-2066148.60635348,5202945.34830834,2229.54439775947,-7206.26024970816,-1285.05837674093,4.87828808291531,2.63143373802048,-6.64569465851252,6758775.64801942,1.4564710114138,-0.0010380493021996,-0.130069956902478,-0.0047982505675676,-2.44406712279736,0.261081836692788,-1.18650138495072,0.0,-0.0011222299538715,0.0,417544.845914922,2.8294E-12,1038.18383789062,4.87828851494812,2.6314322985111,-6.64569492555322
6000.0,-2889764.5686831,3390675.30226653,5110970.14847384,-3687784.14051896,-2493456.57432089,5113937.48214817,2517.1170079528,-7031.84910830347,-1680.83008499133,4.703767395726,3.18034974029658,-6.54165811254228,6759152.12438926,1.46084628082662,-0.0013753792497024,-0.129689436686466,-0.0047663316377449,-2.43121116790036,0.312418854110462,-1.14106992709533,0.0,-0.0011222299538715,0.0,414115.328490243,3.1252E-12,1048.27001953125,4.70376793209197,3.1803481870545,-6.54165849856483
6060.0,-3271277.03537462,3200174.41487101,4998529.58166123,-3528404.93494399,-2909319.1136299,5001388.66882363,2793.5592806735,-6824.87363532446,-2069.45592393556,4.50738980455503,3.71649861880417,-6.40755455874187,6759622.1459629,1.46522155023942,-0.001712922182667,-0.129245777077225,-0.0047104582569507,-2.41564329545477,0.363131987122878,-1.09411507617394,0.0,-0.0011222299538715,0.0,410516.609529958,3.4575E-12,1058.302734375,4.50739046088002,3.71649694905576,-6.40755508486589
6120.0,-3639529.95368865,2998303.73007514,4863043.86440585,-3352805.46629775,-3311806.828344,4865781.56164175,3057.58113631238,-6586.17396023908,-2449.14317250428,4.28988315290344,4.23741411993067,-6.24378243549701,6760177.71810585,1.46959681965224,-0.0020490011078211,-0.128737232958233,-0.0046304804280421,-2.39717160879575,0.413084524277712,-1.04532825899717,0.0,-0.0011222299538715,0.0,406770.868741982,3.8285E-12,1068.17150878906,4.28988394619526,4.2374123335432,-6.24378312537533
6180.0,-3992906.86457358,2785842.43641967,4705101.87914833,-3161768.51004958,-3699045.15428505,4707705.58109784,3307.93917604521,-6316.73739856449,-2818.12696743456,4.05207571188477,4.74065803368751,-6.05087237002209,6760809.25689847,1.47397208906505,-0.0023819074397427,-0.128162361713238,-0.0045263682476187,-2.37556958556256,0.46212312829388,-0.994376841567843,0.0,-0.0011222299538715,0.0,402902.135210086,4.2401E-12,1077.78723144531,4.05207666035996,4.74065613376036,-6.05087324973495
6240.0,-4329846.36279599,2563606.78481666,4525397.30514172,-2956149.89428237,-4069223.13333196,4527855.00382355,3543.44271901646,-6017.69644781895,-3174.67831581087,3.79489648769663,5.22383105098008,-5.8294898183152,6761505.73511569,1.47834735847786,-0.00270990919647,-0.127520033893926,-0.0043982138962405,-2.35057544454295,0.510074337348274,-0.940902167174585,0.0,-0.0011222299538715,0.0,398936.069654692,4.6941E-12,1087.07836914062,3.79489761053118,5.22382904446619,-5.82949091616557
6300.0,-4648849.26189378,2332447.34277648,4324726.224432,-2736875.15533043,-4420602.04742072,4327026.56629238,3762.95984309119,-5690.32610644159,-3517.11225256918,3.51937501535336,5.68458447094599,-5.58043723443755,6762254.85484582,1.48272262789067,-0.0030312596314774,-0.12680944239036,-0.0042462330158742,-2.32189291236697,0.556740709823375,-0.884519158138705,0.0,-0.0011222299538715,0.0,394899.717754849,5.192E-12,1095.98962402343,3.51937633232697,5.68458236931686,-5.58043858060788
6360.0,-4948485.63521643,2093246.10517743,4103984.23511736,-2504935.83169978,-4751523.8701095,4106116.57551533,3965.42339516178,-5336.04046553939,-3843.79611054951,3.22664053253829,6.12063272452431,-5.30465562914319,6763043.2450545,1.48709789730349,-0.0033442062667499,-0.126030109993465,-0.0040707654614663,-2.28919440730456,0.601896691292881,-0.824818475496736,0.0,-0.0011222299538715,0.0,390821.237223964,5.7346E-12,1104.47570800781,3.22664206356348,6.12063054443129,-5.30465725519114
6420.0,-5227401.69579551,1846913.46317372,3864163.0663175,-2261385.39927587,-5060419.49064331,3866117.52115861,4149.83693069013,-4956.38852627678,-4153.15786217044,2.91792043007054,6.5297666493441,-5.0032253747131,6763856.68199298,1.49147316671629,-0.0036470002852707,-0.125181895245327,-0.0038722754177111,-2.2521280717281,0.645284395424961,-0.7613726481314,0.0,-0.0011222299538715,0.0,386729.601927289,6.322E-12,1112.49987792968,2.91792219458703,6.5297644132471,-5.00322731287203
6480.0,-5484326.47516879,1594385.03422374,3606346.69199601,-2007334.85342643,-5345816.66275783,3608114.18622868,4315.28053611576,-4553.04920057153,-4443.69448321058,2.59453788137678,6.90986741912955,-4.67736611358314,6764680.32990461,1.4958484361291,-0.0039379062349481,-0.124264996481072,-0.0036513508762821,-2.21033055692826,0.686609666159147,-0.693748057596247,0.0,-0.0011222299538715,0.0,382654.286914127,6.953E-12,1120.03076171875,2.59453989758759,6.90986515585464,-4.67736839582592
6540.0,-5718078.25895203,1336618.35783089,3331706.94400115,-1743947.94655999,-5606347.62811498,3333279.25669521,4460.9164821642,-4127.82545953165,-4713.9802807641,2.25790856260734,7.25892099878645,-4.32843563325521,6765498.99899313,1.50022370554192,-0.0042152119898421,-0.123279953975535,-0.0034087024727181,-2.16344788965789,0.725539043201668,-0.621525092848706,0.0,-0.0011222299538715,0.0,378624.938794029,7.6252E-12,1127.04125976562,2.25791084660303,7.25891874388709,-4.32843829015707
6600.0,-5927570.73501532,1074589.46339826,3041498.62840664,-1472436.09297026,-5840756.36238041,3042868.43414029,4585.9946511594,-3682.63760275355,-4962.67511945217,1.90953638797655,7.57503296467851,-3.95792757960993,6766297.41709714,1.50459897495472,-0.004477238908636,-0.12222765011904,-0.0031451616858312,-2.11116689819668,0.761698589646601,-0.544328939499053,0.0,-0.0011222299538715,0.0,374671.03639449,8.3349E-12,1133.50646972656,1.90953895273452,7.57503076057015,-3.9579306389853
6660.0,-6111818.80867588,809289.318565406,2737054.15340882,-1194052.95633692,-6047905.3906467,2738215.05970046,4689.85767738567,-3219.5156321316,-5188.53247269612,1.55100820108208,7.85644349986919,-3.56746789479719,6767060.51096834,1.50897424436754,-0.0047223521247997,-0.12110930755955,-0.0028616784058807,-2.05325913522139,0.794675927080567,-0.461872929366581,0.0,-0.0011222299538715,0.0,370821.547075186,9.0765E-12,1139.40478515625,1.55101105539534,7.85644139563516,-3.56747138016297
6720.0,-6269944.03846082,541720.168485806,2419777.68161931,-910088.739006113,-6226782.11828491,2420724.2621536,4771.9457365671,-2740.59072608204,-5390.40721957805,1.18398738274888,8.10154234670482,-3.15880988498704,6767773.69250446,1.51334951378035,-0.0049489708977817,-0.119926485263283,-0.0025593178807124,-1.98963741496092,0.824027158581466,-0.374014557762799,0.0,-0.0011222299538715,0.0,367104.584419734,9.8423E-12,1144.7158203125,1.18399053010834,8.10154039752424,-3.15881381387441
6780.0,-6401179.64580829,272891.778666409,2091138.82451501,-621864.196067271,-6376504.62346759,2091866.64792814,4831.80091883343,-2248.0858238656,-5567.26310281767,0.810206358674471,8.30888347572117,-2.73382784686943,6768423.14476204,1.51772478319316,-0.0051555789502263,-0.118681072462485,-0.002239257051731,-1.92042138806344,0.849290439187856,-0.280820583075229,0.0,-0.0011222299538715,0.0,363547.073258191,1.06232E-11,1149.42224121093,0.810209796227878,8.30888174181965,-2.73383222913291
6840.0,-6504875.05264063,3817.59616906794,1752665.90198373,-330724.401196225,-6496326.85863308,1753171.55599196,4869.07111929955,-1744.30534474161,-5718.17975996087,0.431458015984775,8.47719921120321,-2.29450921031633,6768996.10210069,1.52210005260597,-0.0053407347123017,-0.117375280477827,-0.0019027802937295,-1.84600289925013,0.870007470147857,-0.182631945873953,0.0,-0.0011222299538715,0.0,360174.42807318,1.14079E-11,1153.50732421875,0.431461733607814,8.47719775633674,-2.29451404649206
6900.0,-6580499.9021198,-264489.153889774,1405938.79523285,-38032.2951537934,-6585643.21012083,1406219.90591072,4883.51338175299,-1231.62408266348,-5842.35923826546,0.0495860655652194,8.60541354159391,-1.84294518688855,6769481.11842546,1.52647532201879,-0.0055030813913884,-0.116011632423261,-0.0015512745744867,-1.76709538879791,0.885752837695958,-0.0801127615523937,0.0,-0.0011222299538715,0.0,357010.250793948,1.21833E-11,1156.95666503906,0.049590045100526,8.60541243107161,-1.84295046668084
6960.0,-6627647.52012401,-531019.417572215,1052581.42669398,254837.948384079,-6643992.36814327,1052636.67273339,4874.99663403065,-712.475333721004,-5939.13190421024,-0.333525583847352,8.6926543381409,-1.38131994936813,6769868.31723526,1.53085059143159,-0.0056413567831857,-0.114592950823216,-0.0011862240516308,-1.68474741844251,0.896168822968616,0.0257365392774622,0.0,-0.0011222299538715,0.0,354076.053774935,1.29354E-11,1159.7578125,-0.33352136890992,8.69265363637364,-1.38132565064155
7020.0,-6646037.77808636,-794772.286260275,694253.905829475,546507.701440698,-6671060.46318927,694083.027639264,4843.50375853326,-189.338330071094,-6007.96166121641,-0.71596434335853,8.73826420857424,-0.911898406516728,6770149.61708888,1.53522586084441,-0.0057544027392361,-0.113122343195455,-8.092041254802E-4,-1.60030294005446,0.901000579330456,0.133619310137989,0.0,-0.0011222299538715,0.0,351391.013383206,1.36489E-11,1161.90148925781,-0.715959927926827,8.73826397635238,-0.911904494609147
7080.0,-6635519.32180203,-1054758.97326235,332644.384790613,835600.76337092,-6666683.42986418,332248.188326834,4789.13294796944,335.274929857413,-6048.45039416731,-1.09580122859809,8.74180972581584,-0.437012675476646,6770318.92620551,1.53960113025722,-0.0058411742056784,-0.111603185677146,-4.218749677135E-4,-1.51530307369418,0.900124592739456,0.242041266651795,0.0,-0.0011222299538715,0.0,348971.759085027,1.43082E-11,1163.38110351562,-1.09579665553404,8.74181001739674,-0.437019103149081
7140.0,-6596071.13560551,-1310006.76912371,-30539.3274490818,1120750.30133247,-6630848.56501442,-31158.9721987895,4712.0983047636,858.833350115845,-6060.34156666121,-1.4711037587761,8.70308879397268,0.0409526061444582,6770372.30024246,1.54397639967003,-0.0059007477490596,-0.110039104796386,-2.5974546815E-5,-1.43134340741132,0.893563513791324,0.349453535963122,0.0,-0.0011222299538715,0.0,346832.202233739,1.4898E-11,1164.19445800781,-1.47109907793959,8.70308965419325,0.0409458980385394
7200.0,-6527803.41687604,-1559562.95092605,-393578.339697843,1400605.80321273,-6563695.25368085,-394418.50561722,4612.72965244925,1378.80078683288,-6043.5229065625,-1.83994929364128,8.62213594607502,0.519575949808584,6770308.05786403,1.54835166908284,-0.0059323294870524,-0.108433957515921,3.76688827825E-4,-1.34991828559356,0.881483386518003,0.454408715869206,0.0,-0.0011222299538715,0.0,344983.407937048,1.54044E-11,1164.34167480468,-1.83994456046092,8.62213740772115,0.519569030936007
7260.0,-6430957.74205123,-1802498.62031497,-754751.385576851,1673839.99505693,-6465514.84385859,-755808.100716215,4491.47153856394,1892.65034940294,-5998.02812714814,-2.20043861241741,8.49922540917064,0.996415455480382,6770126.84953263,1.55272693849566,-0.0059352623451275,-0.106791809699354,7.84244420071E-4,-1.272289036079,0.864174035056154,0.555692998468531,0.0,-0.0011222299538715,0.0,343433.512444345,1.58146E-11,1163.82678222656,-2.20043388614538,8.49922749078627,0.996408404100045
