time,gePosition_m_X,gePosition_m_Y,gePosition_m_Z,eiPosition_m_X,eiPosition_m_Y,eiPosition_m_Z,eiVelocity_m_s_X,eiVelocity_m_s_Y,eiVelocity_m_s_Z,eiAccel_m_s2_X,eiAccel_m_s2_Y,eiAccel_m_s2_Z,semiMajorAxis_m,gast_rad,eulerAngle_rad_Roll,eulerAngle_rad_Pitch,eulerAngle_rad_Yaw,eulerAngleWrtEi_rad_Roll,eulerAngleWrtEi_rad_Pitch,eulerAngleWrtEi_rad_Yaw,bodyAngularRateWrtEi_rad_s_Roll,bodyAngularRateWrtEi_rad_s_Pitch,bodyAngularRateWrtEi_rad_s_Yaw,altitudeMsl_m,airDensity_kg_m3,ambientTemperature_dgK,eiGravitation_m_s2_X,eiGravitation_m_s2_Y,eiGravitation_m_s2_Z
0.0,-1436381.46541304,4185811.71030584,5163944.67156165,-4315967.74,960356.2,5167269.53,129.091037,-7491.513855,1452.515654,5.45462516078782,-1.21381442360051,-6.549221664754,6759053.07578957,1.02331944621101,-0.0,-0.202458193231342,-0.0,-2.47159390556423,-0.0371889647578404,-1.42899313520437,0.0,-0.0011222300308759,0.0,434989.540811728,1.6157E-12,978.026450176724,5.45462518435414,-1.21381527298493,-6.54922149284644
60.0,-1794959.84988081,3943151.6978554,5239238.32454844,-4298410.79391243,509021.635912874,5242566.73942744,455.965806812894,-7547.27264240024,1056.37889001204,5.43715585028638,-0.643957246046854,-6.65045659584966,6758724.49925081,1.02769471546425,-3.1574695976E-6,-0.202437025134656,-9.14135250929E-5,-2.47204519440808,0.0156059020283289,-1.38719418368879,0.0,-0.0011222300308759,0.0,433110.277106132,1.7261E-12,985.077684600217,5.43715591265022,-0.643958160928074,-6.65045646224662
120.0,-2147589.78041531,3685729.37232882,5290614.34438864,-4261287.36408204,55370.0023139094,5293931.16460736,781.064615009368,-7568.71029662081,655.051459531858,5.39543339081431,-0.0701797087613311,-6.72216528874952,6758493.85233111,1.0320699847175,-1.26853683295E-5,-0.202371164889245,-1.824279938667E-4,-2.4702868220478,0.0683734663492738,-1.34532626635134,0.0,-0.0011222300308759,0.0,430971.344503751,1.8571E-12,992.845619024593,5.39543349767992,-0.0701806966713607,-6.72216519958797
180.0,-2492787.66278978,3414636.8352271,5317814.66675361,-4204747.62507053,-398533.831588914,5321104.77934134,1102.93444290414,-7555.66443930047,250.317991208868,5.32954548241175,0.505085400218184,-6.76393089528021,6758365.65440239,1.03644525395931,-2.86240437823E-5,-0.202257219246261,-2.721935583856E-4,-2.46629730751523,0.12102070149968,-1.30315482430808,0.0,-0.0011222300308759,0.0,428579.181662899,2.0109E-12,1001.28174155893,5.32954564075057,0.50508433138863,-6.76393085837229
240.0,-2829089.62419073,3131016.10158489,5320688.92153671,-4129028.71923167,-850619.648844856,5323937.31918494,1420.13031027283,-7508.11944111802,-156.015197097151,5.2396725756765,1.07938025701114,-6.77544776512402,6758342.68562474,1.04082052320969,-5.09559332603E-5,-0.202091996645874,-3.598665675255E-4,-2.46002784010144,0.173452091771071,-1.26044066321393,0.0,-0.0011222300308759,0.0,425942.692870874,2.1899E-12,1010.30115902222,5.23967279383948,1.07937909930313,-6.7754477901857
300.0,-3155057.44018294,2836054.72892229,5299195.53248505,-4034454.10671577,-1298820.73103542,5302387.38091085,1731.22087738663,-7426.20773647897,-562.126857211919,5.12608911496118,1.65022831030013,-6.75652437093463,6758425.92149391,1.04519579246293,-7.96049548589E-5,-0.201872524390932,-4.44615440479E-4,-2.45140153205805,0.225567630798527,-1.21693635378426,0.0,-0.0011222300308759,0.0,423073.253830369,2.3963E-12,1019.78697614745,5.1260894027556,1.65022705608761,-6.75652446978851
360.0,-3469284.47234643,2530981.29207206,5253402.40620905,-3921432.57708403,-1741082.77184525,5256523.11108908,2034.79412305396,-7310.21074792834,-966.187749206896,4.98916482239376,2.21514099933698,-6.70708636783882,6758614.49440247,1.04957106170188,-1.144362699215E-4,-0.201596065167618,-5.256264668757E-4,-2.44031230013045,0.277260684707756,-1.1723826141693,0.0,-0.0011222300308759,0.0,419984.684267348,2.6323E-12,1029.60092126649,4.98916519111723,2.21513964178403,-6.70708655457062
420.0,-3770401.60076016,2217060.71045041,5183487.19957049,-3790456.91792421,-2175372.83371339,5186522.47277991,2329.46309983633,-7160.55939263611,-1366.36776675146,4.82936597766824,2.77162498341146,-6.6271797531057,6758905.68355561,1.05394633095227,-1.552564288457E-4,-0.201260132797609,-6.02109492357E-4,-2.42662344889344,0.328415660266569,-1.12650470862727,0.0,-0.0011222300308759,0.0,416693.186666117,2.8997E-12,1039.59737027782,4.82936644010003,2.77162351695755,-6.62718004416784
480.0,-4057083.13388258,1895589.4339103,5089737.1540939,-3642102.23587749,-2599688.32151024,5092673.07898026,2613.87176449083,-6977.83413736129,-1760.84325378161,4.64725663492352,3.31718997825808,-6.51697407339192,6759294.93433766,1.05832160020265,-2.018139104394E-4,-0.200862507103092,-6.733034506441E-4,-2.41016608239322,0.378905419131066,-1.07900895141219,0.0,-0.0011222300308759,0.0,413217.250860456,3.2007E-12,1049.63675593106,4.64725720527594,3.31718839911395,-6.5169744876537
540.0,-4328052.67519111,1567890.49534349,4972548.48588195,-3477023.9257176,-3012065.94500347,4975371.58129942,2886.70087777915,-6762.76456286798,-2147.80451330206,4.44349970513565,3.84935728429516,-6.37676560860515,6759775.90794054,1.06269686945303,-2.538000629713E-4,-0.200401247763819,-7.384817054885E-4,-2.39073755366846,0.428588383753805,-1.02957949034328,0.0,-0.0011222300308759,0.0,409577.524664308,3.5372E-12,1059.59513714439,4.4435003989651,3.84935559094773,-6.37676616734877
600.0,-4582088.92494257,1235308.4375767,4832425.31960294,-3295955.28361054,-3410590.63939025,4835122.60242824,3146.67396313045,-6516.22839409631,-2525.46350434249,4.21885782074636,4.3656690767796,-6.20698044362219,6760340.56172442,1.06707213870913,-3.108504529955E-4,-0.199874707044183,-7.969571690583E-4,-2.36810028788341,0.477305292218586,-0.977875673880646,0.0,-0.0011222300308759,0.0,405796.651207622,3.9109E-12,1069.36870132991,4.21885865481716,4.36566727051564,-6.20698117047744
660.0,-4818031.3923998,899204.123863982,4669978.15552797,-3099704.76147022,-3793404.41043581,4672537.20137543,3392.56330833781,-6239.24994873592,-2892.06171725618,3.97419388919718,4.86369850893713,-6.00817732243412,6760979.26038746,1.0714474079538,-3.725466256436E-4,-0.199281541268171,-8.480871662924E-4,-2.34198150063523,0.524875583926551,-0.923530494777508,0.0,-0.0011222300308759,0.0,401899.074156502,4.3237E-12,1078.87386684979,3.97419488128456,4.86369659439664,-6.00817824323531
720.0,-5034785.99149154,560949.443170346,4485921.85938187,-2889152.86044767,-4158715.06783863,4488330.86123245,3623.1959886186,-5932.99795445937,-3245.87821076576,3.7104712341263,5.34106065603569,-5.78105016441085,6761680.91756155,1.07582267720419,-4.38418277449E-4,-0.198620720921464,-8.912780183236E-4,-2.31207459618586,0.571093444366587,-0.866150869914795,0.0,-0.0011222300308759,0.0,397910.812535038,4.777E-12,1088.04461755727,3.7104724027404,5.34105864179785,-5.78105130695145
780.0,-5231330.49083433,221921.921700437,4281073.16599092,-2665248.66307762,-4504804.80742325,4283320.99044783,3837.45988312191,-5598.78268418266,-3585.23778655695,3.42875321770261,5.79542430149877,-5.52643010995674,6762433.16692605,1.08019794645171,-5.079458401979E-4,-0.19789153926261,-9.259893214696E-4,-2.27804338383753,0.615723617558486,-0.805320872515965,0.0,-0.0011222300308759,0.0,393859.207424402,5.2718E-12,1096.82872477816,3.4287545817144,5.79542220068886,-5.52643150361263
840.0,-5406719.78623233,-116500.744041477,4056347.68940632,-2429006.00547468,-4830038.59973918,4058423.93028968,4034.30965049256,-5238.05235954538,-3908.51926896053,3.13020223539123,6.22452453595681,-5.24528695355894,6763222.56134349,1.08457321569067,-5.805634711984E-4,-0.197093619329918,-9.517379016307E-4,-2.23953068907121,0.658497225379113,-0.740609474166217,0.0,-0.0011222300308759,0.0,389772.643385828,5.8088E-12,1105.18401847422,3.13020381354424,6.22452236684653,-5.24528862875118
900.0,-5560090.96205618,-452946.216548798,3812756.43438763,-2181499.29323011,-5132872.33972837,3814651.46338127,4212.77262260095,-4852.38877552335,-4214.16384856032,2.81607797580863,6.62617610725747,-4.9387298168026,6764034.79787539,1.08894848494105,-6.556624424143E-4,-0.196226919236871,-9.681014271537E-4,-2.196173409611,0.699108032028696,-0.67158483010693,0.0,-0.0011222300308759,0.0,385680.248024594,6.3875E-12,1113.07537131007,2.81607978610634,6.62617389381514,-4.9387318042752
960.0,-5690668.10579601,-786053.09055556,3551401.80686478,-1923858.96730456,-5411860.70942953,3553106.82093192,4371.95456924562,-4443.50210384085,-4500.68343966637,2.48773484360559,6.99828742473343,-4.60800691299156,6764854.96584545,1.09332375419143,-7.325949176093E-4,-0.195291735657476,-9.747216661804E-4,-2.14762643769659,0.737209873135493,-0.597837514579657,0.0,-0.0011222300308759,0.0,381611.57366933,7.0067E-12,1120.47242452071,2.48773690257227,6.99828519706822,-4.60800924288813
1020.0,-5797766.83867214,-1114476.48792406,3273473.12426404,-1657266.62922219,-5665664.70334421,3274980.18955336,4511.04528077429,-4013.22483971597,-4766.66899278888,2.1466184527831,7.33887508551095,-4.25450425913709,6765667.81439926,1.09769902344753,-8.106781032835E-4,-0.194288705413275,-9.713073768962E-4,-2.09359785573924,0.772416327370421,-0.519015100770587,0.0,-0.0011222300308759,0.0,377596.265667875,7.6636E-12,1127.34819235473,2.14662077460804,7.33887288014412,-4.25450695987413
1080.0,-5880798.52408795,-1436893.65142096,2980241.63036745,-1382949.83821378,-5893058.76421979,2981543.7223393,4629.32391040557,-3563.50486546296,-5010.79869485443,1.79426111165112,7.64607875555533,-3.87974320071768,6766458.03528344,1.10207429269791,-8.891987556975E-4,-0.193218805086532,-9.576368212755E-4,-2.03389693995749,0.804304094033324,-0.43486960893458,0.0,-0.0011222300308759,0.0,373663.722277826,8.3544E-12,1133.67821975341,1.79426370723864,7.64607661544706,-3.87974629766881
1140.0,-5939274.11527643,-1752009.51041381,2673055.02364175,-1102176.59658151,-6092937.47573792,2674146.06315472,4726.16401382879,-3096.39761552547,-5231.84598226355,1.43227623875109,7.91817620489882,-3.48537663003645,6767210.55586714,1.10644956193401,-9.674180226548E-4,-0.192083348598981,-9.335598943971E-4,-1.96849415270044,0.832421822232592,-0.345316993749331,0.0,-0.0011222300308759,0.0,369842.751536992,9.0733E-12,1139.44016408286,1.43227911471363,7.91817417915967,-3.48538014406266
1200.0,-5972807.6036013,-2058562.1901426,2353331.51266659,-816249.543399469,-6264321.75805104,2354206.39777831,4801.03822066436,-2614.05734046412,-5428.68728534788,1.06235167126246,8.15359826658955,-3.07318380026771,6767910.83678159,1.11082483119011,-0.0010445765950412,-0.190883982712443,-8.989998624253E-4,-1.89758795589182,0.856306076248994,-0.25050349481431,0.0,-0.0011222300308759,0.0,366161.230815365,9.8131E-12,1144.61361139437,1.06235482890905,8.15359640981348,-3.07318774615136
1260.0,-5981119.02937057,-2355328.4349385,2022553.41733616,-526499.88064358,-6406364.51239092,2023208.05058877,4853.52247081767,-2118.72748202906,-5600.30941768971,0.686241853258447,8.35094346391154,-2.64506366417929,6768545.1679963,1.11520010044049,-0.0011199001393823,-0.18962268042676,-8.53954702893E-4,-1.82166713533876,0.875505392693571,-0.150867532462496,0.0,-0.0011222300308759,0.0,362645.774953809,1.05645E-11,1149.17996555788,0.686245287644282,8.35094183508476,-2.6450680490426
1320.0,-5964037.01946307,-2641128.91105865,1682260.33980658,-234281.059868357,-6518355.66217422,1682691.65078757,4883.29974885222,-1612.73018736633,-5745.81652044282,0.305758919986611,8.50899203188603,-2.20302669852761,6769100.95672481,1.11957536967945,-0.0011926049789831,-0.188301732271127,-7.984980409557E-4,-1.74155113754674,0.889611721282009,-0.0471796437190514,0.0,-0.0011222300308759,0.0,359321.418970561,1.13169E-11,1153.12221558039,0.305762619099028,8.50899069285166,-2.2030315203357
1380.0,-5921500.81743946,-2914833.35684459,1334041.9345992,59037.7384870157,-6599726.5402127,1334247.89759089,4890.16325139751,-1098.45500720935,-5864.4364705232,-0.0772372747832427,8.62671904839461,-1.74918521141881,6769567.00028521,1.12395063893269,-0.0012619039875088,-0.186923735507292,-7.327796748478E-4,-1.65838836912129,0.898296021828842,0.0594595977067839,0.0,-0.0011222300308759,0.0,356211.321244989,1.2058E-11,1156.42504826589,-0.0772333306167194,8.62671806188561,-1.74919045768932
1440.0,-5853561.77504372,-3175365.54560684,979530.312716063,352078.297285377,-6650053.57484241,979509.959273489,4874.01892638126,-578.346840083206,-5955.52666254689,-0.460850109485326,8.70330638862501,-1.28574216938176,6769933.73697016,1.12832590818593,-0.0013270126552313,-0.185491581286344,-6.570256832117E-4,-1.57359783702492,0.90134214126671,0.167678304848855,0.0,-0.0011222300308759,0.0,353336.492862417,1.27742E-11,1159.07573097766,-0.460845947877361,8.70330581592061,-1.2857478162387
1500.0,-5760384.27856387,-3421708.02494808,620392.119937632,643460.186981583,-6669061.23201907,620145.546263633,4834.88732855824,-54.8932015307596,-6018.57907782853,-0.843158013204042,8.7381532247801,-0.81497862210728,6770193.46813392,1.13270117743631,-0.00138715528484,-0.184008439824905,-5.715381060603E-4,-1.48875448812949,0.89867165379596,0.27594829126598,0.0,-0.0011222300308759,0.0,350715.558416626,1.34513E-11,1161.06472367092,-0.843153669607249,8.73815312309252,-0.814984633800728
1560.0,-5642246.08703487,-3652906.59880533,258320.334506364,931807.679511477,-6656624.17565914,257848.703524043,4772.90474333324,469.389086450915,-6053.22455967328,-1.22222701174097,8.73088481152676,-0.339239844067932,6770340.54509532,1.13707644668384,-0.0014415712702906,-0.182477743690589,-4.766941903194E-4,-1.40543846448675,0.890353388948961,0.382736163904844,0.0,-0.0011222300308759,0.0,348364.553021549,1.40749E-11,1162.38598404913,-1.22222252892134,8.73088523126709,-0.339246173058188
1620.0,-5499538.06498415,-3868074.51791321,-104974.165995436,1215756.70666406,-6612768.61466788,-105668.627938417,4688.3235400987,991.967675815699,-6059.23622254745,-1.59612383460549,8.68135932637637,0.139079648222994,6770371.51509264,1.14145171592279,-0.0014895214095171,-0.1809031693102,-3.729451902739E-4,-1.32508311261187,0.876595054569608,0.486655661784708,0.0,-0.0011222300308759,0.0,346296.759587779,1.46308E-11,1163.03706665915,-1.59611926167429,8.68136030848046,0.139073060552556
1680.0,-5332763.29815506,-4066396.34604296,-467771.214729801,1493961.81580842,-6537672.81208737,-468685.226555096,4581.5117269982,1510.3088200206,-6036.53193333961,-1.96292939415046,8.58967257242401,0.617552008583836,6770285.22140315,1.14582698517889,-0.001530294198948,-0.179288616836787,-2.608147128051E-4,-1.24885711271871,0.857719239760861,0.586585879597361,0.0,-0.0011222300308759,0.0,344522.589591595,1.51058E-11,1163.01908083088,-1.96292478517653,8.58967414593682,0.617545230568613
1740.0,-5142535.58589564,-4247131.47270214,-828350.08546963,1765103.07451221,-6431666.73947827,-829479.325453061,4452.951690875,2021.89171583464,-5985.17581555781,-2.3207524317287,8.45616039741864,1.09373267782983,6770082.85383941,1.15020225442927,-0.0015632120559531,-0.177638188532512,-1.408965975156E-4,-1.17760219101806,0.834129904159382,0.681733918249246,0.0,-0.0011222300308759,0.0,343049.509624752,1.54886E-11,1162.33656567185,-2.32074784399172,8.45616257753316,1.09372578555863
1800.0,-4929577.31192482,-4409617.24338578,-1184998.28254024,2027892.87498993,-6295230.86785451,-1186337.40774257,4303.23811879667,2524.22291931806,-5905.37874157635,-2.6677431161093,8.28139873623942,1.56517745574544,6769767.9471204,1.15457752367966,-0.0015876374135445,-0.175956165843033,-1.38523226649E-5,-1.11182802207591,0.806276688012864,0.771640360705789,0.0,-0.0011222300308759,0.0,341882.01499278,1.57699E-11,1160.99733679734,-2.66773860809149,8.28140152296269,1.56517053058218
1860.0,-4694716.69952722,-4553271.68483431,-1536020.32949442,2281082.58949212,-6128994.09502911,-1537563.00045494,4133.07511053959,3014.85069201789,-5797.49779348996,-3.00210637711547,8.06620124131878,2.02945976398325,6769346.32604966,1.15895279293004,-0.001602978630807,-0.174246985354952,1.195920706595E-4,-1.05175040534472,0.774623067764722,0.856141494719548,0.0,-0.0011222300308759,0.0,341021.650562049,1.59432E-11,1159.01235408041,-3.00210200635738,8.06620461889344,2.02945288972041
1920.0,-4438884.46516394,-4677595.80434876,-1879746.49449345,2523469.02869784,-5933730.81789387,-1881485.40506555,3943.272504316,3491.37913307556,-5662.03468923176,-3.32211476279505,7.81161452486501,2.48418782925043,6768825.99795389,1.16332806216899,-0.001608695662147,-0.17251521384073,2.586495411523E-4,-0.997352736796528,0.739621767094906,0.935308267672067,0.0,-0.0011222300308759,0.0,340467.077974384,1.60049E-11,1156.39565123208,-3.32211058375802,7.81161846201411,2.48418108907657
1980.0,-4163109.89027522,-4782175.44718842,-2214541.39065173,2753900.65688441,-5710357.16673669,-2216468.30282307,3734.74145037994,3951.48195613762,-5499.63318679892,-3.62612062125309,7.51891109518722,2.92702151941547,6768216.99438802,1.16770333142223,-0.0016043054289585,-0.17076552260454,4.024760982364E-4,-0.948452948061588,0.701698275210321,1.00937980788817,0.0,-0.0011222300308759,0.0,340214.187294113,1.59546E-11,1153.16435661895,-3.62611668333333,7.51891554618026,2.92701499289877
2040.0,-3868516.33583585,-4866682.70148624,-2538812.39084661,2971283.52007379,-5459926.42698413,-2540918.1743513,3508.48927852158,4392.9157765705,-5311.07549513765,-3.91256742798572,7.18958012432696,3.35568857783225,6767531.16562614,1.17207860067547,-0.0015893868384621,-0.169002661348158,5.50175338669E-4,-0.904764166288559,0.661241595862606,1.0787032667268,0.0,-0.0011222300308759,0.0,340256.250156424,1.57953E-11,1149.33882137815,-3.9125637738119,7.1895850307948,3.35568233812105
2100.0,-3556316.23145092,-4930876.84289923,-2851017.79865297,3174586.84642309,-5183623.68154995,-2853292.47515029,3265.61371546706,4813.53278421325,-5097.27773492143,-4.18000010517483,6.82531623302898,3.76800002256383,6766781.93287203,1.17645386991157,-0.0015635853965284,-0.167231431777423,7.008034605226E-4,-0.865943568733983,0.618600566254632,1.14368551589143,0.0,-0.0011222300308759,0.0,340584.110585094,1.55326E-11,1144.9428568797,-4.17999676929494,6.8253215263928,3.76799413398321
2160.0,-3227805.57388434,-4974604.81762073,-3149674.72005714,3362848.28174701,-4882759.71409575,-3152107.51162076,3007.29651652585,5211.29268932807,-4859.28450562074,-4.42707420962343,6.42800651968501,4.16186450612362,6765984.0043724,1.1808291391591,-0.001526617364286,-0.165456661167807,8.533747403938E-4,-0.831628391105232,0.574083990424427,1.2047577505117,0.0,-0.0011222300308759,0.0,341186.408865702,1.5175E-11,1140.00406994121,-4.42707121765079,6.42801212401811,4.16185902230808
2220.0,-2884357.97357396,-4997801.26691123,-3433366.58433363,3535178.72712253,-4558764.21982173,-3435945.96596796,2734.79658224046,5584.27384398055,-4598.26262650466,-4.65256389927038,5.99971609059931,4.53530146625157,6765153.06265165,1.18520440840948,-0.0014782734119141,-0.163683176101651,0.0010068674525685,-0.801460521907291,0.527963099871423,1.26235157666594,0.0,-0.0011222300308759,0.0,342049.833220645,1.4733E-11,1134.55427135039,-4.65256126751729,5.99972192571411,4.53529642890307
2280.0,-2527418.29288533,-5000488.0993118,-3700750.26680526,3690766.74991316,-4213178.37579572,-3703464.02268097,2449.44263516112,5930.68345717247,-4315.4941282293,-4.85536862281888,5.54267236870939,4.88645293720972,6764305.43086654,1.18957967766558,-0.0014184217276524,-0.161915776580687,0.0011602302016226,-0.775102065187421,0.480475238081555,1.31688421346132,0.0,-0.0011222300308759,0.0,343159.393549499,1.42187E-11,1128.62992058506,-4.85536635840598,5.54267835325812,4.88644837551436
2340.0,-2158495.91993018,-4982773.62257922,-3950562.77101381,3828882.54413638,-3847646.82722311,-3953398.05409404,2152.62553416369,6248.8668389882,-4012.36857827458,-5.03451851123106,5.05924846637917,5.21359393205414,6763457.72677161,1.1939549469131,-0.0013470105453438,-0.160159210705269,0.0013123886322583,-0.752244307992972,0.43182802798837,1.36875038773097,0.0,-0.0011222300308759,0.0,344498.711178263,1.36453E-11,1122.27255524782,-5.03451661262434,5.05925452077326,5.21358986273706
2400.0,-1779157.72507257,-4944851.24991295,-4181627.43295714,3948881.42076131,-3463909.14943031,-4184570.82766798,1845.79030402323,6537.31562613154,-3690.37482763176,-5.18917848205741,4.55194590537153,5.51514134722819,6762626.51298569,1.19833021615206,-0.0012640700599089,-0.158418150097153,0.0014622524723661,-0.732612172484441,0.38220356820847,1.41831885794459,0.0,-0.0011222300308759,0.0,346050.318405825,1.30263E-11,1115.52913503234,-5.18917693995745,4.55195195435726,5.5151377751801
2460.0,-1391020.74699698,-4886997.79902696,-4392859.6153527,4050206.81314963,-3063790.84768895,-4395897.20293831,1530.42795641391,6794.67495788532,-3351.09226788295,-5.31865109637539,4.02337695453599,5.78966137965799,6761827.95215137,1.2027054854053,-0.0011697137066542,-0.156697166226428,0.0016087228581566,-0.715965760350194,0.331762408032719,1.46593197870658,0.0,-0.0011222300308759,0.0,347795.961639818,1.23752E-11,1108.45220439803,-5.3186498948659,4.02338292930718,5.78965829903256
2520.0,-995744.655535734,-4809571.40510621,-4583271.86522906,4132392.78733473,-2649193.95838985,-4586389.29142067,1208.06717536537,7019.74958716284,-2996.18168732852,-5.42237823238811,3.47624683458877,6.03587548160498,6761077.47520447,1.20708075465283,-0.0010641387875722,-0.155000707785045,0.0017506998829967,-0.702100154233332,0.280647185724941,1.51190716295666,0.0,-0.0011222300308759,0.0,349716.902064363,1.17049E-11,1101.09974568217,-5.42237735024429,3.47625267436467,6.03587287726549
2580.0,-595024.039246413,-4713009.07060651,-4751978.51339816,4195066.05108972,-2222087.31556329,-4755161.05801953,880.265935766236,7211.50892547399,-2627.37581237631,-5.49994165871834,2.91333601147666,6.25266490847547,6760389.47034764,1.21145602389464,-9.476264351107E-4,-0.153333079230949,0.0018870903058936,-0.69084428134148,0.228985897808989,1.55653946163294,0.0,-0.0011222300308759,0.0,351794.208066425,1.10272E-11,1093.53456182604,-5.49994107077764,2.91334166451854,6.25266275766143
2640.0,-190580.562780063,-4597823.87729358,-4898199.69941663,4237947.45969111,-1784496.54643265,-4901432.34754426,548.603118094495,7369.09103296157,-2246.46961634574,-5.55106260374384,2.3374827673101,6.43907393867296,6759776.99949004,1.21583129314788,-8.205409116939E-4,-0.151698420607573,0.0020168153503336,-0.682059375567982,0.176894815150407,1.60010475273611,0.0,-0.0011222300308759,0.0,354009.034045891,1.03529E-11,1085.82301388198,-5.55106228225145,2.33748819139112,6.43907221276133
2700.0,215844.961213249,-4464601.88655287,-5021264.81041675,4260853.0198975,-1338493.85869983,-5024532.32471196,214.670176517582,7491.80557496045,-1855.3104725418,-5.57560042495192,1.75156620290127,6.59431186191979,6759251.54792252,1.22020656239826,-6.833282509757E-4,-0.150100688724733,0.0021388185208277,-0.675637384064731,0.124481087420281,1.64286322554053,0.0,-0.0011222300308759,0.0,356342.880728766,9.691E-12,1078.03297639958,-5.57560034080759,1.75157136527708,6.59431052816727
2760.0,622500.542058261,-4313998.75487617,-5120615.32661562,4263694.3969015,-886187.680717708,-5123902.32044695,-119.937088828246,7579.13577471205,-1455.78822231271,-5.57355048458051,1.15848979063692,6.71775384322971,6758822.81189174,1.22458183164864,-5.36514254319E-4,-0.148543639768505,0.0022520733620881,-0.671499534654954,0.0718450898757015,1.6850629784742,0.0,-0.0011222300308759,0.0,358777.832673501,9.049E-12,1070.23100391084,-5.57355060843054,1.15849466759061,6.71775286640047
2820.0,1027630.98267612,-4146736.09190105,-5195807.07035484,4246478.93187129,-429712.213733937,-5199098.08133307,-453.626610894069,7630.73939796474,-1049.82522220924,-5.54504133537852,0.561165562622913,6.80894077424613,6758498.52757173,1.22895710090188,-3.807018635906E-4,-0.147030813390193,0.0023555910853618,-0.669595195020969,0.0190825712130007,1.72694363719356,0.0,-0.0011222300308759,0.0,361296.769287613,8.4328E-12,1062.47894350571,-5.54504163851561,0.561170138677779,6.80894011805092
2880.0,1429485.81358043,-3963597.58813039,-5246511.85916698,4209309.18018421,28783.0468875468,-5249791.42272046,-784.81794768208,7646.44880934689,-639.366427664558,-5.49033131398394,-0.0375010117018563,6.86757822265441,6758284.34375488,1.23333237013798,-2.16567937926E-4,-0.145565518308192,0.0024484279872793,-0.669901099476331,-0.0337133377077282,1.76873995557692,0.0,-0.0011222300308759,0.0,363883.546339301,7.8467E-12,1054.830535036,-5.49033176903721,-0.0374967447956562,6.86757785095105
2940.0,1826327.15195356,-3765424.93939353,-5272518.56661174,4152381.98258917,487143.767034821,-5275771.28923753,-1111.94995427275,7626.2701428309,-226.369564119678,-5.40980463013507,-0.634625430820062,6.89353458476565,6758183.73943608,1.23770763938837,-4.48594688646E-5,-0.144150819441306,0.0025296925892828,-0.672420983678877,-0.0864501949295728,1.81068539611183,0.0,-0.0011222300308759,0.0,366523.145638342,7.2932E-12,1047.32877027244,-5.40980521155194,-0.634621475213763,6.89353446249728
3000.0,2216437.45205435,-3553113.59404216,-5273733.59749515,4075987.08335396,943221.153948996,-5276944.22933011,-1433.48820703396,7570.38162959326,187.204569527142,-5.3039670286842,-1.22735784319751,6.88683853721436,6758197.98638771,1.24208290863875,1.336107264429E-4,-0.142789526578383,0.002598552429644,-0.677185643697231,-0.139034339584327,1.85301570355693,0.0,-0.0011222300308759,0.0,369201.791261177,6.7738E-12,1040.00474922371,-5.30396771302393,-1.22735419608288,6.8868386310879
3060.0,2598127.11279228,-3327608.34881427,-5250180.78660946,3980505.31099469,1394882.21179933,-5253334.29297592,-1747.93215638442,7479.13112642223,599.401625686991,-5.17344108913672,-1.8128960164299,6.84767587213915,6758326.15583886,1.2464581778777,3.179687891658E-4,-0.141484184576761,0.0026542404454682,-0.68425341688471,-0.191368946745571,1.89597249013494,0.0,-0.0011222300308759,0.0,371907.031391412,6.2889E-12,1032.87838904153,-5.1734418552081,-1.81289267110528,6.84767615106958
3120.0,2969741.91219379,-3089898.81801335,-5202000.73235497,3866406.33849342,1840019.826037,-5205082.36394689,-2053.82198799366,7353.03288684902,1008.28302628176,-5.01896121504629,-2.38849761487314,6.77638578729587,6758565.16750664,1.25083344713094,5.072850312419E-4,-0.140237065070902,0.0026960608885988,-0.693711062268095,-0.243351986118898,1.93980684271281,0.0,-0.0011222300308759,0.0,374627.785532061,5.8378E-12,1025.96074805923,-5.01896204392823,-2.38849456168263,6.77638622265762
3180.0,3329670.23980304,-2841014.79943341,-5129449.57856887,3734246.04102984,2276562.63231978,-5132444.93995681,-2349.74517508256,7192.76361568419,1411.93504348732,-4.84136835379286,-2.95149181339151,6.67345668926763,6758909.87848435,1.25520871638133,7.005795246699E-4,-0.139050159662931,0.002723394726742,-0.705674991732336,-0.29487402504251,1.98478294093244,0.0,-0.0011222300308759,0.0,377354.357507617,5.4196E-12,1019.25723533393,-4.8413692287751,-2.95148904051561,6.6734572549995
3240.0,3676350.09855221,-2582021.56055853,-5032897.25964339,3584663.47022694,2702484.6281891,-5035792.37578974,-2634.34270659321,6999.15784590596,1808.47761522607,-4.64160447661585,-3.49929027675964,6.53952155510621,6759353.20887927,1.25958398563171,8.968280139036E-4,-0.137925174558237,0.002735704488962,-0.720292763285782,-0.34581581606222,2.03118163602426,0.0,-0.0011222300308759,0.0,380078.415308526,5.0327E-12,1012.7708325417,-4.64160538309017,-3.49928777086166,6.53952222771319
3300.0,4008275.85079181,-2314015.06641808,-4912825.22560687,3418377.46477656,3115814.48796538,-4915606.60609681,-2906.31497750778,6773.20267511063,2196.07286997845,-4.42070683968235,-4.02939753251108,6.37535288602614,6759886.30060104,1.26395925488209,0.0010949680965224,-0.136863526602034,0.0027325385233025,-0.73774468535195,-0.396045611154824,2.07930387610962,0.0,-0.0011222300308759,0.0,382792.939427856,4.6756E-12,1006.5046637496,-4.4207077650057,-4.02939527925796,6.3753536445126
3360.0,4324004.68344423,-2038117.17037086,-4769823.66531289,3236182.9181005,3514644.54351226,-4772478.36602127,-3164.4273286152,6516.03189719434,2572.93333718765,-4.17980203969156,-4.53942076039149,6.18185727665672,6760498.70532651,1.26833452412105,0.001293905617215,-0.135866340666489,0.002713534642566,-0.758245284877159,-0.445416151127975,2.12947376484071,0.0,-0.0011222300308759,0.0,385492.141896137,4.3466E-12,1000.4636162907,-4.17980297303504,-4.53941874487218,6.18185810241549
3420.0,4622162.76888271,-1755470.78826006,-4604588.24726859,3038946.72444506,3897139.39562301,-4607103.929198,-3407.5152236645,6228.91956374033,2937.32982068601,-3.92009987217434,-5.02707901481666,5.96006961516092,6761178.59739578,1.27270979337429,0.0014925212207851,-0.134934448332952,0.0026784231425712,-0.78204424740676,-0.493761294091219,2.18204089227361,0.0,-0.0011222300308759,0.0,388171.358729116,4.0438E-12,994.655037289012,-3.92010080436629,-5.02707722187878,5.96007049183473
3480.0,4901451.09986282,-1467235.07455032,-4417916.39896252,2827603.4255174,4261544.12282541,-4420281.38400414,-3634.48905222153,5913.27300884004,3287.5989132969,-3.64288699725426,-5.49021188859253,5.71114692343356,6761913.00720811,1.27708506262181,0.0016896770114562,-0.134068387809712,0.0026270291852122,-0.80942622685008,-0.540892277825619,2.23738136302071,0.0,-0.0011222300308759,0.0,390826.91895714,3.7655E-12,989.08870994309,-3.64288792062241,-5.49021030311355,5.71114783675976
3540.0,5160650.97711692,-1174580.62031174,-4210703.14684946,2603150.58046624,4606192.05641625,-4212906.47023451,-3844.33854677731,5570.6253708459,3622.15013118895,-3.34952041611455,-5.92678761730053,5.43636184265281,6762688.07058289,1.28146033186077,0.0018842232679922,-0.133268405022599,0.0025592745457859,-0.840708629415237,-0.586593667267027,2.29589665020645,0.0,-0.0011222300308759,0.0,393455.993801353,3.5102E-12,983.776361447043,-3.34952132433062,-5.92678622440501,5.43636278029857
3600.0,5398629.13056226,-878684.690236486,-3983936.54042629,2366643.88269046,4929512.09255229,-3985967.99965325,-4036.13680284902,5202.62764485759,3939.47264681195,-3.04142076163455,-6.33491061479183,5.13709576764829,6763489.28950457,1.28583560110829,0.0020750051668753,-0.132534455813852,0.0024751787308305,-0.876236091451201,-0.630619133920394,2.35800901598008,0.0,-0.0011222300308759,0.0,396056.429892346,3.2761E-12,978.730923502121,-3.04142164956367,-6.33490940002323,5.13709671904185
3660.0,5614342.45578405,-580726.516053696,-3738692.68509589,2119192.04762783,5230035.51427546,-3740542.88513647,-4209.04389106868,4811.04030057789,4238.14159944768,-2.72006540843846,-6.71282842169501,4.81483163376576,6764301.7996819,1.29021087036154,0.0022608694692979,-0.131866209183553,0.002374859478291,-0.916369911527124,-0.672687366096196,2.42415177721563,0.0,-0.0011222300308759,0.0,398626.570686998,3.0617E-12,973.9657068427,-2.72006627199558,-6.71282737114831,4.81483258992784
3720.0,5806842.34885296,-281882.663617437,-3476130.40976648,1861951.49632524,5506402.29846537,-3477790.8043715,-4362.31005065679,4397.72450149437,4516.82396268382,-2.38698141073426,-7.05893804117521,4.47114636199933,6765110.64040381,1.29458613960906,0.0024406711312185,-0.131263051508108,0.0022585326567792,-0.961470237110089,-0.712478635094879,2.49475223266762,0.0,-0.0011222300308759,0.0,401165.070423614,2.8655E-12,969.493591726566,-2.38698224674882,-7.05893714159563,4.47114731537822
3780.0,5975278.62423595,16677.5102210488,-3197485.59636224,1596120.86021033,5757366.88492015,-3198948.52530773,-4495.27845430394,3964.63296308827,4774.28394857058,-2.04373828058355,-7.37179162978068,4.10770297193555,6765901.02226995,1.29896140886516,0.0026132797997684,-0.130724091671296,0.0021265115845425,-1.01186852629559,-0.749632852328495,2.5702047858661,0.0,-0.0011222300308759,0.0,403670.705060143,2.6862E-12,965.326290076447,-2.04373908667367,-7.37179086863313,4.10770391624837
3840.0,6118903.00204798,313796.296093944,-2904065.19961462,1322935.33305744,5981803.3870895,-2905323.92174772,-4607.38753539219,3513.80048985518,5009.3879289426,-1.69194062439491,-7.65010150641126,3.72624237728496,6766658.58850196,1.30333667810126,0.0027775861633249,-0.13024816704559,0.0019792057918311,-1.0678280504324,-0.783750328974919,2.65083204163611,0.0,-0.0011222300308759,0.0,406142.184659555,2.5225E-12,961.473703261664,-1.69194139885188,-7.65010087192475,3.72624330736733
3900.0,6237072.15254915,608331.949318337,-2597240.98664409,1043660.89664951,6178710.22643995,-2598289.70860845,-4698.17286972705,3047.33423323705,5221.10885546279,-1.33322066120902,-7.89274443951955,3.32857488520332,6767369.66571155,1.30771194735164,0.0029325081267569,-0.129833850264485,0.0018171192523658,-1.12949151109671,-0.814396819756921,2.73683296022074,0.0,-0.0011222300308759,0.0,408577.971621301,2.3732E-12,957.943380211737,-1.33322140289225,-7.8927439207108,3.32857579686864
3960.0,6329250.28768463,899162.873785119,-2278443.02690603,759588.447061173,6347214.17503038,-2279276.92744668,-4767.26860554703,2567.40371499415,5408.53016143311,-0.969230652471731,-8.09876517184381,2.91657142793671,6768021.50020367,1.31208721660202,0.0030769967871196,-0.129479456730708,0.0016408481110533,-1.19681784475794,-0.841114629553798,2.82822015159297,0.0,-0.0011222300308759,0.0,410976.109003875,2.2371E-12,954.740069987476,-0.969231360714281,-8.09876475852359,2.91657231784611
4020.0,6395011.29143387,1185191.65661935,-1949152.96403496,472027.848804984,6486573.79362076,-1949768.21380336,-4814.40843754602,2076.23066295552,5570.84913036449,-0.60163527917483,-8.26737914343324,2.49215456323021,6768602.47614219,1.31646248583812,0.0032100421892311,-0.129183052809815,0.0014510779356035,-1.26951533539914,-0.863441309578601,2.92475343839384,0.0,-0.0011222300308759,0.0,413334.062945579,2.1133E-12,951.865357905029,-0.601635953699104,-8.26737882619884,2.49215542877332
4080.0,6434040.3829117,1465348.94167964,-1610897.10195141,182301.944270708,6596182.25552175,-1611290.87875242,-4839.42612297645,1576.0787083376,5707.37971872782,-0.232104008178148,-8.3979743775641,2.05728928805918,6769102.31219335,1.3208377550885,0.0033306788438879,-0.128942464664305,0.0012485805197376,-1.34698461078544,-0.880936440031098,3.0258832704839,0.0,-0.0011222300308759,0.0,415648.582869555,2.0006E-12,949.317372353917,-0.232104649021316,-8.39797414778104,2.0572901272459
4140.0,6446135.30806071,1738597.13067284,-1265239.33826504,-108259.45407543,6675569.54940456,-1265409.83770872,-4842.25554057453,1069.24299576971,5817.55482322219,0.137696505105551,-8.49011250037083,1.61397371818276,6769512.2335996,1.32521302433889,0.0034379909950021,-0.128755287689221,0.001034210265221,-1.42829053635188,-0.893215002224432,3.13072301165977,0.0,-0.0011222300308759,0.0,417915.582762501,1.8983E-12,947.090548921391,0.137695897657136,-8.49011235014616,1.61397452954555
4200.0,6431207.05860705,2003933.89902891,-913773.978488487,-398325.561396609,6724404.05740717,-913720.420030699,-4822.93029601982,558.039758671259,5900.9279862699,0.506109925993615,-8.54352887354945,1.16422969337027,6769825.11701898,1.32958829359213,0.0035311176247523,-0.128618896516549,8.089001690056E-4,-1.5121822731229,-0.899983160543951,-3.04511593621487,0.0,-0.0011222300308759,0.0,420130.046352275,1.8056E-12,945.175438221198,0.506109351461749,-8.54352879569899,1.16423047587652
4260.0,6389280.11876183,2260395.51794231,-558118.464842362,-686570.581079536,6742493.50806131,-557841.093219193,-4781.58288084698,44.7959135537388,5957.17453723676,0.87149760680794,-8.55813183015173,0.710093374498584,6770035.60589342,1.33396356284251,0.0036092571884216,-0.128530455562148,5.736574407542E-4,-1.59717197381131,-0.90106987197157,-2.93670384884979,0.0,-0.0011222300308759,0.0,422285.958486379,1.7216E-12,943.558543146465,0.871497064572446,-8.55813181816283,0.710094127472312
4320.0,6320492.24292411,2507059.97289894,-199906.053459499,-971679.601715292,6729785.30679133,-199406.135541334,-4718.44339509007,-468.161272946528,5986.09217100258,1.23224575330968,-8.53400101597222,0.253605903653392,6770140.19458356,1.33833883208147,0.0036716720728132,-0.12848693009499,3.295587746147E-4,-1.68166505609305,-0.896447043017631,-2.82877389835283,0.0,-0.0011222300308759,0.0,424376.264447331,1.6458E-12,942.222175695606,1.23224524265163,-8.53400106396349,0.253606626705438
4380.0,6225093.76993663,2743049.87100369,159221.52643033,-1252354.40468489,6686366.2499509,159941.709319021,-4633.83784736331,-978.514391060478,5987.60096988057,1.58677233430157,-8.47138485294164,-0.203195798496545,6770137.28001886,1.34271410133185,0.0037176927738112,-0.128485097814683,7.77452979582E-5,-1.76411567120849,-0.886232965669857,-2.72282510839837,0.0,-0.0011222300308759,0.0,426392.858341999,1.5774E-12,941.15013437743,1.58677185442673,-8.47138495562358,-0.203195105510485
4440.0,6103446.48139539,2967535.13150162,517621.398248233,-1527319.15749156,6612461.63151961,518558.562477582,-4528.18604946116,-1483.96591708531,5961.7428793811,1.93353367905448,-8.37069715576831,-0.658288022697822,6770027.18014801,1.34708937058509,0.0037467217899115,-0.128521560928374,-1.805827816711E-4,-1.84317052155382,-0.870678089088003,-2.62016349474791,0.0,-0.0011222300308759,0.0,428326.601087257,1.5162E-12,940.338311311924,1.93353322909106,-8.37069730841826,-0.65828735968004
4500.0,5956022.01454116,3179735.45322849,873656.81642377,-1795325.96910464,6508433.75462618,874806.692590923,-4401.99912578545,-1982.24801530261,5908.68065281673,2.27103071076178,-8.23251294826734,-1.10966897431944,6769812.1190538,1.35146463983547,0.0037582372294806,-0.128592758722813,-4.441718109565E-4,-1.91776909584021,-0.850136948458757,-2.52180147441151,0.0,-0.0011222300308759,0.0,430167.367900084,1.4618E-12,939.780984177235,2.27103028979333,-8.23251314670846,-1.10966834098106
4560.0,5783399.84161188,3378922.55620123,1225704.36606986,-2055160.28488853,6374779.86294058,1227061.71981232,-4255.87666085355,-2471.13206636292,5828.69628408575,2.59781476993353,-8.05756354064721,-1.5553671195975,6769496.1791635,1.35583990908586,0.003751796129952,-0.128694980630958,-7.117205873278E-4,-1.98718556628101,-0.825033102458864,-2.42841560096889,0.0,-0.0011222300308759,0.0,431904.124598366,1.4138E-12,939.468088937482,2.59781437703458,-8.05756378122326,-1.55536651551421
4620.0,5586264.82965608,3564422.19519561,1572161.05396477,-2305646.10016396,6212129.5096346,1573719.71093487,-4090.50351069559,-2948.43787998165,5722.18895201073,2.91249298892311,-7.84673094286772,-1.99344911086539,6769085.22155369,1.36021517832195,0.0037270374871904,-0.128824379794962,-9.818864987822E-4,-2.05101696053448,-0.795824203051893,-2.34035800786376,0.0,-0.0011222300308759,0.0,433525.031447592,1.372E-12,939.38525611686,2.91249262319069,-7.84673122241457,-1.99344853552811
4680.0,5365404.3969395,3735615.94394086,1911451.26234291,-2545650.97306252,6021241.38399649,1913204.1372078,-3906.64630601487,-3412.04255467411,5589.6725032022,3.21373318786377,-7.60104170137191,-2.42202723545387,6768586.77591029,1.36459044757234,0.0036836849930583,-0.128976987128762,-0.0012532918887308,-2.10913471816501,-0.76297239657394,-2.2577044440694,0.0,-0.0011222300308759,0.0,435017.57275798,1.336E-12,939.513216254117,3.21373284844626,-7.60104201718548,-2.42202668831661
4740.0,5121705.28228636,3891942.75199113,2242033.53870609,-2774090.81905458,5802999.61785813,2243972.66802309,-3705.14967645859,-3859.88895280445,5431.7725034179,3.50026827275594,-7.32166025634987,-2.83926634389273,6768009.90223304,1.36896571681986,0.0036215494785202,-0.129148725883373,-0.0015245306273382,-2.16161960390336,-0.726922527686513,-2.18031892349548,0.0,-0.0011222300308759,0.0,436368.709958687,1.3056E-12,939.824467540783,3.50026795888355,-7.32166060614548,-2.8392658244247
4800.0,4856149.94664691,4032900.27469769,2562407.19673675,-2989934.47132008,5558409.59571736,2564523.77554056,-3486.9322261633,-4289.99376527676,5249.22288967346,3.77090012795692,-7.00988192362358,-3.24339022591979,6767365.02686364,1.37334098605596,0.0035405310587104,-0.129335426716613,-0.0017941748706316,-2.20869593669395,-0.688088294298325,-2.10791902214426,0.0,-0.0011222300308759,0.0,437565.055459182,1.2806E-12,940.289307167497,3.77089983895791,-7.00988230550221,-3.24338973363597
4860.0,4569812.62546348,4158045.98064156,2871118.70537618,-3192207.99294762,5288593.29378846,2873403.12730269,-3252.98229083759,-4700.45514656169,5042.8622568204,4.02450300748309,-6.66712560868699,-3.6326874172302,6766663.75582744,1.37771625531206,0.0034406209754302,-0.129532843266304,-0.0020607819879795,-2.25067462690249,-0.646845110069897,-2.04013232282362,0.0,-0.0011222300308759,0.0,438593.064258007,1.2613E-12,940.963831107354,4.02450274267807,-6.66712602128985,-3.63268695150796
4920.0,4263855.05094484,4266998.04147959,3166767.84517506,-3379998.72874862,4994784.17417767,3169209.74593591,-3004.35350603069,-5089.45990723956,4813.62981290483,4.26002644126543,-6.29492636097808,-4.00551643430633,6765918.66889074,1.38209152455673,0.0033219031308886,-0.12973666822187,-0.002322901637207,-2.28790877446868,-0.603527920650212,-1.97654024581901,0.0,-0.0011222300308759,0.0,439439.239979482,1.2482E-12,941.908919674935,4.26002620001514,-6.29492680352428,-4.00551599444334
4980.0,3939521.86550684,4359436.00802537,3448013.61307563,-3552459.0862151,4678321.66095726,3450601.91708859,-2742.16021488636,-5455.29025760357,4562.56103727695,4.47649768510275,-5.89492787160047,-4.36031045152363,6765143.09804383,1.38646679380997,0.0031845553053155,-0.129942549883817,-0.0025790829653534,-2.32076181037777,-0.558432284164131,-1.91670927313945,0.0,-0.0011222300308759,0.0,440090.35180986,1.2417E-12,943.173745997173,4.47649746687701,-5.89492834388503,-4.36031003683451
5040.0,3598135.74442866,4435101.28085604,3713579.85878733,-3708810.03678976,4340645.22511791,3716302.82875947,-2467.5727416348,-5796.3301018485,4290.78307412647,4.6730237534532,-5.46887501024423,-4.69558144915815,6764350.89429098,1.39084206306035,0.0030288500493112,-0.130146109194049,-0.0028278819113921,-2.34958628449517,-0.511817356427778,-1.86021145185691,0.0,-0.0011222300308759,0.0,440533.65866531,1.2422E-12,944.802935287561,4.67302355788573,-5.46887551264588,-4.69558105904932
5100.0,3241092.24839714,4493797.38092005,3962260.6378169,-3848344.3301155,3983288.10524064,3965105.92707099,-2181.81255443621,-6111.07088779016,3999.50989197064,4.84879308375208,-5.01860648549232,-5.00992387524523,6763556.18679634,1.3952173322993,0.0028551552402904,-0.130342957212693,-0.003067868585427,-2.37471082650679,-0.463909808362295,-1.80663663667852,0.0,-0.0011222300308759,0.0,440757.136848735,1.2502E-12,946.839307549389,4.84879291069316,-5.01860701898461,-5.00992350928589
5160.0,2869854.42424659,4535390.02814013,4192925.26795917,-3970429.41525585,3607870.69029081,4195879.97528798,-1886.1473380254,-6398.11702167587,3690.03723665119,5.00307688863828,-4.54604769766835,-5.30201787698036,6762773.13849899,1.39959260154969,0.002663934290836,-0.130528713008757,-0.0032976346965799,-2.39643293827761,-0.414908042555697,-1.7555987983571,0.0,-0.0011222300308759,0.0,440749.707438854,1.2664E-12,949.325594955803,5.00307673820793,-4.54604826383817,-5.30201753497235
5220.0,2485947.17153004,4559807.0357865,4404523.07760031,-4074510.06399991,3216093.59024855,4407573.80442864,-1581.88599305107,-6656.19086127398,3363.73740172995,5.13523025786154,-4.05320383557006,-5.57063216779262,6762015.70229131,1.40396787080293,0.0024557459951523,-0.130699021923194,-0.0035158009996524,-2.41501569647568,-0.364986333714939,-1.70673830173939,0.0,-0.0011222300308759,0.0,440501.459693274,1.2915E-12,952.305638227864,5.13523013050677,-4.05320443664548,-5.57063184984396
5280.0,2090951.39286014,4567038.02756258,4596087.83549418,-4160110.69226538,2809730.41941751,4599220.74512447,-1270.373575197,-6884.13730291946,3022.05383595718,5.24469307450649,-3.54215324839647,-5.81462660397627,6761297.3817626,1.40834314003902,0.0022312439987231,-0.130849574153546,-0.003721024728346,-2.43068691717078,-0.314298696084716,-1.65972158179622,0.0,-0.0011222300308759,0.0,440003.866833385,1.3264E-12,955.825037197402,5.24469297106674,-3.54215388728335,-5.81462631058392
5340.0,1686497.94406829,4557133.98502145,4766741.85271556,-4226837.37628175,2390620.31627058,4769942.73142939,-952.986183277081,-7080.92797943168,2666.49560289829,5.33099081030551,-3.01504110269657,-6.03295454941907,6760631.00035024,1.41271840928941,0.0019911758750602,-0.130976123600102,-0.0039120069806655,-2.4436397514285,-0.262982395796315,-1.61423922575474,0.0,-0.0011222300308759,0.0,439249.990704389,1.3723E-12,959.930971811286,5.33099073209031,-3.01504178301891,-6.03295428156793
5400.0,1274261.39852397,4530206.63261365,4915699.74825634,-4274379.56067197,1960660.22267082,4918954.06804113,-631.1258016751,-7245.6650857484,2298.63170303617,5.3937352621446,-2.47407331207448,-6.22466510824681,6760028.4825202,1.41709367853979,0.001736381792669,-0.131074506904035,-0.0040875000199664,-2.45403400877071,-0.211161095556299,-1.57000313840719,0.0,-0.0011222300308759,0.0,438234.67196279,1.4304E-12,964.670725971639,5.39373521102611,-2.47407403821329,-6.22466486752977
5460.0,855953.64147648,4486427.66595853,5042271.87020692,-4302511.4557642,1521796.94433121,5045564.85287396,-306.215098923908,-7377.58484772582,1920.08526392641,5.43262528642888,-1.92151070557408,-6.38890530296836,6759500.65032736,1.42146894779017,0.0014677927548983,-0.131140662598852,-0.004246314453164,-2.46199774545597,-0.15894765832032,-1.52674322420157,0.0,-0.0011222300308759,0.0,436954.702631306,1.5024E-12,970.088364569758,5.43262526495102,-1.92151148270062,-6.38890509173072
5520.0,433317.307038064,4426027.82947961,5145867.36466262,-4311093.1214749,1076019.01352319,5149184.04711999,20.3078189525487,-7476.06064688318,1532.52759948309,5.44744757992622,-1.35966338003147,-6.52492226996436,6759057.03839629,1.4258442170377,0.0011864283954827,-0.131170650287913,-0.0043873262462324,-2.46762882203645,-0.106446656936347,-1.48420384882451,0.0,-0.0011222300308759,0.0,435408.978071576,1.5901E-12,976.219155973993,5.44744759143169,-1.35966421411452,-6.52492209147923
5580.0,8119.07140462341,4349295.84791704,5225996.88443556,-4300071.23494129,625348.374387913,5229322.18487635,346.994704327163,-7540.60581001552,1137.6721354182,5.43807754531498,-0.790885163011091,-6.63206553508202,6758705.7300249,1.43021948627666,8.933943127309E-4,-0.131160669752669,-0.0045094835356327,-2.47099624731994,-0.05375664596693,-1.44214022725442,0.0,-0.0011222300308759,0.0,433598.625658012,1.6956E-12,983.081854812642,5.43807759408668,-0.790886060778119,-6.63206539375657
5640.0,-417857.184730541,4256577.21558379,5282274.92936756,-4269479.53877905,171831.910810175,5285593.71413066,672.392519011151,-7570.87606770285,737.268194442033,5.40448026727271,-0.217568097049609,-6.70978941994498,6758453.21675508,1.4345947555299,5.898789264878E-4,-0.131107079888963,-0.0046118131936841,-2.4721411995293,-9.722550902671E-4,-1.40031480944433,0.0,-0.0011222300308759,0.0,431527.107687505,1.821E-12,990.669920073492,5.40448035868203,-0.217569065878379,-6.70978932155214
5700.0,-842817.332200622,4148272.84619675,5314421.80957448,-4219438.96644788,-282467.163257538,5317718.96043167,995.048847511116,-7566.67167999414,333.094632228012,5.34671161099415,0.357863156560373,-6.75765561477243,6758304.28338902,1.43897002478028,2.771498433618E-4,-0.131006417362387,-0.0046934271054956,-2.47107766277147,0.0518138361923478,-1.35849368717507,0.0,-0.0011222300308759,0.0,429200.296332119,1.9687E-12,998.943890283476,5.34671175164341,0.35786210883959,-6.75765556669543
5760.0,-1264964.05355984,4024837.58515067,5322265.22235791,-4150157.44077119,-735478.030841304,5325525.70397719,1313.51737983035,-7527.93922116112,-73.0466865025153,5.26491944000314,0.932957104777325,-6.77533593652352,6758261.92006387,1.44334529401923,-4.34502822523E-5,-0.130855414868173,-0.0047535281152783,-2.46779264761457,0.104508983454506,-1.31644301801337,0.0,-0.0011222300308759,0.0,426626.518735014,2.141E-12,1007.82780581076,5.26491963784767,0.932955970176579,-6.77533594799416
5820.0,-1682503.99404785,3886778.58531724,5305741.43285855,-4061929.34123132,-1185131.09549473,5308950.36018939,1626.36347048909,-7454.77300864665,-479.337582998295,5.15934493454527,1.50524151519741,-6.76261527260919,6758327.262636,1.44772056326676,-3.705084012362E-4,-0.130651018876775,-0.0047914156007778,-2.46224598612697,0.157018663318342,-1.27392544961713,0.0,-0.0011222300308759,0.0,423816.570666673,2.3402E-12,1017.21197063112,5.15934519898161,1.50524028595342,-6.76261535491934
5880.0,-2093654.98831443,3734653.54633819,5264896.04786501,-3955134.63530458,-1629366.87938361,5268038.75318669,1932.16977884617,-7347.4161544425,-883.950441252807,5.03032397624053,2.07222992814209,-6.71939469086007,6758499.56228118,1.45209583251429,-7.025462436033E-4,-0.130390406742844,-0.0048064906357357,-2.45436971032264,0.209244501985605,-1.2306965274089,0.0,-0.0011222300308759,0.0,420783.697503651,2.5684E-12,1026.96229056004,5.03032431815326,2.0722285971617,-6.7193948575297
5940.0,-2496653.34553429,3569068.81708571,5199884.37159808,-3830237.66886601,-2066144.97242997,5202946.47096752,2229.54199328838,-7206.26121039504,-1285.0552754341,4.87828854956611,2.63142869790837,-6.64569467654369,6758776.18488043,1.45647110176467,-0.001038026016103,-0.130071003053083,-0.0047982607022448,-2.44406704429905,0.261082187264383,-1.18650108084227,0.0,-0.0011222300308759,0.0,417543.541665185,2.8276E-12,1036.93383639356,4.87828898133188,2.63142725924818,-6.64569494343715
6000.0,-2889761.17503341,3390677.36004625,5110971.33184,-3687785.61063763,-2493453.00713664,5113938.79067068,2517.11463845784,-7031.85037262832,-1680.82699392449,4.70376809660815,3.18034466326887,-6.54165843761116,6759152.64044379,1.46084637101505,-0.0013753566222876,-0.129690495087225,-0.0047663439173994,-2.43121107058204,0.312419204378758,-1.1410696104703,0.0,-0.0011222300308759,0.0,414114.056051506,3.1199E-12,1046.98471456142,4.70376863205943,3.18034311262876,-6.54165882300017
6060.0,-3271273.73144955,3200176.57629143,4998530.9645379,-3528406.54582619,-2909315.63145297,5001390.16203642,2793.55696048511,-6824.87520465901,-2069.4528618281,4.50739074882121,3.71649353362447,-6.40755520062446,6759622.64251648,1.46522164025686,-0.0017129003990297,-0.129246847266208,-0.0047104727414201,-2.41564317774309,0.363132336113698,-1.09411474478204,0.0,-0.0011222300308759,0.0,410515.383470675,3.4471E-12,1056.98669783139,4.50739140317029,3.71649186884984,-6.40755572519761
6120.0,-3639526.75630814,2998305.98956102,4863045.44504922,-3352807.21454191,-3311803.44947051,4865783.23723173,3057.57888028349,-6586.17583410473,-2449.14015862374,4.28988434865405,4.23740905951487,-6.24378340252698,6760178.19720854,1.46959690949868,-0.0020489803581328,-0.128738314462529,-0.0046304971379467,-2.39717146884318,0.413084870885244,-1.04532791036772,0.0,-0.0011222300308759,0.0,406769.70252049,3.8112E-12,1066.83090310197,4.28988513837227,4.23740728111544,-6.24378408934036
6180.0,-3992903.79042916,2785844.78783344,4705103.65457579,-3161770.3913495,-3699041.8969207,4707707.43558219,3307.93699945856,-6316.73957438798,-2818.12402147982,4.05207716519406,4.74065303486019,-6.05087366808487,6760809.72118291,1.47397217874906,-0.002381887916245,-0.128163454049612,-0.0045263871607868,-2.37556942123042,0.462123471253142,-0.994376472985886,0.0,-0.0011222300308759,0.0,402901.04090676,4.214E-12,1076.42881428146,4.05207810783374,4.74065114655698,-6.05087454243948
6240.0,-4329843.42840382,2563609.22135344,4525399.27110821,-2956151.90340552,-4069220.01545972,4527857.03252883,3543.44063743622,-6017.69892071702,-3174.67545773658,3.79489820174257,5.22382615377016,-5.82949144990992,6761506.18761991,1.47834744799087,-0.0027098910902005,-0.127521136570037,-0.0043982349455263,-2.35057525339123,0.510074675203802,-0.94090177566458,0.0,-0.0011222300308759,0.0,398935.057727153,4.657E-12,1085.71014483241,3.79489931568472,5.22382416307582,-5.82949253913303
6300.0,-4648846.48337521,2332449.85709031,4324728.37541875,-2736877.2861068,-4420599.08665712,4327028.76334579,3762.95787216755,-5690.32886905952,-3517.1095023585,3.51937698972979,5.6845797175084,-5.58043919791093,6762255.29883383,1.4827227172384,-0.0030312431288568,-0.12681055490657,-0.0042462560884755,-2.32189269165748,0.556741040894256,-0.884518740462148,0.0,-0.0011222300308759,0.0,394898.796822397,5.1413E-12,1094.61924063171,3.51937829383808,5.68457763633295,-5.58044053101294
6360.0,-4948483.02820967,2093248.68932778,4103986.56433578,-2504938.07702345,-4751521.08355318,4106118.93385078,3965.42155040155,-5336.04350796329,-3843.7934879487,3.22664276282445,6.12062815777407,-5.30465791819692,6763043.68384775,1.48709798648878,-0.0033441915461074,-0.126031231845225,-0.0040707903997996,-2.28919415402687,0.601897013634929,-0.82481802817322,0.0,-0.0011222300308759,0.0,390820.413887132,5.6678E-12,1103.11131635942,3.22664427598865,6.12062600303222,-5.30465952537442
6420.0,-5227399.27531914,1846916.10863079,3864165.5657301,-2261387.75112097,-5060416.89472106,3866120.03253945,4149.83522721,-4956.39183603257,-4153.15538640335,2.91792290768727,6.52976231145473,-5.00322797823953,6763857.11882596,1.49147325573631,-0.003646987513439,-0.125183025926062,-0.0038723020218665,-2.25212778266186,0.64528470679188,-0.761372167496456,0.0,-0.0011222300308759,0.0,386728.880628005,6.2362E-12,1111.14924903929,2.91792464824379,6.529760105635,-5.00322989019853
6480.0,-5484324.25546193,1594387.73195982,3606349.35235483,-2007337.30287797,-5345814.27307318,3608116.8412877,4315.27898839526,-4553.05276271384,-4443.69217269332,2.59454059371385,6.90986335006752,-4.67736901583042,6764680.76781285,1.49584852498669,-0.0039378955640392,-0.124266135485466,-0.003651378907932,-2.21033022875957,0.68660996396631,-0.693747539913747,0.0,-0.0011222300308759,0.0,382653.66984073,6.8454E-12,1118.70118888444,2.59454257873932,6.90986112170979,-4.67737126291171
6540.0,-5718076.25337899,1336621.09825737,3331709.75490318,-1743950.48385918,-5606345.45930481,3333282.04499111,4460.91510381514,-4127.82925681795,-4713.97815284078,2.25791149343181,7.2589172349747,-4.32843881434559,6765499.44074156,1.50022379422564,-0.004215203554322,-0.123281100803134,-0.0034087316604495,-2.16344751917117,0.725539324498509,-0.621524534499032,0.0,-0.0011222300308759,0.0,378624.425834606,7.4933E-12,1125.73896544841,2.25791373791601,7.2589150189918,-4.32844142544619
6600.0,-5927568.95589511,1074592.23662734,3041501.57836437,-1472438.70757269,-5840754.42798407,3042871.34422906,4585.99345472567,-3682.64161588927,-4962.67319016946,1.90953951803127,7.57502953796347,-3.95793101631823,6766297.86514991,1.50459906347603,-0.0044772328227569,-0.122228804278033,-0.0031451917316152,-2.11116648256364,0.761698851106885,-0.544328337264744,0.0,-0.0011222300308759,0.0,374670.625140294,8.1762E-12,1132.2371366252,1.90954203394828,7.57502737573588,-3.95793401761917
6660.0,-6111817.26723657,809292.114262266,2737057.22993315,-1194055.63698175,-6047903.70299161,2738218.07921867,4689.85667418312,-3219.5198400665,-5188.53075663072,1.55101150881381,7.85644043685772,-3.56747156151937,6767060.96750021,1.50897433272355,-0.0047223484805203,-0.121110468570624,-0.0028617089925179,-2.05325867240195,0.794676165023202,-0.46187228083006,0.0,-0.0011222300308759,0.0,370821.232875104,8.8888E-12,1138.17249151442,1.55101430412495,7.85643837602966,-3.56747497504978
6720.0,-6269942.74473605,541722.975994554,2419780.87131146,-910091.47379336,-6226780.68839088,2420727.37791029,4771.94493656814,-2740.59510633359,-5390.40572972457,1.18399084504903,8.10153966853703,-3.15881375475441,6767774.15944812,1.51334960196536,-0.004948969763241,-0.119927652663398,-0.0025593486799762,-1.98963690421063,0.824027369037257,-0.374013861810901,0.0,-0.0011222300308759,0.0,367104.360484873,9.6243E-12,1143.52382619861,1.18399392268572,8.10153776244844,-3.15881759684425
6780.0,-6401178.6085655,272894.58718581,2091142.11316371,-621866.972540797,-6376503.46097068,2091869.84600154,4831.80033059604,-2248.09035284435,-5567.26185053764,0.810209951600343,8.30888119822647,-2.73383189235762,6768423.62388286,1.51772487121575,-0.0051555803687787,-0.118682245808552,-0.0022392877328661,-1.92042083050487,0.849290618027287,-0.280819840467736,0.0,-0.0011222300308759,0.0,363546.930814414,1.03739E-11,1148.27183107289,0.810213308489425,8.30887950492989,-2.73383617205443
6840.0,-6504874.27935006,3820.39465894223,1752669.27466411,-330727.206429734,-6496325.97172847,1753174.82182763,4869.07074993503,-1744.3099980554,-5718.17875498713,0.431461715342064,8.47719734541969,-2.29451340468748,6768996.59508777,1.52210014046327,-0.0053407387022059,-0.117376459350177,-0.0019028105320312,-1.84600229841212,0.870007613278932,-0.18263115978018,0.0,-0.0011222300308759,0.0,360174.356558148,1.11273E-11,1152.39890244435,0.431465341546922,8.4771959262552,-2.2945181222329
6900.0,-6580499.39891565,-264486.376534904,1405942.23640418,-38035.115837834,-6585642.60552285,1406223.22441797,4883.51323692335,-1231.62883538272,-5842.35848875012,0.0495898472664562,8.60541209454922,-1.84294950433323,6769481.62698645,1.52647540971366,-0.0055030879460826,-0.116012816428892,-0.0015513040596301,-1.76709475097341,0.885752941326899,-0.0801119379063742,0.0,-0.0011222300308759,0.0,357010.238094022,1.18725E-11,1155.88901687023,0.0495937253255131,8.6054110122818,-1.84295464981427
6960.0,-6627647.2917861,-531016.672534231,1052584.92029403,254835.125855572,-6643992.0510598,1052640.02837801,4874.99671796459,-712.480160593868,-5939.13141680032,-0.333521743496579,8.6926533137042,-1.38132436552291,6769868.84318165,1.53085067896118,-0.0056413658722088,-0.114594139598831,-0.0011862524954267,-1.68474675269414,0.896168883908508,0.0257373917740218,0.0,-0.0011222300308759,0.0,354076.086496087,1.25965E-11,1158.72852116077,-0.333517638942332,8.69265263026611,-1.38132991783522
7020.0,-6646037.82802541,-794769.584738264,694257.435364297,546504.890885079,-6671060.43730769,694086.404531214,4843.50407404889,-189.343205685745,-6007.9614411395,-0.715960467683712,8.738263608336,-0.911902898423082,6770150.1624001,1.53522594820014,-0.0057544143096649,-0.11312353641034,-8.09231268751E-4,-1.60030225774512,0.90100059527837,0.133620180487741,0.0,-0.0011222300308759,0.0,351391.077149815,1.3285E-11,1160.90684866799,-0.71595616989934,8.73826338226912,-0.911908824672194
7080.0,-6635519.65207871,-1054756.32624313,332647.933419809,835597.978732818,-6666683.69734533,332251.570302991,4789.1334964936,335.270030958168,-6048.45044531011,-1.09579734069274,8.74180954979201,-0.437017221314422,6770319.49306078,1.53960121745052,-0.0058411881841015,-0.111604383035923,-4.219005861179E-4,-1.51530238754908,0.900124562500357,0.242042142502341,0.0,-0.0011222300308759,0.0,348971.838859,1.39237E-11,1162.41688344742,-1.09579289044202,8.74180983352914,-0.437023476759575
7140.0,-6596071.74691565,-1310004.18751582,-30535.7768308858,1120747.55660065,-6630849.1264923,-31155.601496021,4712.09908634104,858.828453355152,-6060.34189162681,-1.47109988168795,8.70308904105205,0.0409480274763799,6770372.8910137,1.54397648670376,-0.0059007640439646,-0.110040306041721,-2.59984552876E-5,-1.43134273028483,0.893563437366592,0.349454404842998,0.0,-0.0011222300308759,0.0,346832.282646744,1.44982E-11,1163.2551043933,-1.47109532638614,8.70308987821116,0.0409414988627756
7200.0,-6527804.30853748,-1559560.44554167,-393574.804381663,1400603.11233711,-6563696.10826667,-394415.162663867,4612.73066573873,1378.79591753829,-6043.52350669729,-1.83994545055279,8.62213661416412,0.519571359196659,6770308.67506644,1.54835175594557,-0.0059323479915149,-0.108435162431288,3.766667720622E-4,-1.34991762923107,0.881483265049363,0.454409566428832,0.0,-0.0011222300308759,0.0,344983.473628437,1.49952E-11,1163.42157379091,-1.83994084299113,8.62213803705074,0.519564623525226
7260.0,-6430958.91205326,-1802496.20160732,-754747.882960272,1673837.37186503,-6465515.98914838,-755804.802031317,4491.4727808238,1892.64553274307,-5998.02900253568,-2.20043482683756,8.49922649499177,0.996410874218304,6770127.49573386,1.5527270251931,-0.0059352829397423,-0.106793018111885,7.842243160846E-4,-1.27228841016143,0.86417387064224,0.555693821438793,0.0,-0.0011222300308759,0.0,343433.54839702,1.54027E-11,1162.9198296464,-2.20043022352994,8.4992285225078,0.996404005859388
