time,gePosition_m_X,gePosition_m_Y,gePosition_m_Z,eiPosition_m_X,eiPosition_m_Y,eiPosition_m_Z,eiVelocity_m_s_X,eiVelocity_m_s_Y,eiVelocity_m_s_Z,eiAccel_m_s2_X,eiAccel_m_s2_Y,eiAccel_m_s2_Z,semiMajorAxis_m,gast_rad,eulerAngle_rad_Roll,eulerAngle_rad_Pitch,eulerAngle_rad_Yaw,eulerAngleWrtEi_rad_Roll,eulerAngleWrtEi_rad_Pitch,eulerAngleWrtEi_rad_Yaw,bodyAngularRateWrtEi_rad_s_Roll,bodyAngularRateWrtEi_rad_s_Pitch,bodyAngularRateWrtEi_rad_s_Yaw,altitudeMsl_m,airDensity_kg_m3,ambientTemperature_dgK,eiGravitation_m_s2_X,eiGravitation_m_s2_Y,eiGravitation_m_s2_Z
0.0,-1436381.46529,4185811.71036,5163944.67155,-4315967.74,960356.2,5167269.53,129.091037,-7491.513855,1452.515654,5.454625131,-1.21381442105,-6.54922162248,6759053.07579,1.02334780893,3.400115586061947E-16,-0.2024581932313422,-1.522968439585956E-16,-2.4715939055627265,-0.03718896475792745,-1.428993135204757,0.0,-0.0011222300308754611,0.0,434989.540812,1.61790350067E-12,978.31253865,5.45462515459,-1.21381527151,-6.54922145035
60.0,-1794959.84982,3943151.69752,5239238.32494,-4298410.79396,509021.635914,5242566.7395,455.965805086,-7547.27264245,1056.37889256,5.43715582243,-0.643957249096,-6.6504565533,6758724.49995,1.02772307802,-3.157468549768015E-6,-0.20243702513291842,-9.141349366272429E-5,-2.4720451944049366,0.015605902028365605,-1.3871941836894333,0.0,-0.0011222300308754611,0.0,433110.2772,1.7288162351E-12,985.412390501,5.43715588488,-0.643958165353,-6.65045641949
120.0,-2147589.78048,3685729.37167,5290614.34529,-4261287.36429,55370.0023026,5293931.16491,781.064611679,-7568.71029705,655.051464636,5.39543336516,-0.0701797170947,-6.7221652464,6758493.85397,1.03209834711,-1.2685363812059591E-5,-0.20237116488575765,-1.82427924470657E-4,-2.470286822045643,0.06837346634939342,-1.3453262663509098,0.0,-0.0011222300308754611,0.0,430971.344874,1.86035434257E-12,993.232081594,5.39543347221,-0.0701807066906,-6.72216515708
180.0,-2492787.66301,3414636.83434,5317814.66827,-4204747.62552,-398533.831645,5321104.78003,1102.93443811,-7555.66444042,250.317998839,5.32954545917,0.505085387005,-6.76393085357,6758365.65719,1.0364736162,-2.8624032892257463E-5,-0.20225721924341747,-2.721934449803423E-4,-2.466297307513463,0.12102070149978093,-1.303154824308686,0.0,-0.0011222300308754611,0.0,428579.182488,2.01483799423E-12,1001.7212909,5.32954561782,0.505084316143,-6.76393081659
240.0,-2829089.62469,3131016.1005,5320688.92376,-4129028.72001,-850619.648996,5323937.32041,1420.13030417,-7508.11944321,-156.015186992,5.23967255499,1.07938023936,-6.77544772442,6758342.68975,1.04084888529,-5.095591265397442E-5,-0.20209199664795843,-3.5986640460475993E-4,-2.4600278400927786,0.1734520917711023,-1.2604406632134308,0.0,-0.0011222300308754611,0.0,425942.694325,2.19456761332E-12,1010.79299482,5.23967277361,1.07937907925,-6.77544774953
300.0,-3155057.44107,2836054.72767,5299195.53551,-4034454.1079,-1298820.73135,5302387.38281,1731.22087013,-7426.2077398,-562.126844705,5.1260890969,1.65022828868,-6.75652433153,6758425.92711,1.04522415437,-7.960492077655707E-5,-0.201872524403984,-4.4461522314018605E-4,-2.4514015320610127,0.22556763079816464,-1.216936353784656,0.0,-0.0011222300308754611,0.0,423073.256081,2.40175904745E-12,1020.32804353,5.12608938534,1.65022703167,-6.7565244306
360.0,-3469284.47368,2530981.29073,5253402.41011,-3921432.57873,-1741082.7724,5256523.11381,2034.79411481,-7310.21075271,-966.187734387,4.98916480696,2.2151409742,-6.70708632996,6758614.50164,1.04959942346,-1.1443621824837739E-4,-0.20159606520167256,-5.256261908544867E-4,-2.4403123001245675,0.2772606847084223,-1.1723826141690332,0.0,-0.0011222300308754611,0.0,419984.687475,2.63851736385E-12,1030.18600239,4.98916517656,2.21513961347,-6.70708651712
420.0,-3770401.60268,2217060.70901,5183487.20443,-3790456.92009,-2175372.8346,5186522.47646,2329.46309076,-7160.55939908,-1366.36774972,4.82936596481,2.77162495518,-6.62717971691,6758905.69251,1.05397469255,-1.5525635510533345E-4,-0.20126013286488315,-6.02109154089142E-4,-2.4266234488921494,0.32841566026697583,-1.1265047086280184,0.0,-0.0011222300308754611,0.0,416693.190981,2.90684911011E-12,1040.21935786,4.82936642837,2.77162348518,-6.62718000866
480.0,-4057083.13651,1895589.43239,5089737.15997,-3642102.23861,-2599688.32284,5092673.08374,2613.87175474,-6977.83414564,-1760.84323464,4.64725662452,3.31718994731,-6.51697403896,6759294.94506,1.05834996164,-2.018138098629028E-4,-0.20086250721787022,-6.73303047291496E-4,-2.410166082398258,0.37890541913027004,-1.0790089514129753,0.0,-0.0011222300308754611,0.0,413217.256424,3.20869325927E-12,1050.28703944,4.64725719629,3.31718836429,-6.51697445422
540.0,-4328052.67863,1567890.49375,4972548.49284,-3477023.92905,-3012065.94689,4975371.58727,2886.70086749,-6762.76457314,-2147.80449217,4.44349969703,3.84935725092,-6.37676557596,6759775.92045,1.06272523073,-2.537999305442682E-4,-0.20040124794319772,-7.384812349946116E-4,-2.390737553674849,0.4285883837533455,-1.0295794903432756,0.0,-0.0011222300308754611,0.0,409577.531607,3.5459413037E-12,1060.26402692,4.44350039258,3.84935555344,-6.37676613605
600.0,-4582088.92933,1235308.4359,4832425.32769,-3295955.28757,-3410590.64196,4835122.60973,3146.67395245,-6516.2284065,-2525.46348133,4.21885781477,4.36566904119,-6.20698041276,6760340.57601,1.06710049981,-3.108502835192835E-4,-0.1998747073086801,-7.969566301680903E-4,-2.368100287875824,0.47730529221887513,-0.9778756738811295,0.0,-0.0011222300308754611,0.0,405796.659647,3.92042097238E-12,1070.04583551,4.21885865087,4.3656672306,-6.20698114134
660.0,-4818031.39784,899204.122161,4669978.16478,-3099704.76608,-3793404.41381,4672537.21011,3392.56329739,-6239.24996339,-2892.06169247,3.97419388516,4.86369847124,-6.00817729332,6760979.2764,1.0714757689,-3.725464137725227E-4,-0.19928154163943146,-8.480865585746163E-4,-2.3419815006332434,0.5248755839273189,-0.9235304947778583,0.0,-0.0011222300308754611,0.0,401899.084198,4.33383046811E-12,1079.54857461,3.97419487958,4.86369655227,-6.00817821622
720.0,-5034785.99812,560949.441414,4485921.86985,-2889152.86572,-4158715.07216,4488330.8715,3623.19597751,-5932.99797149,-3245.87818431,3.71047123186,5.34106061623,-5.781050137,6761680.93523,1.07585103799,-4.3841801776105466E-4,-0.19862072142506723,-8.912773422157563E-4,-2.3120745961882356,0.5710934443666792,-0.8661508699147504,0.0,-0.0011222300308754611,0.0,397910.82427,4.78762271477E-12,1088.70623495,3.71047240309,5.34105859756,-5.78105128202
780.0,-5231330.49877,221921.919905,4281073.1777,-2665248.66902,-4504804.81285,4283321.00235,3837.45987196,-5598.78270372,-3585.23775854,3.42875321705,5.79542425947,-5.52643008423,6762433.18613,1.08022630708,-5.079455272504825E-4,-0.19789153992592276,-9.259885782858737E-4,-2.278043383844667,0.6157236175579897,-0.8053208725167013,0.0,-0.0011222300308754611,0.0,393859.220931,5.2828470852E-12,1097.46687152,3.42875458392,5.79542215435,-5.52643148072
840.0,-5406719.79562,-116500.745834,4056347.70239,-2429006.01209,-4830038.60641,4058423.94392,4034.30963937,-5238.05238173,-3908.51923949,3.13020223626,6.2245244915,-5.24528692954,6763222.58195,1.08460157617,-5.805630995980233E-4,-0.19709362018055024,-9.517370935715965E-4,-2.2395306890746065,0.6584972253791455,-0.7406094741657385,0.0,-0.0011222300308754611,0.0,389772.658728,5.81995915045E-12,1105.78884599,3.13020381745,6.2245223183,-5.24528860786
900.0,-5560090.97303,-452946.218407,3812756.44867,-2181499.30051,-5132872.34781,3814651.47882,4212.7726116,-4852.38880049,-4214.16381773,2.81607797815,6.62617606008,-4.93872979458,6764034.81972,1.08897684525,-6.556620068852089E-4,-0.19622692030628355,-9.681005573200203E-4,-2.196173409618573,0.6991080320279793,-0.6715848301062751,0.0,-0.0011222300308754611,0.0,385680.265251,6.39861096164E-12,1113.63778864,2.8160797916,6.62617384288,-4.93873178539
960.0,-5690668.11849,-786053.092491,3551401.82247,-1923858.97524,-5411860.7191,3553106.83826,4371.95455846,-4443.50213177,-4500.6834076,2.48773484746,6.99828737448,-4.60800689274,6764854.98876,1.09335211434,-7.325944130582246E-4,-0.19529173697942498,-9.747207385589087E-4,-2.1476264377012977,0.7372098731348192,-0.5978375145795667,0.0,-0.0011222300308754611,0.0,381611.592815,7.01743099275E-12,1120.9843043,2.48773690959,6.99828514347,-4.60800922608
1020.0,-5797766.85324,-1114476.48999,3273473.1412,-1657266.63779,-5665664.71479,3274980.20884,4511.0452703,-4013.22487079,-4766.6689596,2.14661845827,7.33887503177,-4.25450424112,6765667.83818,1.09772738343,-8.106775248758846E-4,-0.1942887070217493,-9.713063963671713E-4,-2.093597855730558,0.7724163273700638,-0.5190151007703818,0.0,-0.0011222300308754611,0.0,377596.286752,7.67381024145E-12,1127.80255352,2.14662078318,7.33887282356,-4.25450694528
1080.0,-5880798.54068,-1436893.6536,2980241.64866,-1382949.8474,-5893058.77763,2981543.74365,4629.32390034,-3563.5048999,-5010.7986607,1.794261119,7.64607869792,-3.87974318532,6766458.05972,1.10210265252,-8.891980989152475E-4,-0.19321880701827693,-9.57635793585318E-4,-2.0338969399550955,0.8043040940332757,-0.4348696089353474,0.0,-0.0011222300308754611,0.0,373663.745307,8.36370650783E-12,1134.06938117,1.79426371747,7.64607655552,-3.87974628553
1140.0,-5939274.1341,-1752009.51266,2673055.04329,-1102176.60636,-6092937.49132,2674146.08654,4726.16400429,-3096.39765356,-5231.8459473,1.43227624826,7.91817614299,-3.48537661776,6767210.58076,1.10647792161,-9.674172833819972E-4,-0.19208335089126596,-9.335588261258732E-4,-1.968494152701902,0.8324218222322988,-0.3453169937496435,0.0,-0.0011222300308754611,0.0,369842.776504,9.0814848069E-12,1139.76386176,1.4322791268,7.91817411552,-3.48538013472
1200.0,-5972807.62479,-2058562.19262,2353331.53368,-816249.553731,-6264321.77603,2354206.42328,4801.03821179,-2614.05738236,-5428.68724977,1.06235168333,8.15359820008,-3.07318379173,6767910.86191,1.11085319069,-0.0010445757696155354,-0.19088398540249885,-8.989987609443205E-4,-1.8975879558838207,0.8563060762494299,-0.2505034948136596,0.0,-0.0011222300308754611,0.0,366161.2577,9.81981211905E-12,1144.8670717,1.06235484313,8.15359634212,-3.07318774006
1260.0,-5981119.05312,-2355328.43766,2022553.4397,-526499.891484,-6406364.533,2023208.07824,4853.52246276,-2118.72752806,-5600.30938174,0.686241868364,8.35094339259,-2.64506366011,6768545.19315,1.11522845978,-0.0011198992246741158,-0.18962268355419257,-8.539535763210674E-4,-1.8216671353457778,0.8755053926938258,-0.15086753246242685,0.0,-0.0011222300308754611,0.0,362645.803723,1.05696247626E-11,1149.36192586,0.686245304386,8.35094176306,-2.64506804679
1320.0,-5964037.04601,-2641128.91402,1682260.36352,-234281.071163,-6518355.68568,1682691.6806,4883.29974181,-1612.73023783,-5745.81648441,0.305758938676,8.50899195566,-2.20302669975,6769100.98169,1.11960372887,-0.0011926039724566091,-0.18830173587282417,-7.984968980874725E-4,-1.7415511375461163,0.8896117212815267,-0.04717964371900692,0.0,-0.0011222300308754611,0.0,359321.449582,1.13201832306E-11,1153.2328929,0.30576263882,8.50899061632,-2.2030315226
1380.0,-5921500.84695,-2914833.36023,1334041.95963,59037.7268059,-6599726.56689,1334247.92956,4890.16324559,-1098.45506239,-5864.43643473,-0.0772372519148,8.62671896734,-1.74918521885,6769567.02487,1.12397899796,-0.0012619028872674883,-0.1869237396247415,-7.32778525086888E-4,-1.658388369120703,0.8982960218291156,0.05945959770688049,0.0,-0.0011222300308754611,0.0,356211.353644,1.20592458404E-11,1156.46612422,-0.0772333073813,8.62671798079,-1.74919046528
1440.0,-5853561.80775,-3175365.54951,979530.33902,352078.285299,-6650053.60498,979509.99337,4874.01892207,-578.346900263,-5955.52662739,-0.460850081816,8.703306303,-1.28574218398,6769933.76099,1.12835426705,-0.0013270114600821444,-0.1854915859565771,-6.57024536484482E-4,-1.5735978370241681,0.9013421412672873,0.16767830484890037,0.0,-0.0011222300308754611,0.0,353336.526988,1.27733837839E-11,1159.05028431,-0.460845920536,8.70330573038,-1.28574783004
1500.0,-5760384.31469,-3421708.02948,620392.147459,643460.174789,-6669061.26592,620145.582439,4834.88732604,-54.8932669723,-6018.57904375,-0.843157980108,8.73815313506,-0.81497864488,6770193.49141,1.13272953613,-0.001387153994313888,-0.18400844508787492,-5.715369727210529E-4,-1.4887544881298564,0.898671653796826,0.2759482912661997,0.0,-0.0011222300308754611,0.0,350715.5942,1.34484099922E-11,1160.977088,-0.843153637532,8.73815303342,-0.814984654783
1560.0,-5642246.12684,-3652906.60409,258320.363165,931807.66723,-6656624.21365,257848.741699,4772.90474294,469.389015518,-6053.22452718,-1.22222697261,8.7308847184,-0.33923987601,6770340.56746,1.13710480522,-0.001441569884731927,-0.18247774958385488,-4.7669308106827914E-4,-1.40543846448609,0.8903533889481704,0.38273616390528237,0.0,-0.0011222300308754611,0.0,348364.590388,1.40699059211E-11,1162.2415469,-1.22222249147,8.73088513798,-0.33924620223
1620.0,-5499538.10874,-3868074.52408,-104974.136304,1215756.69443,-6612768.65709,-105668.587875,4688.3235422,991.967599207,-6059.2361922,-1.59612378887,8.68135923076,0.139079606141,6770371.5364,1.14148007431,-0.0014895199300711775,-0.18090317587237584,-3.729441160394898E-4,-1.3250831126115463,0.8765950545699809,0.48665566178453706,0.0,-0.0011222300308754611,0.0,346296.798457,1.46238213529E-11,1162.84202339,-1.59611921822,8.68136021235,0.139073022162
1680.0,-5332763.34605,-4066396.35339,-467771.184139,1493961.80379,-6537672.85928,-468685.184752,4581.511732,1510.30873761,-6036.53190577,-1.96292934132,8.58967247545,0.617551955447,6770285.24152,1.1458553434,-0.0015302926275936296,-0.17928862410283616,-2.608136846430015E-4,-1.2488571127191321,0.8577192397614389,0.5865858795973985,0.0,-0.0011222300308754611,0.0,344522.629881,1.5097110761E-11,1162.78015763,-1.96292473512,8.58967404798,0.617545181946
1740.0,-5142535.63818,-4247131.48141,-828350.054143,1765103.06289,-6431666.79179,-829479.282096,4452.95169921,2021.89162757,-5985.17579143,-2.32075237139,8.45616030046,1.09373261281,6770082.87265,1.15023061249,-0.0015632103955257222,-0.17763819653899776,-1.408956265175999E-4,-1.1776021910181746,0.8341299041596535,0.6817339182492723,0.0,-0.0011222300308754611,0.0,343049.55125,1.5478361723E-11,1162.06072681,-2.32074778682,8.456162479,1.09372572574
1800.0,-4929577.36885,-4409617.25371,-1184998.25068,2027892.86398,-6295230.92563,-1186337.36306,4303.23813091,2524.22282524,-5905.37872162,-2.66774304795,8.28139864086,1.56517737813,6769767.96453,1.15460588158,-0.0015876356677358761,-0.17595617462361401,-1.385141985393167E-5,-1.1118280220754253,0.8062766880124569,0.7716403607058901,0.0,-0.0011222300308754611,0.0,341882.057868,1.57583673046E-11,1160.69149141,-2.66773854338,8.28140142536,1.5651704587
1860.0,-4694716.76131,-4553271.69705,-1536020.29733,2281082.57933,-6128994.15862,-1537562.95472,4133.07512691,3014.85059225,-5797.49777846,-3.00210630097,8.06620114929,2.02945967319,6769346.34197,1.15898115066,-0.0016029768041715764,-0.1742469949419301,1.1959289442471843E-4,-1.0517504053442654,0.7746230677648103,0.8561414947203864,0.0,-0.0011222300308754611,0.0,341021.694603,1.59305961432E-11,1158.68307735,-3.00210193382,8.06620452396,2.02945280504
1920.0,-4438884.53207,-4677595.81871,-1879746.46229,2523469.01966,-5933730.88764,-1881485.3586,3943.27252541,3491.37902786,-5662.03467993,-3.32211467864,7.81161443811,2.48418772488,6768826.01233,1.16335641975,-0.001608693760104172,-0.17251522426609273,2.586502752461244E-4,-0.997352736797172,0.739621767094102,0.9353082676720366,0.0,-0.0011222300308754611,0.0,340467.123096,1.59915213085E-11,1156.04893391,-3.32211050324,7.81161837168,2.48418099101
1980.0,-4163109.96242,-4782175.46407,-2214541.35874,2753900.64927,-5710357.24295,-2216468.25599,3734.74147668,3951.48184584,-5499.63318403,-3.62612052921,7.51891101579,2.92702140125,6768217.00718,1.16773168884,-0.0016043034577461674,-0.17076553389828633,4.024767323766782E-4,-0.9484529480621173,0.7016982752110066,1.009379807887856,0.0,-0.0011222300308754611,0.0,340214.233416,1.59407811755E-11,1152.80539498,-3.62611659486,7.51891546257,2.92701488108
2040.0,-3868516.41338,-4866682.72124,-2538812.35957,2971283.5142,-5459926.50995,-2540918.12757,3508.48931049,4392.91566169,-5311.07549974,-3.91256732837,7.18958005447,3.35568844588,6767531.17684,1.17210695793,-0.0015893848051217654,-0.16900267353879095,5.501758629621649E-4,-0.9047641662884363,0.6612415958622121,1.0787032667264445,0.0,-0.0011222300308754611,0.0,340256.297199,1.57811609762E-11,1148.97185767,-3.91256367762,7.18958495615,3.35568221241
2100.0,-3556316.3146,-4930876.86581,-2851017.76842,3174586.84265,-5183623.77154,-2853292.42889,3265.61375355,4813.53266536,-5097.27774771,-4.17999999849,6.82531617498,3.76799987705,6766781.94252,1.17648222702,-0.0015635833088830685,-0.167231444891368,7.008038655522934E-4,-0.8659435687347867,0.6186005662547494,1.1436855158910602,0.0,-0.0011222300308754611,0.0,340584.158473,1.55184002861E-11,1144.57107774,-4.1799966658,6.82532146305,3.7679939945
2160.0,-3227805.66266,-4974604.84411,-3149674.6913,3362848.28046,-4882759.81131,-3152107.46639,3007.29656113,5211.29256727,-4859.2845274,-4.42707409656,6.42800647574,4.16186434754,6765984.01251,1.1808574961,-0.00152661523090594,-0.16545667523007418,8.533750172913848E-4,-0.8316283911054979,0.5740839904235816,1.20475775051178,0.0,-0.0011222300308754611,0.0,341186.457527,1.51608471822E-11,1139.62956723,-4.42707110751,6.42801207434,4.16185886945
2220.0,-2884358.068,-4997801.29738,-3433366.55753,3535178.72871,-4558764.32444,-3435945.92233,2734.79663373,5584.27371962,-4598.26265804,-4.65256378072,5.99971606303,4.53530129536,6765153.06937,1.18523276519,-0.0014782712420722153,-0.16368319113519772,0.0010068675930646484,-0.8014605219065922,0.5279630998718329,1.26235157666518,0.0,-0.0011222300308754611,0.0,342049.882586,1.47189921444E-11,1134.17806663,-4.65256115159,5.99972189206,4.53529626337
2280.0,-2527418.39291,-5000488.13415,-3700750.24248,3690766.75481,-4213178.48791,-3703463.98125,2449.44269383,5930.68333154,-4315.49417023,-4.85536849987,5.54267235971,4.88645275505,6764305.43629,1.18960803428,-0.0014184195312596064,-0.1619157926065351,0.0011602301981356495,-0.7751020651871899,0.48047523808126674,1.3168842134606455,0.0,-0.0011222300308754611,0.0,343159.443556,1.42049225272E-11,1128.2520511,-4.85536623776,5.54267833788,4.88644819831
2340.0,-2158496.02551,-4982773.66216,-3950562.74972,3828882.55277,-3847646.94689,-3953398.01552,2152.62560026,6248.86671326,-4012.36863139,-5.03451838517,5.05924847802,5.21359373995,6763457.73104,1.19398330337,-0.0013470083329257785,-0.16015922774197955,0.0013123884779319723,-0.7522443079923347,0.4318280279885307,1.368750387731326,0.0,-0.0011222300308754611,0.0,344498.761764,1.36317409756E-11,1121.89221567,-5.03451648854,5.0592545258,5.21358967515
2400.0,-1779157.8361,-4944851.29459,-4181627.41528,3948881.43359,-3463909.27661,-4184570.79263,1845.79037769,6537.3155016,-3690.37489243,-5.18917835435,4.55194593953,5.51514114678,6762626.51629,1.19835857246,-0.0012640678425356452,-0.1584181681615401,0.0014622521611591013,-0.7326121724849861,0.3822035682087175,1.4183188579438926,0.0,-0.0011222300308754611,0.0,346050.369514,1.30129887177E-11,1115.14486573,-5.1891768139,4.55195198171,5.51513757881
2460.0,-1391020.86318,-4886997.8492,-4392859.60191,4050206.83063,-3063790.98227,-4395897.17215,1530.42803772,6794.67483595,-3351.09234482,-5.31865096864,4.02337701284,5.78966117273,6761827.95471,1.20273384154,-0.0011697114958562952,-0.1566971853324735,0.0016087223848862055,-0.7159657603494773,0.33176240803320906,1.4659319787074752,0.0,-0.0011222300308754611,0.0,347796.013218,1.23621081689E-11,1108.06211378,-5.31864976845,4.02338298066,5.78965809574
2520.0,-995744.776612,-4809571.46112,-4583271.85664,4132392.80992,-2649194.10017,-4586389.26562,1208.06726426,7019.74946931,-2996.18177674,-5.42237810637,3.47624691837,6.0358752703,6761077.47725,1.20710911063,-0.0010641365952806106,-0.15500072794475603,0.001750699243407567,-0.7021001542341334,0.2806471857255818,1.5119071629564047,0.0,-0.0011222300308754611,0.0,349716.954061,1.16919702129E-11,1100.70175132,-5.42237722523,3.47625275107,6.03587266915
2580.0,-595024.164871,-4713009.13278,-4751978.51031,4195066.07924,-2222087.46425,-4755161.03796,880.266032104,7211.50881326,-2627.37591447,-5.49994153626,2.91333612171,6.25266469511,6760389.47213,1.21148437972,-9.476242735802707E-4,-0.15333310045365636,0.0018870894967283319,-0.6908442813412137,0.22898589780952944,1.5565394616323676,0.0,-0.0011222300308754611,0.0,351794.260435,1.10144816617E-11,1093.1266332,-5.49994094902,2.91334176759,6.25266254705
2640.0,-190580.692449,-4597823.94592,-4898199.70249,4237947.49383,-1784496.70164,-4901432.334,548.603221613,7369.09092801,-2246.46973119,-5.55106248677,2.33748290458,6.43907372573,6759777.00129,1.21585964881,-8.205387934545064E-4,-0.1516984429000644,0.00201681436933091,-0.6820593755684409,0.1768948151510148,1.6001047527360528,0.0,-0.0011222300308754611,0.0,354009.086742,1.03402795908E-11,1085.40339891,-5.55106216567,2.33748832145,6.43907200213
2700.0,215844.828014,-4464601.96188,-5021264.82029,4260853.06046,-1338494.01995,-5024532.31844,214.670286837,7491.80547891,-1855.31060004,-5.57560031539,1.75156636738,6.59431165202,6759251.55002,1.2202349179,-6.833261886987767E-4,-0.15010071209130393,0.002138817366853684,-0.6756373840652798,0.12448108742026098,1.6428632255401556,0.0,-0.0011222300308754611,0.0,356342.933709,9.67851314092E-12,1077.60039538,-5.57560023133,1.75157152253,6.59431032014
2760.0,622500.405935,-4313998.83712,-5120615.34392,4263694.44427,-886187.847419,-5123902.32219,-119.936972203,7579.13568919,-1455.78836221,-5.57355038434,1.15848998206,6.71775363906,6758822.81456,1.22461018698,-5.365122607744812E-4,-0.14854366421119558,0.0022520720350708845,-0.6714995346544718,0.07184508987560068,1.6850629784739284,0.0,-0.0011222300308754611,0.0,358777.885897,9.03671089946E-12,1069.7847981,-5.57355050799,1.15849485183,6.71775266367
2820.0,1027630.84432,-4146736.18121,-5195807.09571,4246478.98642,-429712.385209,-5199098.09184,-453.626488574,7630.73932459,-1049.8253741,-5.54504124631,0.561165780292,6.80894057852,6758498.5311,1.22898545607,-3.806999515264393E-4,-0.1470308389082392,0.0023555895864229123,-0.6695951950202569,0.019082571212952176,1.7269436371942117,0.0,-0.0011222300308754611,0.0,361296.822715,8.42073262643E-12,1062.01917142,-5.54504154897,0.561170349247,6.80893992334
2880.0,1429485.67368,-3963597.68464,-5246511.89316,4209309.24222,28782.8714134,-5249791.44268,-784.817820386,7646.44874967,-639.366590961,-5.49033123784,-0.0375007689261,6.86757803805,6758284.3484,1.23336072516,-2.1656612000656717E-4,-0.14556554489874188,0.0024484263186779556,-0.6699010994769019,-0.03371333770769191,1.7687399555819074,0.0,-0.0011222300308754611,0.0,363883.599931,7.83480540314E-12,1054.35801668,-5.49033169216,-0.0374965089696,6.86757766695
2940.0,1826327.01139,-3765425.04314,-5272518.60978,4152382.05239,487143.588429,-5275771.31932,-1111.94982282,7626.27009832,-226.369738087,-5.40980456854,-0.634625164485,6.89353441389,6758183.74545,1.23773599425,-4.485775757624794E-5,-0.14415084709902884,0.002529690754463088,-0.6724209836782684,-0.08645019492961135,1.8106853961086613,0.0,-0.0011222300308754611,0.0,366523.199356,7.28164239591E-12,1046.84508551,-5.40980514897,-0.634621215616,6.89353429182
3000.0,2216437.3117,-3553113.70502,-5273733.65035,4075987.16115,943220.973163,-5276944.27015,-1433.48807234,7570.38160163,187.204385781,-5.30396698307,-1.22735755523,6.88683838253,6758197.99401,1.24211126334,1.3361231887929964E-4,-0.14278955529598789,0.002598550433213059,-0.6771856436972087,-0.13903433958431627,1.8530157035520955,0.0,-0.0011222300308754611,0.0,369201.845066,6.76263458852E-12,1039.51220018,-5.3039676662,-1.22735391458,6.88683847622
3060.0,2598126.97355,-3327608.46698,-5250180.84959,3980505.39694,1394882.02986,-5253334.34509,-1747.93201945,7479.13111624,599.401433198,-5.17344106074,-1.81289570912,6.84767573594,6758326.16527,1.24648653242,3.179702508723214E-4,-0.14148421434460207,0.002654238293211045,-0.6842534168847179,-0.19136894674583227,1.8959724901412025,0.0,-0.0011222300308754611,0.0,371907.085244,6.27809361144E-12,1032.37993588,-5.17344182543,-1.81289236992,6.84767601434
3120.0,2969741.7751,-3089898.9432,-5202000.80584,3866406.4327,1840019.64405,-5205082.42784,-2053.82184988,7353.03289555,1008.28282622,-5.01896120489,-2.38849729079,6.77638567166,6758565.17892,1.25086180151,5.072863507959345E-4,-0.14023709587781022,0.0026960585874694185,-0.6937110622681143,-0.24335198611821643,1.939806842712085,0.0,-0.0011222300308754611,0.0,374627.839392,5.82751354566E-12,1025.45992488,-5.01896203224,-2.38849424334,6.77638610617
3180.0,3329670.10587,-2841014.93145,-5129449.66288,3734246.14353,2276562.45145,-5132445.01605,-2349.74503691,7192.7636442,1411.93483714,-4.84136836267,-2.95149147536,6.67345659601,6758909.89203,1.2552370706,7.005806911735056E-4,-0.1390501914958832,0.0027233922848081973,-0.7056749917324735,-0.2948740250430202,1.9847829409325761,0.0,-0.0011222300308754611,0.0,377354.411334,5.40981811295E-12,1018.7580497,-4.84136923599,-2.9514887078,6.67345716063
3240.0,3676349.96882,-2582021.69915,-5032897.35501,3584663.58099,2702484.44964,-5035792.46442,-2634.34256952,6999.15789499,1808.47740398,-4.64160450505,-3.4992899278,6.53952148577,6759353.22467,1.25961233969,8.968290170407296E-4,-0.13792520740250366,0.0027357019153951933,-0.7202927632859396,-0.34581581606156386,2.031181636030057,0.0,-0.0011222300308754611,0.0,380078.469059,5.02356848353E-12,1012.27765,-4.64160540979,-3.49928742676,6.53952215705
3300.0,4008275.72633,-2314015.21126,-4912825.33218,3418377.5837,3115814.313,-4915606.70751,-2906.31484271,6773.20274534,2196.07265531,-4.42070688795,-4.02939717579,6.37535284187,6759886.31871,1.26398760878,0.001094968926653232,-0.13686356044182113,0.0027325358283370954,-0.7377446853524102,-0.3960456111556838,2.0793038761048335,0.0,-0.0011222300308754611,0.0,382792.993059,4.66712113418E-12,1006.02207829,-4.42070781151,-4.0293949269,6.37535359886
3360.0,4324004.56531,-2038117.32114,-4769823.78317,3236183.04501,3514644.3734,-4772478.48038,-3164.4271973,6516.03198894,2572.93312063,-4.17980210783,-4.53942039915,6.18185725863,6760498.7258,1.26836287786,0.0012939062654496688,-0.13586637548482172,0.0027135318374628395,-0.7582452848779269,-0.44541615112807603,2.1294737648371034,0.0,-0.0011222300308754611,0.0,385492.195361,4.33873790265E-12,999.996308223,-4.17980303941,-4.5394183875,6.18185808278
3420.0,4622162.65818,-1755470.94445,-4604588.37639,3038946.8591,3897139.23167,-4607104.05657,-3407.51509701,6228.91967719,2937.32960384,-3.92009995997,-5.02707865232,5.96006962391,6761178.62024,1.27273814695,0.0014925216790631906,-0.13493448411160444,0.002678420239556389,-0.7820442474068974,-0.49376129409043906,2.1820408922694527,0.0,-0.0011222300308754611,0.0,388171.411981,4.0366576301E-12,994.207621203,-3.92010089044,-5.02707686275,5.96007049891
3480.0,4901450.99765,-1467235.23571,-4417916.53925,2827603.56761,4261543.96633,-4420281.52436,-3634.4889314,5913.27314397,3287.59869777,-3.64288710426,-5.49021152807,5.71114695929,6761913.0324,1.27711341604,0.0016896772725763349,-0.13406842452987436,0.0026270261973943888,-0.8094262268499344,-0.5408922778251732,2.2373813630152255,0.0,-0.0011222300308754611,0.0,390826.971947,3.7591405706E-12,988.665576888,-3.64288802598,-5.49020994548,5.71114787093
3540.0,5160650.88443,-1174580.78595,-4210703.29811,2603150.7296,4606191.90867,-4212906.62344,-3844.33843293,5570.62552745,3622.14991862,-3.34952054169,-5.92678726192,5.43636190565,6762688.09805,1.28148868513,0.0018842233256875398,-0.13326844266490062,0.0025592714871349076,-0.8407086294148695,-0.5865936672669928,2.295896650205524,0.0,-0.0011222300308754611,0.0,393456.046479,3.50449520591E-12,983.381520934,-3.34952144836,-5.92678587145,5.43636284164
3600.0,5398629.04842,-878684.859721,-3983936.70237,2366644.03842,4929511.95484,-3985968.16548,-4036.13669706,5202.62782254,3939.47243882,-3.04142090492,-6.3349102676,5.13709585756,6763489.31915,1.28586395422,0.0020750050158555586,-0.13253449435828238,0.002475175616078649,-0.8762360914513222,-0.6306191339198035,2.3580090159721405,0.0,-0.0011222300308754611,0.0,396056.482206,3.27109440134E-12,978.36785214,-3.04142179143,-6.33490905482,5.13709680737
3660.0,5614342.38518,-580726.688735,-3738692.85736,2119192.20944,5230035.38784,-3740543.06327,-4209.04379437,4811.04049876,4238.14139764,-2.72006556844,-6.71282808557,4.81483175009,6764301.83139,1.2902392233,0.002260869105313814,-0.1318662486100723,0.002374856322880315,-0.9163699115274581,-0.6726873660964797,2.4241517772227263,0.0,-0.0011222300308754611,0.0,398626.622584,3.05738530267E-12,973.637211065,-2.72006643072,-6.71282703662,4.81483270478
3720.0,5806842.29072,-281882.83887,-3476130.5919,1861951.66364,5506402.18452,-3477790.99439,-4362.30996403,4397.72471944,4516.82376862,-2.38698158629,-7.05893771882,4.47114650401,6765110.67401,1.29461449239,0.0024406705511192204,-0.13126309179636475,0.0022585294767558436,-0.961470237109205,-0.7124786350952624,2.4947522326729636,0.0,-0.0011222300308754611,0.0,401165.121852,2.8618954911E-12,969.201691995,-2.38698242118,-7.05893682049,4.47114745604
3780.0,5975278.57945,16677.3331362,-3197485.78782,1596121.0324,5757366.78462,-3198948.7267,-4495.27837864,3964.63319989,4774.28376377,-2.04373847043,-7.37179132368,4.10770313869,6765901.05761,1.29898976148,0.002613279001480593,-0.1307241328009129,0.002126508396507291,-1.0118685262962939,-0.749632852328906,2.570204785858193,0.0,-0.0011222300308754611,0.0,403670.755967,2.68323672322E-12,965.07213321,-2.04373927555,-7.37179056348,4.10770408181
3840.0,6118902.97143,313796.117769,-2904065.39979,1322935.50943,5981803.30154,-2905324.13391,-4607.3874715,3513.80074447,5009.38775485,-1.69194082717,-7.65010121883,3.72624256768,6766658.62536,1.30336503057,0.002777585145929688,-0.13024820899672113,0.001979202612787691,-1.0678280504331095,-0.7837503289757446,2.650832041639663,0.0,-0.0011222300308754611,0.0,406142.234993,2.52010691424E-12,961.257508207,-1.69194160082,-7.65010058503,3.72624349673
3900.0,6237072.13685,608331.770572,-2597241.19484,1043661.07649,6178710.15667,-2598289.93086,-4698.17281836,3047.3345045,5221.10869347,-1.3332208755,-7.89274417248,3.32857509797,6767369.70388,1.30774029966,0.0029325068905055388,-0.12983389301722426,0.0018171160996985458,-1.1294915110967922,-0.8143968197560832,2.7368329602217183,0.0,-0.0011222300308754611,0.0,408578.02133,2.37129069486E-12,957.764420804,-1.33322161652,-7.89274365416,3.32857600877
3960.0,6329250.28759,899162.695366,-2278443.24237,759588.629589,6347214.12201,-2279277.15902,-4767.26856734,2567.40400162,5408.53001284,-0.969230876813,-8.09876492713,2.9165716617,6768021.53945,1.31211556874,0.003076995333447654,-0.1294795002655668,0.0016408450023955765,-1.1968178447584055,-0.8411146295530593,2.828220151590752,0.0,-0.0011222300308754611,0.0,410976.15804,2.23565873579E-12,954.596696256,-0.969231584533,-8.09876451414,2.9165725509
4020.0,6395011.30758,1185191.4792,-1949153.18594,472028.033217,6486573.75822,-1949768.45386,-4814.40841306,2076.23096355,5570.84899639,-0.601635512092,-8.2673789226,2.49215481651,6768602.51622,1.31649083783,0.0032100405207508382,-0.1291830971080511,0.0014510748887292223,-1.2695153353990374,-0.8634413095785558,2.9247534383878553,0.0,-0.0011222300308754611,0.0,413334.111262,2.11216599113E-12,951.75505536,-0.601636186218,-8.26737860557,2.49215568149
4080.0,6434040.41581,1465348.76611,-1610897.32942,182302.129728,6596182.23854,-1611291.12638,-4839.42611268,1576.07902143,5707.37960049,-0.232104248197,-8.39797418193,2.05728955932,6769102.35285,1.32086610692,0.0033306769644250497,-0.12894250970759777,0.0012485775524768922,-1.3469846107858312,-0.8809364400317705,3.0258832704844236,0.0,-0.0011222300308754611,0.0,415648.630423,1.99984900551E-12,949.236856672,-0.232104888749,-8.39797395227,2.05729039807
4140.0,6446135.35816,1738596.95772,-1265239.57036,-108259.268436,6675569.55155,-1265410.09193,-4842.25554486,1069.24331982,5817.55472176,0.13769625944,-8.49011233105,1.61397400584,6769512.27459,1.32524137601,0.003437988909584921,-0.12875533346004273,0.0010342073953365125,-1.428290536351192,-0.8932150022239363,3.130723011666904,0.0,-0.0011222300308754611,0.0,417915.629514,1.89782243005E-12,947.035891591,0.137695652194,-8.49011218089,1.61397481688
4200.0,6431207.12627,2003933.72948,-913774.214236,-398325.37646,6724404.07928,-913720.679817,-4822.93031518,558.040092065,5900.92790252,0.506109676105,-8.54352873146,1.16422999581,6769825.15809,1.3296166451,0.0035311153395828185,-0.12861894299819002,8.088974141039087E-4,-1.5121822731221788,-0.8999831605437207,-3.0451159362124183,0.0,-0.0011222300308754611,0.0,420130.092267,1.80527488509E-12,945.142217157,0.506109101706,-8.54352865363,1.16423077808
4260.0,6389280.20427,2260395.35254,-558118.703216,-686570.397744,6742493.55018,-557841.357478,-4781.58291509,44.7962546377,5957.17447203,0.871497354077,-8.55813171601,0.710093690106,6770035.64679,1.33399191418,0.003609254710895111,-0.12853050273848743,5.736548181702503E-4,-1.5971719738118804,-0.9010698719721913,-2.936703848851224,0.0,-0.0011222300308754611,0.0,422286.003535,1.72146428904E-12,943.542011115,0.871496811922,-8.55813170403,0.710094442919
4320.0,6320492.34651,2507059.81231,-199906.293401,-971679.42089,6729785.36956,-199406.403137,-4718.44344455,-468.160925868,5986.09212509,1.23224549907,-8.53400093036,0.253606230821,6770140.23507,1.33836718327,0.003671669411443578,-0.1284869779509517,3.2955630130642756E-4,-1.6816650560937023,-0.8964470430177564,-2.8287738983460913,0.0,-0.0011222300308754611,0.0,424376.308606,1.64571309896E-12,942.217476625,1.23224498845,-8.53400097835,0.253606953761
4380.0,6225093.89168,2743049.71605,159221.286009,-1252354.22729,6686366.33368,159941.439564,-4633.83791209,-978.514039712,5987.6009439,1.58677207983,-8.4713847963,-0.203195461369,6770137.31986,1.34274245236,0.0037176899382853137,-0.12848514633611216,7.774299038523319E-5,-1.7641156712061359,-0.8862329656690683,-2.722825108390036,0.0,-0.0011222300308754611,0.0,426392.901594,1.57746133826E-12,941.154145622,1.58677159997,-8.47138489897,-0.203194768459
4440.0,6103446.62131,2967534.98293,517621.158459,-1527318.98443,6612461.73642,518558.291776,-4528.18612943,-1483.96556321,5961.74287389,1.93353342558,-8.3706971284,-0.658287677192,6770027.21913,1.34711772145,0.003746718790988509,-0.12852161010216534,-1.8058490763246408E-4,-1.8431705215545071,-0.8706780890887347,-2.620163494742613,0.0,-0.0011222300308754611,0.0,428326.643422,1.51631506104E-12,940.349051724,1.93353297562,-8.37069728104,-0.658287014222
4500.0,5956022.17257,3179735.31172,873656.578399,-1795325.8013,6508433.88079,874806.422186,-4401.9992209,-1982.24766067,5908.68066827,2.27103045946,-8.23251295038,-1.10966862199,6769812.15698,1.35149299054,0.0037582340789662095,-0.1285928085367563,-4.4417374013018134E-4,-1.9177690958356035,-0.8501369484584502,-2.5218014744176567,0.0,-0.0011222300308754611,0.0,430167.409316,1.46192331595E-12,939.796866507,2.27103003848,-8.23251314882,-1.10966798868
4560.0,5783400.01759,3378922.42245,1225704.13096,-2055160.12324,6374780.01036,1227061.45097,-4255.87677096,-2471.13171275,5828.69632084,2.59781452193,-8.05756357237,-1.55536676198,6769496.21585,1.35586825962,0.0037517928406736803,-0.128695031073735,-7.117223053347063E-4,-1.987185566277233,-0.8250331024592595,-2.4284156009646516,0.0,-0.0011222300308754611,0.0,431904.1651,1.41396359263E-12,939.488099958,2.59781412901,-8.05756381295,-1.55536615791
4620.0,5586265.0234,3564422.06979,1572160.82291,-2305645.94557,6212129.6782,1573719.44495,-4090.50363555,-2948.43752916,5722.18901035,2.9124927453,-7.84673100426,-1.99344874947,6769085.25684,1.36024352871,0.0037270340729414755,-0.12882443085663361,-9.818879921505322E-4,-2.05101696052792,-0.7958242030512696,-2.340358007859596,0.0,-0.0011222300308754611,0.0,433525.071048,1.37214230694E-12,939.409141646,2.91249237954,-7.84673128382,-1.99344817414
4680.0,5365404.60808,3735615.82761,1911451.03652,-2545650.82639,6021241.57348,1913203.87537,-3906.64644533,-3412.04220843,5589.6725833,3.21373294967,-7.60104179243,-2.42202687179,6768586.80966,1.3646187978,0.0036836814685243767,-0.12897703880008615,-0.0012532931449759576,-2.109134718158562,-0.7629723965744901,-2.2577044440675422,0.0,-0.0011222300308754611,0.0,435017.611479,1.33619081414E-12,939.541707156,3.21373261022,-7.60104210826,-2.42202632463
4740.0,5121705.51041,3891942.64533,2242033.31926,-2774090.68117,5802999.82793,2243972.41165,-3705.14982988,-3859.88861291,5431.77260537,3.500268041,-7.32166037703,-2.83926597945,6768009.93434,1.36899406689,0.0036215458592481794,-0.12914877815652082,-0.0015245316350457467,-2.161619603896322,-0.7269225276861826,-2.180318923499005,0.0,-0.0011222300308754611,0.0,436368.747829,1.30584479032E-12,939.859792052,3.50026772709,-7.32166072685,-2.83926545994
4800.0,4856150.1913,4032900.17825,2562406.98483,-2989934.34305,5558409.82595,2564523.52594,-3486.93239327,-4289.99343351,5249.22301348,3.77089990364,-7.00988207382,-3.24338986219,6767365.05724,1.37336933598,0.0035405273610018984,-0.12933547958446032,-0.001794175619558994,-2.208695936689457,-0.6880882942992024,-2.1079190221406012,0.0,-0.0011222300308754611,0.0,437565.092517,1.28086853815E-12,940.333188285,3.77089961459,-7.00988245575,-3.24338936985
4860.0,4569812.88598,4158045.89507,2871118.50214,-3192207.87511,5288593.54364,2873402.88578,-3252.98247116,-4700.45482469,5042.86240239,4.02450279159,-6.66712578827,-3.63268705571,6766663.78441,1.37774460506,0.0034406172162818505,-0.12953289672314183,-0.00206078246911782,-2.2506746269078324,-0.646845110070241,-2.0401323228233648,0.0,-0.0011222300308754611,0.0,438593.100549,1.26162332387E-12,941.014965934,4.02450252672,-6.66712620095,-3.63268658991
4920.0,4263855.3267,4266997.96727,3166767.65174,-3379998.62211,4994784.443,3169209.5138,-3004.35369903,-5089.45959703,4813.62998007,4.26002623477,-6.29492656978,-4.00551607651,6765918.69565,1.38211987415,0.003321899327952102,-0.12973672226263613,-0.0023229018428418628,-2.2879087744686117,-0.6035279206508474,-1.9765402458158763,0.0,-0.0011222300308754611,0.0,439439.275558,1.24855434702E-12,941.966938379,4.26002599346,-6.29492701242,-4.00551563657
4980.0,3939522.15571,4359435.94572,3448013.43055,-3552458.99152,4678321.948,3450601.69562,-2742.16041996,-5455.28996077,4562.56122574,4.4764974901,-5.89492810699,-4.36031010112,6765143.12293,1.38649514324,0.003184551476768697,-0.12994260450492776,-0.0025790828893297382,-2.3207618103814966,-0.5584322841649166,-1.9167092731311035,0.0,-0.0011222300308754611,0.0,440090.386736,1.24837063294E-12,943.238958845,4.4764972707,-5.89492858179,-4.36030968423
5040.0,3598136.04826,4435101.2309,3713579.68825,-3708809.95475,4340645.52953,3716302.61923,-2467.57295808,-5796.32982,4290.78328342,4.67302356981,-5.46887527391,-4.6955811057,6764350.91701,1.39087041233,0.0030288462137316,-0.13014616439396526,-0.002827881549722257,-2.3495862844882307,-0.5118173564285697,-1.8602114518515993,0.0,-0.0011222300308754611,0.0,440533.693008,1.24957116529E-12,944.876403324,4.67302337308,-5.46887577927,-4.6955807133
5100.0,3241092.565,4493797.34371,3962260.48031,-3848344.26138,3983288.42607,3965105.73071,-2181.81278154,-6111.0706226,3999.51012163,4.84879291245,-5.01860677707,-5.00992354033,6763556.20738,1.39524568142,0.0028551514166178325,-0.1303430129912939,-0.0030678679346855756,-2.374710826509189,-0.46390980836260337,-1.8066366366717288,0.0,-0.0011222300308754611,0.0,440757.17068,1.25831889171E-12,946.92292235,4.84879273827,-5.01860731398,-5.00992317203
5160.0,2869854.75258,4535390.00412,4192925.1245,-3970429.36045,3607871.02649,4195879.79331,-1886.14757501,-6398.11677482,3690.03748611,5.00307673068,-4.54604801669,-5.30201755225,6762773.15698,1.3996209505,0.0026639304983039737,-0.13052876936760027,-0.0032976337548363275,-2.396432938269896,-0.4149080425561194,-1.7555987983553427,0.0,-0.0011222300308754611,0.0,440749.740835,1.27523292609E-12,949.422126437,5.0030765792,-4.54604858677,-5.30201720788
5220.0,2485947.51051,4559807.02531,4404522.94915,-4074510.02369,3216093.94067,4407573.63799,-1581.88623909,-6656.19063438,3363.73767033,5.13523011427,-4.05320418148,-5.57063185495,6762015.71875,1.40399621959,0.002455742253177185,-0.130699078864267,-0.0035157997665081968,-2.4150156964773637,-0.3649863337145999,-1.706738301739518,0.0,-0.0011222300308754611,0.0,440501.492734,1.30106793245E-12,952.418733918,5.13522998597,-4.05320478697,-5.57063153467
5280.0,2090951.74143,4567038.0309,4596087.72299,-4160110.66697,2809730.78281,4599220.59536,-1270.3738294,-6884.13709758,3022.05412294,5.24469294631,-3.5421536205,-5.81462630477,6761297.39629,1.40837148868,0.0022312403267820136,-0.13084963168025635,-0.0037210232049695795,-2.4306869171786194,-0.3142986960843816,-1.6597215817962119,0.0,-0.0011222300308754611,0.0,440003.899601,1.3367459128E-12,955.9591607,5.24469284206,-3.54215426433,-5.81462600912
5340.0,1686498.30093,4557134.00249,4766741.75703,-4226837.36646,2390620.69129,4769942.59942,-952.986444724,-7080.92779749,2666.49590751,5.33099069797,-3.01504150514,-6.0329542637,6760631.01361,1.41274675777,0.001991172292680839,-0.13097618171520864,-0.003912005168737112,-2.4436397514241253,-0.26298239579687677,-1.614239225754525,0.0,-0.0011222300308754611,0.0,439250.023283,1.3733497155E-12,960.091268674,5.3309906197,-3.01504218596,-6.03295399566
5400.0,1274261.76236,4530206.66443,4915699.67022,-4274379.56673,1960660.60787,4918953.95481,-631.126069339,-7245.66492872,2298.63202428,5.39373516749,-2.47407373925,-6.22466484,6760028.49469,1.41712202686,0.001736378319256205,-0.13107456560958805,-0.004087497923865859,-2.454034008768404,-0.21116109555569482,-1.5700031384067425,0.0,-0.0011222300308754611,0.0,438234.704437,1.43174657553E-12,964.862805538,5.39373511632,-2.47407446603,-6.22466459907
5460.0,855954.010918,4486427.71229,5042271.81059,-4302511.47804,1521797.33817,5045564.75939,-306.215371712,-7377.58471706,1920.0856007,5.43262521051,-1.92151115625,-6.38890505409,6759500.66158,1.42149729594,0.0014677894096841442,-0.13114072189757667,-0.004246312078875694,-2.461997745449843,-0.1589476583202886,-1.5267432242007744,0.0,-0.0011222300308754611,0.0,436954.73509,1.50407614959E-12,970.317989422,5.432625189,-1.9215119342,-6.38890484264
5520.0,433317.680649,4426027.89046,5145867.32416,-4311093.16024,1076019.41438,5149183.97428,20.3075421968,-7476.06054396,1532.52795057,5.44744752375,-1.35966385276,-6.52492204238,6759057.04893,1.42587256503,0.0011864251973389907,-0.13117071018335622,-0.004387323601341414,-2.4676288220446962,-0.10644665693635304,-1.4842038488242082,0.0,-0.0011222300308754611,0.0,435409.010602,1.59217750432E-12,976.491839173,5.44744753527,-1.35966468788,-6.52492186367
5580.0,8119.44771542,4349295.92361,5225996.86368,-4300071.2904,625348.780552,5229322.1335,346.994424819,-7540.60573611,1137.67249948,5.43807750986,-0.790885656136,-6.63206533067,6758705.74004,1.43024783412,8.933912800961607E-4,-0.13116073024879804,-0.004509480629284492,-2.4709962473182445,-0.053756645966859355,-1.4421402272541461,0.0,-0.0011222300308754611,0.0,433598.658349,1.69810901484E-12,983.402382045,5.4380775587,-0.790886555201,-6.63206518914
5640.0,-417856.807348,4256577.30601,5282274.9289,-4269479.61106,171832.320509,5285593.68495,672.392238023,-7570.87602398,737.268570029,5.40448025344,-0.217568608684,-6.70978924056,6758453.22645,1.43462310321,5.898760772542252E-4,-0.13110714099046009,-0.004611810036560664,-2.4721411995216616,-9.722550902807883E-4,-1.4003148094438722,0.0,-0.0011222300308754611,0.0,431527.140626,1.82409454202E-12,991.04183848,5.404480345,-0.217569579111,-6.709789142
5700.0,-842816.955349,4148272.95131,5314421.82986,-4219439.0556,-282466.751868,5317718.95409,995.048566367,-7566.67166752,333.095017785,5.3467116196,0.357862628521,-6.7576554622,6758304.29297,1.4389983723,2.771471947837671E-4,-0.13100647907453863,-0.004693423709814422,-2.4710776627739666,0.05181383619228279,-1.3584936871751216,0.0,-0.0011222300308754611,0.0,429200.329603,1.97244513888E-12,999.369031607,5.34671176051,0.357861578863,-6.75765541403
5760.0,-1264963.67885,4024837.70487,5322265.26377,-4150157.54676,-735477.619663,5325525.72103,1313.5170999,-7527.93924085,-73.0462926375,5.26491947175,0.932956562652,-6.77533581245,6758261.92973,1.44337364138,-4.345271367538576E-5,-0.13085547719685192,-0.004753524494676135,-2.467792647619281,0.10450898345458026,-1.316443018012834,0.0,-0.0011222300308754611,0.0,426626.552419,2.14547236359E-12,1008.30592547,5.26491967,0.932955425745,-6.77533582394
5820.0,-1682503.62322,3886778.71947,5305741.49567,-4061929.46395,-1185130.68648,5308950.40108,1626.36319318,-7454.77306127,-479.337182586,5.15934499004,1.50524096151,-6.76261517863,6758327.27258,1.44774891047,-3.705105998453666E-4,-0.13065108182864987,-0.0047914117703436974,-2.462245986125175,0.15701866331840078,-1.2739254496177,0.0,-0.0011222300308754611,0.0,423816.604841,2.34541693817E-12,1017.74057276,5.15934525506,1.50523972957,-6.76261526111
5880.0,-2093654.6231,3734653.6947,5264896.13226,-3955134.77454,-1629366.47453,5268038.81825,1932.16950561,-7347.41624062,-883.950036147,5.03032405595,2.0722293656,-6.71939462842,6758499.57268,1.45212417956,-7.025481947079372E-4,-0.1303904703246805,-0.004806486611847561,-2.4543697103185607,0.20924450198574565,-1.2306965274082642,0.0,-0.0011222300308754611,0.0,420783.73224,2.57441306395E-12,1027.53666953,5.03032439866,2.07222803154,-6.71939479546
5940.0,-2496652.9877,3569068.97937,5199884.47765,-3830237.82434,-2066144.57377,5202946.56043,2229.54172558,-7206.26133057,-1285.05486757,4.8782886538,2.63142812939,-6.64569464693,6758776.1959,1.45649944865,-0.0010380277060672537,-0.13007106727273635,-0.0047982565025968035,-2.4440670442929555,0.2610821872644989,-1.1865010808427487,0.0,-0.0011222300308754611,0.0,417543.577028,2.83449282829E-12,1037.5473124,4.87828908661,2.63142668728,-6.64569491445
6000.0,-2889760.82633,3390677.5359,5110971.45952,-3687785.78197,-2493452.61671,5113938.90464,2517.11437776,-7031.85052708,-1680.82658531,4.70376822553,3.18034409181,-6.54165844193,6759152.65225,1.46087471774,-0.0013753580386354131,-0.12969055995290796,-0.004766339560868444,-2.4312110705849475,0.3124192043780961,-1.1410696104705609,0.0,-0.0011222300308754611,0.0,414114.092099,3.127614909E-12,1047.62899976,4.7037687623,3.18034253737,-6.54165882825
6060.0,-3271273.39363,3200176.76533,4998531.11369,-3528406.73256,-2909315.25133,5001390.30049,2793.55670829,-6824.87539347,-2069.45245453,4.50739090242,3.71649296237,-6.4075552398,6759622.65524,1.46524998683,-0.0017129015304973947,-0.12924691278664163,-0.004710468247968878,-2.415643177738733,0.3631323361129834,-1.0941147447812702,0.0,-0.0011222300308754611,0.0,410515.420253,3.45568921332E-12,1057.6523171,4.5073915584,3.71649129351,-6.40755576564
6120.0,-3639526.43114,2998306.19131,4863045.61543,-3352807.41611,-3311803.0817,4865783.40003,3057.57863807,-6586.17605716,-2449.13975476,4.28988452676,4.23740849171,-6.24378347726,6760178.21096,1.46962525591,-0.0020489811947875594,-0.12873838064696896,-0.0046304925285888185,-2.3971714688450905,0.4130848708847026,-1.0453279103677204,0.0,-0.0011222300308754611,0.0,406769.740078,3.82057021466E-12,1067.50760854,4.28988531841,4.23740670901,-6.24378416572
6180.0,-3992903.47968,2785845.00173,4705103.8458,-3161770.60712,-3699041.54355,4707707.62246,3307.93676868,-6316.73983139,-2818.12362321,4.05207736746,4.74065247381,-6.05087377887,6760809.73606,1.474000525,-0.002381888449581864,-0.12816352090791125,-0.004526382457468519,-2.3755694212332346,0.46212347125243924,-0.9943764729859594,0.0,-0.0011222300308754611,0.0,402901.07927,4.22400291714E-12,1077.10596038,4.05207831234,4.74065058109,-6.05087465525
6240.00000001,-4329843.13378,2563609.44683,4525399.4827,-2956152.13264,-4069219.67852,4527857.24308,3543.44041954,-6017.69921115,-3174.67506723,3.79489842765,5.22382560283,-5.82949159701,6761506.20371,1.47837579409,-0.002709891313173395,-0.12752120411210613,-0.00439823017101043,-2.3505752533875377,0.5100746752040791,-0.9409017756637871,0.0,-0.0011222300308754611,0.0,398935.096918,4.66751839268E-12,1086.37701633,3.79489954412,5.22382360768,-5.82949268864
6300.00000001,-4648846.20659,2332450.09347,4324728.60677,-2736877.52799,-4420598.76813,4327028.99704,3762.95766855,-5690.32919221,-3517.1091218,3.51937723857,5.68457918002,-5.58043938135,6762255.31618,1.48275106318,-0.0030312430359961205,-0.12681062314286207,-0.0042462512662812995,-2.3218926916532174,0.5567410408949324,-0.8845187404619992,0.0,-0.0011222300308754611,0.0,394898.836851,5.15228491364E-12,1095.2653392,3.51937854547,5.68457709448,-5.58044071721
6360.00000001,-4948482.7709,2093248.93588,4103986.81473,-2504938.33067,-4751520.78537,4106119.19003,3965.42136241,-5336.04386293,-3843.79311951,3.22664303375,6.12062763707,-5.30465813777,6763043.70249,1.48712633227,-0.0033441911335415236,-0.12603130078649538,-0.004070785554051929,-2.289194154031049,0.6018970136347614,-0.8248180281727289,0.0,-0.0011222300308754611,0.0,390820.454754,5.67892483538E-12,1103.7266165,3.2266445499,6.12062547815,-5.30465974802
6420.00000001,-5227399.03908,1846916.3646,3864165.83433,-2261388.01554,-5060416.61876,3866120.3104,4149.83505615,-4956.3922217,-4153.15503225,2.91792319967,6.5297618108,-5.00322823351,6763857.13878,1.49150160135,-0.0036469867789701493,-0.12518309558302307,-0.0038722971772003094,-2.252127782667429,0.6452847067916787,-0.7613721674969005,0.0,-0.0011222300308754611,0.0,386728.922321,6.24730848658E-12,1111.72443084,2.91792494335,6.52975960111,-5.00323014877
6480.00000001,-5484324.04182,1594387.9965,3606349.63822,-2007337.57702,-5345814.02114,3608117.13992,4315.27883548,-4553.05317777,-4443.69183495,2.59454090559,6.90986287266,-4.67736930612,6764680.78907,1.49587687044,-0.003937894507212057,-0.12426620586904326,-0.0036513740893992295,-2.210330228757665,0.6866099639663257,-0.6937475399130256,0.0,-0.0011222300308754611,0.0,382653.71234,6.85633666974E-12,1119.2278504,2.59454289378,6.90986064084,-4.67737155664
6540.00000001,-5718076.06377,1336621.37056,3331710.05698,-1743950.76661,-5606345.23312,3333282.36334,4460.91497021,-4127.82969978,-4713.97783358,2.25791182388,7.25891678391,-4.32843913877,6765499.46329,1.50025213953,-0.004215202176433524,-0.12328117192396686,-0.0034087268933553107,-2.1634475191789138,0.7255393244978586,-0.6215245344985492,0.0,-0.0011222300308754611,0.0,378624.469107,7.5037242765E-12,1126.20981269,2.25791407148,7.25891456495,-4.32844175332
6600.00000001,-5927568.7917,1074592.51571,3041501.8955,-1472438.99773,-5840754.22918,3042871.68113,4585.9933415,-3682.64208507,-4962.6728914,1.90953986561,7.57502911621,-3.95793137376,6766297.88894,1.50462740862,-0.004477231126883043,-0.12222887614681918,-0.0031451870414269103,-2.1111664825570795,0.7616988511070907,-0.544328337263985,0.0,-0.0011222300308754611,0.0,374670.669145,8.18579924706E-12,1132.64614568,1.90954238448,7.57502695154,-3.95793437839
6660.00000001,-6111817.12973,809292.399181,2737057.56087,-1194055.9333,-6047903.53308,2738218.43338,4689.85658231,-3219.52033362,-5188.53048029,1.55101187196,7.85644004725,-3.56747195066,6767060.99248,1.50900267771,-0.00472234647159693,-0.12111054119746449,-0.0028617044047295355,-2.0532586723973028,0.7946761650237044,-0.4618722808292997,0.0,-0.0011222300308754611,0.0,370821.277561,8.89733322508E-12,1138.51503568,1.55101466994,7.85643798454,-3.56747536723
6720.00000001,-6269942.63509,541723.265777,2419781.2147,-910091.774959,-6226780.54877,2420727.74794,4771.94486692,-2740.59562225,-5390.40547767,1.18399122209,8.10153931373,-3.15881417406,6767774.18555,1.51337794679,-0.004948967447999481,-0.11992772605792135,-0.002559344219926667,-1.9896369042150988,0.8240273690371872,-0.37401386181170687,0.0,-0.0011222300308754611,0.0,367104.405792,9.63142200695E-12,1143.79676052,1.183994302,8.10153740632,-3.15881801876
6780.00000001,-6401178.52786,272894.880737,2091142.46755,-621867.277198,-6376503.35292,2091870.23038,4831.80028396,-2248.09088895,-5567.26162452,0.810210340756,8.30888088072,-2.73383234012,6768423.65103,1.51775321588,-0.00515557775578484,-0.1186823199802589,-0.0022392834256614825,-1.9204208305059611,0.849290618026923,-0.2808198404670666,0.0,-0.0011222300308754611,0.0,363546.976676,1.0379434319E-11,1148.4735268,0.810213699431,8.3088791866,-2.73383662183
6840.00000001,-6504874.22853,3820.69092503,1752669.63853,-330727.513179,-6496325.89639,1753175.21894,4869.07072697,-1744.31055203,-5718.17855665,0.431462114755,8.47719706751,-2.29451387901,6768996.62318,1.52212848497,-0.0053407358018426245,-0.11737653430728595,-0.0019028064023652363,-1.846002298404021,0.8700076132783615,-0.18263115978046443,0.0,-0.0011222300308754611,0.0,360174.402901,1.11310444469E-11,1152.52922085,0.431465742163,8.47719564795,-2.29451859782
6900.00000001,-6580499.37881,-264486.078674,1405942.60815,-38035.4232406,-6585642.5639,1406223.63257,4883.51323817,-1231.62940479,-5842.35831961,0.0495902550005,8.60541185834,-1.84295000313,6769481.65592,1.52650375406,-0.0055030847705284614,-0.11601289217929711,-0.0015513001316267174,-1.7670947509821782,0.8857529413263726,-0.0801119379063854,0.0,-0.0011222300308754611,0.0,357010.28484,1.18743715033E-11,1155.94928937,0.0495941336148,8.60541077597,-1.84295514903
6960.00000001,-6627647.3031,-531016.374184,1052585.29824,254834.819266,-6643992.044,1052640.44576,4874.99674387,-712.480742875,-5939.13127824,-0.333521329442,8.69265312107,-1.38132488656,6769868.87284,1.53087902315,-0.005641362435363984,-0.11459421614939092,-0.0011862487924783553,-1.6847467526951019,0.8961688839083868,0.02573739177391408,0.0,-0.0011222300308754611,0.0,354076.133563,1.25962616649E-11,1158.72150052,-0.333517225019,8.6926524377,-1.38133043834
7020.00000001,-6646037.87133,-794769.286986,694257.817781,546504.586597,-6671060.46551,694086.829282,4843.50412491,-189.343798174,-6007.96133442,-0.71596004936,8.73826346093,-0.911903439304,6770150.19266,1.53525429223,-0.005754410627151323,-0.1131236137668758,-8.092278133839407E-4,-1.6003022577459534,0.9010005952779264,0.13362018048767338,0.0,-0.0011222300308754611,0.0,351391.124454,1.32826902619E-11,1160.83658265,-0.715955752401,8.73826323493,-0.911909364044
7080.00000001,-6635519.7278,-1054756.03032,332648.318521,835597.67825,-6666683.76133,332252.000473,4789.13357249,335.269431018,-6048.45037153,-1.09579692019,8.74180944903,-0.437017779516,6770319.52377,1.53962956132,-0.005841184273138018,-0.11160446120346358,-4.2189739981599516E-4,-1.51530238754979,0.9001245624998307,0.24204214250254724,0.0,-0.0011222300308754611,0.0,348971.886316,1.39192649513E-11,1162.28852587,-1.09579247143,8.74180973268,-0.437024032469
7140.00000001,-6596071.85534,-1310003.89462,-30535.3908766,1120747.26143,-6630849.22663,-31155.1679116,4712.09918754,858.827848792,-6060.34185173,-1.47109946112,8.70308898811,0.0409474545989,6770372.92203,1.54400483041,-0.005900759923351847,-0.11004038502435272,-2.599555835539191E-5,-1.4313427302856523,0.8935634373664488,0.3494544048436992,0.0,-0.0011222300308754611,0.0,346832.330173,1.44918088075E-11,1163.07467785,-1.47109490792,8.70308982487,0.0409409294132
7200.00000001,-6527804.44982,-1559560.15676,-393574.419441,1400602.824,-6563696.24475,-394414.727723,4612.73079207,1378.79531124,-6043.52350147,-1.83994503204,8.62213660996,0.519570774387,6770308.70622,1.5483800995,-0.005932343681516561,-0.1084352422321336,3.7666936065460606E-4,-1.3499176292320088,0.8814832650486611,0.45440956642810426,0.0,-0.0011222300308754611,0.0,344983.521142,1.49869893532E-11,1163.19569811,-1.83994042711,8.622138032,0.51956404299
7260.00000001,-6430959.08619,-1802495.91816,-754747.500925,1673837.09186,-6465516.16198,-755804.367833,4491.47293209,1892.64492765,-5998.02903259,-2.20043441249,8.4992265402,0.996410280298,6770127.52686,1.55275536859,-0.005935278461956395,-0.10679309873309076,7.842265788397293E-4,-1.2722884101621394,0.8641738706425068,0.5556938214381083,0.0,-0.0011222300308754611,0.0,343433.595819,1.53929508253E-11,1162.6554309,-2.20042981224,8.4992285663,0.996403416935
7320.00000001,-6305908.16391,-2037909.84612,-1112339.77419,1939152.8621,-6336751.30018,-1113608.19988,4348.8830637,2397.87347556,-5924.03885991,-2.55070541318,8.33487341487,1.46902063246,6769832.38463,1.55713063767,-0.005909050497667038,-0.10511820639868961,0.0011947512393608306,-1.1994025350018849,0.8420175459081493,0.6524081647875125,0.0,-0.0011222300308754611,0.0,342187.726599,1.56999022717E-11,1161.46075272,-2.55070087579,8.33487604896,1.46901371725
7380.00000001,-6153153.62698,-2264931.79357,-1464651.57597,2195289.70283,-6177993.10452,-1466125.55632,4185.62892694,2892.01578673,-5821.87979102,-2.88894630384,8.12983058851,1.93497029336,6769428.59631,1.56150590676,-0.005853295030106454,-0.10341497891371024,0.0016062731642229636,-1.1318714846211748,0.8154532930515758,0.7439908821253904,0.0,-0.0011222300308754611,0.0,341248.133267,1.59006145695E-11,1159.62144453,-2.88894188713,8.12983381887,1.93496340953
7440.00000001,-5973324.96096,-2482726.27313,-1810007.18404,2441030.47151,-5989979.43269,-1811679.73877,4002.48512481,3372.65895918,-5692.02368016,-3.21340884192,7.8850860322,2.39185877223,6768923.70745,1.56588117585,-0.00576780111783877,-0.10168796662011875,0.002016785991149937,-1.069997409458439,0.7849432725168023,0.8301912912073944,0.0,-0.0011222300308754611,0.0,340614.141147,1.59907854877E-11,1157.15013097,-3.21340460126,7.88508983146,2.39185200315
7500.00000001,-5767176.47681,-2690495.76236,-2146763.44884,2675207.60488,-5773591.00012,-2148626.6547,3800.32893788,3837.45625205,-5535.08505418,-3.52242069518,7.60185588012,2.83733359886,6768327.3524,1.57025644494,-0.005652515508355234,-0.09994183057955477,0.002424256659555266,-1.0138294291804992,0.7509457360009542,0.9110138594812524,0.0,-0.0011222300308754611,0.0,340282.28399,1.59692429542E-11,1154.06231729,-3.52241668142,7.60186020619,2.837327025
7560.00000001,-5535583.8987,-2887483.81947,-2473318.25261,2896709.13586,-5529847.00453,-2475363.28137,3580.1354164,4284.14052559,-5351.81773478,-3.81439706716,7.28157574203,3.26910676243,6767651.06424,1.57463171403,-0.00550754552559929,-0.09818131608586561,0.0028266352120058166,-0.9632304375246121,0.71389603199762,0.9866518482533656,0.0,-0.0011222300308754611,0.0,340246.448819,1.58379713886E-11,1150.3765414,-3.81439332486,7.28158053964,3.26910045851
7620.00000001,-5279540.27982,-3072977.99012,-2788118.73688,3104484.39563,-5259899.9609,-2790335.89797,3342.97180321,4710.53709698,-5143.11049684,-4.08785135779,6.92588995265,3.68497036851,6766908.03856,1.57900698311,-0.0053331609343970935,-0.09641122586051415,0.0032218648748264344,-0.9179405969246164,0.6741952431676046,1.057424306117808,0.0,-0.0011222300308754611,0.0,340498.05902,1.56019623355E-11,1146.11464425,-4.0878479238,6.9258951557,3.68496440101
7680.00000001,-5000151.27646,-3246312.48906,-3089669.24206,3297549.36254,-4965029.78574,-3092048.02967,3089.99134938,5114.57589453,-4909.98181617,-4.34140472026,6.53663897631,4.08281129414,6766112.8565,1.5833822522,-0.005129794752995556,-0.09463639317433381,0.0036078923770083335,-0.8776301812303392,0.6322049510440693,1.1237237614857667,0.0,-0.0011222300308754611,0.0,341026.291189,1.52689064284E-11,1141.30214741,-4.34140162274,6.53664451055,4.08280571929
7740.00000001,-4698629.81665,-3406870.64248,-3376538.90659,3474991.6234,-4646637.17561,-3379068.05078,2822.42659233,5494.30280726,-4653.57377294,-4.5737944087,6.11584522215,4.4606246546,6765281.17407,1.58775752129,-0.004898042994230006,-0.09286165511973099,0.00398267846342674,-0.8419395437457216,0.5882463486512888,1.1859768461721454,0.0,-0.0011222300308754611,0.0,341818.320593,1.48487568381E-11,1135.96871372,-4.57379166662,6.11585100831,4.460619517
7800.00000001,-4376290.20423,-3554087.08023,-3647368.87702,3635974.91729,-4306236.33111,-3650036.39872,2541.58217125,5847.89014255,-4375.14518644,-4.78388084728,5.66569755169,4.81652593556,6764429.38563,1.59213279038,-0.004638663326280699,-0.091091826262671,0.004344208553671351,-0.8105070603463328,0.5426021077730778,1.244617010755871,0.0,-0.0011222300308754611,0.0,342859.589624,1.43532032209E-11,1130.14865381,-4.78387847037,5.66570350848,4.81652126739
