time,gePosition_m_X,gePosition_m_Y,gePosition_m_Z,eiPosition_m_X,eiPosition_m_Y,eiPosition_m_Z,eiVelocity_m_s_X,eiVelocity_m_s_Y,eiVelocity_m_s_Z,eiAccel_m_s2_X,eiAccel_m_s2_Y,eiAccel_m_s2_Z,semiMajorAxis_m,gast_rad,eulerAngle_rad_Roll,eulerAngle_rad_Pitch,eulerAngle_rad_Yaw,eulerAngleWrtEi_rad_Roll,eulerAngleWrtEi_rad_Pitch,eulerAngleWrtEi_rad_Yaw,bodyAngularRateWrtEi_rad_s_Roll,bodyAngularRateWrtEi_rad_s_Pitch,bodyAngularRateWrtEi_rad_s_Yaw,altitudeMsl_m,airDensity_kg_m3,ambientTemperature_dgK,eiGravitation_m_s2_X,eiGravitation_m_s2_Y,eiGravitation_m_s2_Z
0.0,-1428622.3120664244,4163200.465251461,5136049.672040268,-4292653.410000001,955168.4699999995,5139356.569999999,109.6496629999967,-7527.726490000003,1484.521488999999,5.528986569357204,-1.230267887409868,-6.619549899945847,6758662.117228848,1.0233194459853856,2.2204460492503126E-16,1.1102230246251565E-16,-1.9428902930940242E-16,-2.4567339936908765,-0.19515786357858916,-1.5566219162554535,1.8465318250143747E-19,-0.0011344542745508244,5.353248226647178E-19,398252.76383814117,3.1125051777514152E-12,976.2183377126014,5.528986569357204,-1.230267887409868,-6.619549899945847
60.0,-1789712.6496680772,3920255.313015809,5213136.603979311,-4276130.763606076,501640.15063868696,5216447.947710054,440.8995044259437,-7584.04304560372,1084.1893967229282,5.508416690932731,-0.6462017022814104,-6.719712406155716,6758662.117229322,1.027694715234372,-5.130451619116736E-12,2.8900448573911093E-6,-1.3314155333843482E-11,-2.4640380835119053,-0.14227385512502444,-1.5131454542259304,1.8465318250143747E-19,-0.0011344542745508244,5.473806445303543E-19,398335.16146834014,3.202793349452207E-12,983.3970713722543,5.508416690932731,-0.6462017022814104,-6.719712406155716
120.0,-2144732.0341769746,3662345.3121019993,5266057.240881031,-4239785.464850628,45786.449266250966,5269357.680101137,770.1498563606592,-7605.207758893948,678.777242699574,5.462360218417263,-0.058989324126889835,-6.788817501974711,6758662.117229619,1.0320699844833425,-1.0077771950990113E-11,1.1882115910135479E-5,-2.5569830976597068E-11,-2.4689839375118745,-0.08912857187734895,-1.4703247359525233,1.8465318250143747E-19,-0.0011344542745508244,5.594364663959909E-19,398280.4831682986,3.3124377858836345E-12,991.3056589074697,5.462360218417263,-0.058989324126889835,-6.788817501974711
180.0,-2492166.123760475,3390599.002334364,5294562.856727797,-4183783.257641732,-410279.48078935465,5297837.089568881,1095.8768804297167,-7591.112907315009,270.15925433191586,5.391015098225506,0.5286657408429583,-6.8265294779882275,6758662.1172304405,1.0364452537322815,3.0639324422474634E-11,2.7437757961394222E-5,-5.7283733333936824E-11,-2.471633447826088,-0.03582228875848776,-1.4279097053857595,1.8465318250143747E-19,-0.0011344542745508244,5.714922882616274E-19,398085.3786755064,3.442114983124064E-12,999.8931987451354,5.391015098225506,0.5286657408429583,-6.8265294779882275
240.0,-2830524.9335476914,3106195.851592755,5298517.62697364,-4108380.890264711,-864442.8940775158,5301750.470799642,1416.5720940024835,-7541.813194295964,-139.7744838477113,5.294695095671432,1.114054824518799,-6.832655726428488,6758662.117229129,1.0408205229812044,4.8819059966719945E-11,4.998825976278525E-5,-1.0151681764852163E-10,-2.4720197071565964,0.01754812940878789,-1.3856566248343154,1.8465318250143747E-19,-0.0011344542745508244,5.835481101272639E-19,397748.76810489286,3.5920371659165836E-12,1009.0715707171007,5.294695095671432,1.114054824518799,-6.832655726428488
300.0,-3158349.2713368786,2810361.1253382093,5277899.322076716,-4013924.9861691687,-1314597.200574581,5281075.78379563,1730.7492878996786,-7457.5256937727745,-549.1266557873478,5.17382866282742,1.694476279412662,-6.807147954910501,6758662.117229175,1.0451957922300796,2.4109769813235223E-11,7.99327619970317E-5,-1.5447313616522342E-10,-2.4701475359716283,0.07088717083069823,-1.3433242892738355,1.8465318250143747E-19,-0.0011344542745508244,5.956039319929004E-19,397271.883714611,3.76192695783069E-12,1018.7204249293452,5.17382866282742,1.694476279412662,-6.807147954910501
360.0,-3474217.088176924,2504360.5974088204,5232799.48200507,-3900850.5020311293,-1758653.687949796,5235904.82755092,2036.9513609444998,-7338.629062558826,-956.0013936453669,5.0289572988207505,2.2672476926526874,-6.750102774954504,6758662.117229275,1.049571061478955,-7.35705945703691E-12,1.1763632490821955E-4,-2.0424898025442258E-10,-2.465993560359656,0.12409866218034676,-1.300670253524621,1.8465318250143747E-19,-0.0011344542745508244,6.0765975385853695E-19,396658.2718164251,3.9510712138111685E-12,1028.6985983900595,5.0289572988207505,2.2672476926526874,-6.750102774954504
420.0,-3776749.716212278,2189495.1242725034,5163423.069596275,-3769678.779001292,-2194551.1745926966,5166442.8922618255,2333.7570409302484,-7185.662020197381,-1358.5129738361993,4.860733403791089,2.829718081045026,-6.661761655949172,6758662.117228963,1.0539463307277828,-4.370864839592684E-11,1.6342828875156578E-4,-2.5101145109042205E-10,-2.4595058370390945,0.17708373318108708,-1.257447052901083,1.8465318250143747E-19,-0.0011344542745508244,6.197155757241735E-19,395913.7546340161,4.158432375351797E-12,1038.858809177677,4.860733403791089,2.829718081045026,-6.661761655949172
480.0,-4064617.9662813563,1867095.1053854527,5070087.6029401105,-3621015.1948592677,-2620265.5495134313,5073007.890245182,2619.787461709564,-6999.321098960825,-1754.794491093979,4.669917629713375,3.3792800156087033,-6.542510237450625,6758662.117229183,1.0583215999766105,-6.472494915613868E-11,2.1760071375820107E-4,-3.0743752716497197E-10,-2.4506030425021477,0.2297386972543975,-1.2133984020849282,1.8465318250143747E-19,-0.0011344542745508244,6.3177139758981E-19,395046.3525349708,4.382772734637114E-12,1049.06137968361,4.669917629713375,3.3792800156087033,-6.542510237450625
540.0,-4336548.058000211,1538514.8526907545,4953221.769248755,-3455546.42660946,-3033819.155487456,4956028.968034709,2893.7125663680745,-6780.457669807421,-2143.0064718994604,4.457375733400735,3.9133816229650753,-6.39287699509345,6758662.117230101,1.0626968692254064,-8.900724951724649E-11,2.804069242905689E-4,-3.640249633845679E-10,-2.439173269761313,0.2819527842267898,-1.1682553758149428,1.8465318250143747E-19,-0.0011344542745508244,6.438272194554465E-19,394066.1676853892,4.6227474637970515E-12,1059.1837229621538,4.457375733400735,3.9133816229650753,-6.39287699509345
600.0,-4591327.355404511,1205126.8926107902,4813363.525017716,-3274037.3348502093,-3433289.972249966,4816044.604465916,3154.25730682245,-6530.074253282297,-2521.345388409302,4.224074939181625,4.429538410070745,-6.213531257925035,6758662.117230956,1.0670721384741706,-1.1767143544947738E-10,3.5206037550134954E-4,-4.267875484392925E-10,-2.425072514317332,0.3336056603630549,-1.1217326117246762,1.8465318250143747E-19,-0.0011344542745508244,6.55883041321083E-19,392985.23081068095,4.8769423401091705E-12,1069.1244959571964,4.224074939181625,4.429538410070745,-6.213531257925035
660.0,-4827809.88170254,868316.2240937962,4651157.689595188,-3077327.4829992168,-3816820.5571927,4653700.201875769,3400.2076107130515,-6249.32012759412,-2888.0520339742448,3.971079821053073,4.925344858154746,-6.005280577707104,6758662.117230591,1.0714474077243634,-1.4320412864080587E-10,4.3273360323644737E-4,-4.976493294879204E-10,-2.4081229916466524,0.38456467266341887,-1.073524637017041,1.8465318250143747E-19,-0.0011344542745508244,6.679388631867196E-19,391817.3133452114,5.143856633645016E-12,1078.803268683621,3.971079821053073,4.925344858154746,-6.005280577707104
720.0,-5044921.587302006,529474.5563804884,4467353.041638392,-2866327.306205071,-4182626.7018381353,4469745.179905643,3630.41608710254,-5939.486249335958,-3241.4197214496958,3.699547716452572,5.398485731221568,-5.76906745354843,6758662.117230633,1.075822676973096,-1.6992737316961385E-10,5.225573876983379E-4,-5.716894960819764E-10,-2.3881115221680447,0.43468175931675235,-1.0233025174154033,1.8465318250143747E-19,-0.0011344542745508244,6.799946850523561E-19,390577.7078826362,5.421847911101223E-12,1088.157471454967,3.699547716452572,5.398485731221568,-5.76906745354843
780.0,-5241665.345969503,189994.55032857342,4262798.930212631,-2642013.9464448467,-4529005.763397261,4265029.5836745845,3843.8074433116526,-5601.9995056311545,-3579.802265801365,3.4107236862909454,5.846747044372466,-5.505965418292007,6758662.117230768,1.0801979462217968,-1.981734604050656E-10,6.216201025680531E-4,-6.439332534524944E-10,-2.3647883625062556,0.4837899821692676,-0.9707111731792201,1.8465318250143747E-19,-0.0011344542745508244,6.920505069179926E-19,389282.98037884326,5.709060324308195E-12,1097.1383234687314,3.4107236862909454,5.846747044372466,-5.505965418292007
840.0,-5417125.654894199,-148735.9131528446,4038441.414622925,-2405426.771944596,-4854344.631942674,4040500.2204253725,4039.3835861677185,-5238.416319755717,-3901.621712971151,3.105935038334878,6.268026637250237,-5.217174496180428,6758662.117231053,1.0845732154704657,-2.125362674781493E-10,7.299673326264643E-4,-5.859470582212825E-10,-2.337867072600895,0.5316996659593554,-0.9153679214396592,1.8465318250143747E-19,-0.0011344542745508244,7.041063287836291E-19,387950.69813571137,6.00335497428118E-12,1105.7069030471885,3.105935038334878,6.268026637250237,-5.217174496180428
900.0,-5570473.015367144,-485339.41390012886,3795318.9493038617,-2157662.600644818,-5157127.295148721,3797196.340982918,4216.2283820373395,-4850.415635554089,-4205.37577765745,2.786585433617304,6.660344298351805,-4.904016044587199,6758662.117231483,1.0889484847191346,-2.1419168583446145E-10,8.476014035547951E-4,-5.356149116440827E-10,-2.3070263054657763,0.5781941828629189,-0.8568631044966537,1.8465318250143747E-19,-0.0011344542745508244,7.1616215064926565E-19,386599.13808113366,6.3022552371055386E-12,1113.8309307692566,2.786585433617304,6.660344298351805,-4.904016044587199
960.0,-5700967.971921518,-818454.5992685262,3534557.632326165,-1899870.6489049532,-5435941.964163462,3536244.884598639,4373.512051287279,-4439.791309213808,-4489.644953512659,2.454148598081388,7.02185138672088,-4.567926995983816,6758662.117231918,1.0933237539677718,-2.0594091773505331E-10,9.744815416930121E-4,-4.923318536794566E-10,-2.2719148053073295,0.6230255150320977,-0.794764067381011,1.8465318250143747E-19,-0.0011344542745508244,7.282179725149022E-19,385246.9803027041,6.602914713332469E-12,1121.4824120387088,2.454148598081388,7.02185138672088,-4.567926995983816
1020.0,-5810755.125674432,-1156887.8563198522,3249266.1603094176,-1625505.9635231989,-5696608.829164375,3250749.6724941637,5285.837606988074,-4716.329984191162,-5566.086560261172,41.05632980081664,-27.40705777991254,-45.219806407136296,1.0828233314820647E7,1.0976990232163775,-1.9252668359166317E-10,0.003075440202101344,-3.8511504036400687E-10,-2.2321613858674496,0.6659098784922313,-0.7286242352897339,1.8465318250143747E-19,-0.0011344542745508244,7.402737943805387E-19,384116.5751129999,6.882805160430876E-12,1128.8618547861197,2.099946724688179,7.359293242274688,-4.19955464988847
1080.0,-5926580.758406915,-1604524.729710373,2854898.2450364805,-1254387.0053752854,-6009865.427472313,2856104.666867488,6495.445238755016,-5212.184895696521,-6965.463853125277,1.6105351497739966,7.716198808564592,-3.6670157915478887,0.0,1.1020742924649671,-2.197335700410301E-10,0.027531523411050862,-2.920153317028382E-10,-2.1873921733065655,0.7065239218877998,-0.6579995580400073,1.8465318250143747E-19,-0.0011344542745508244,7.523296162461752E-19,396889.8022781601,5.728301654334385E-12,1139.254761879879,1.6105351497739966,7.716198808564592,-3.6670157915478887
1140.0,-6023878.313151159,-2063562.7905471106,2431021.331020445,-862075.7423537982,-6308548.9942107145,2431933.600275304,6576.339978818006,-4741.67827653699,-7167.511787808979,1.0852524301140778,7.941724595761953,-3.061519678501397,0.0,1.1064495617135248,-3.070761294483745E-10,0.055016579513468326,-2.44022533232407E-10,-2.1372577589004575,0.7445023346744218,-0.5824749514589439,1.8465318250143747E-19,-0.0011344542745508244,7.643854381118117E-19,440404.04169437004,2.958629660422576E-12,1150.7548457002115,1.0852524301140778,7.941724595761953,-3.061519678501397
1200.0,-6098003.870852848,-2512560.968988237,1996134.1274795774,-465855.2651819846,-6578688.406149132,1996748.109654618,6625.828309258921,-4262.244195476113,-7332.376149186667,0.5675175352203087,8.0143368730236,-2.4324927726303995,0.0,1.110824830962067,-3.8678452296267083E-10,0.08084023713575533,-1.871988202680975E-10,-2.081472773088584,0.7794380996354322,-0.5017032339841173,1.8465318250143747E-19,-0.0011344542745508244,7.764412599774483E-19,514467.6574746676,1.0196872390980472E-12,1160.5338564950926,0.5675175352203087,8.0143368730236,-2.4324927726303995
1260.0,-6149416.012511039,-2950065.8908906113,1552491.0842812504,-67582.97307317967,-6820019.548996691,1552804.0814441913,6645.023902140241,-3782.8442792696387,-7459.513803527047,0.07871057413292687,7.942942281009966,-1.808474756416552,0.0,1.115200100210593,-4.5847905439922134E-10,0.10425598421264345,-1.2477801914163951E-10,-2.0198691992020175,0.8108870383648137,-0.41545786493734516,1.8465318250143747E-19,-0.0011344542745508244,7.884970818430848E-19,617807.0425554762,2.5649304940407937E-13,1167.8265838724312,0.07871057413292687,7.942942281009966,-1.808474756416552
1320.0,-6178963.696694698,-3374933.1268334473,1102329.871529378,330986.43236371974,-7032793.924768298,1102340.5620170308,6636.188624281068,-3311.6108519182085,-7549.989890603744,-0.3645407608241871,7.745755708915209,-1.214092264432947,0.0,1.1195753694590873,-5.218654458126969E-10,0.12464299813390432,-5.831287889217396E-11,-1.9524617925239205,0.8383785563429442,-0.32369784034100835,1.8465318250143747E-19,-0.0011344542745508244,8.005529037087213E-19,748729.0666309602,5.3374693813004907E-14,1173.0056606955413,-0.3645407608241871,7.745755708915209,-1.214092264432947
1380.0,-6187809.099985762,-3786344.0784603017,647783.3792003321,728260.502814633,-7217714.137608375,647491.7084678196,6602.411188754866,-2855.3900590963494,-7606.176078465256,-0.7513767781452022,7.446817139374154,-0.6680442395323962,0.0,1.123950638707566,-5.540621772715014E-10,0.14152323796018096,-3.286830089784822E-11,-1.8795187821805523,0.8614343088272727,-0.22663791462219096,1.8465318250143747E-19,-0.0011344542745508244,8.126087255743578E-19,905233.1250161679,1.2098999679890764E-14,1176.5307291923707,-0.7513767781452022,7.446817139374154,-0.6680442395323962
1440.0,-6177340.909323934,-4183797.5107048964,190812.64380469488,1122848.159430084,-7375848.444025955,190219.6815464355,6547.257939972983,-2419.50212694775,-7631.367361388575,-1.0766503866257198,7.072381080433813,-0.18239340017686803,0.0,1.1283259079560126,-5.832429431698625E-10,0.1545637241263126,-3.7841203998514E-12,-1.8016241094659966,0.8795955141421451,-0.1248103936640442,1.8465318250143747E-19,-0.0011344542745508244,8.2466454743999435E-19,1085127.7852148178,4.167523101047778E-15,1178.7144742625078,-1.0766503866257198,7.072381080433813,-0.18239340017686803
1500.0,-6149088.776876092,-4567081.572741406,-266836.68324745167,1513578.4797094117,-7508537.148681482,-267728.9041826332,6474.452265353158,-2007.7033423132905,-7629.3910629710235,-1.3400892365981876,6.647894344717099,0.23704130815222468,0.0,1.1327011772044275,-6.093351093430746E-10,0.16356689981172995,2.8622835230660912E-11,-1.7197112104298309,0.8924575916997883,-0.019098500298514856,1.8465318250143747E-19,-0.0011344542745508244,8.367203693056309E-19,1286139.0599842432,2.020645753301099E-15,1179.775667689266,-1.3400892365981876,6.647894344717099,0.23704130815222468
1560.0,-6104646.846875913,-4936233.445278956,-723655.6143530869,1899502.0546031361,-7617301.617873919,-724844.2635774484,6387.618185322999,-1622.3017768045725,-7604.2626437638755,-1.5450575398214526,6.19592343649725,0.589589304166692,0.0,1.1370764464528427,-6.326166431397004E-10,0.16845308970438763,6.417921520371416E-11,-1.6350472431511118,0.8997079300556924,0.08927979433654912,1.8465318250143747E-19,-0.0011344542745508244,8.487761911712674E-19,1506001.652330524,1.0866383934266855E-15,1179.8917474207833,-1.5450575398214526,6.19592343649725,0.589589304166692
1620.0,-6045610.88978862,-5291493.400976331,-1178374.6661123214,2279879.2709710374,-7703763.364520425,-1179856.2752774686,6290.101548663493,-1264.3674282289012,-7559.917807840305,-1.6972551950441217,5.735063500206264,0.8783435237635131,0.0,1.1414517157012258,-6.479925703903902E-10,0.16923905784095594,1.1033336751373492E-10,-1.5491551806726351,0.9011598840577161,0.19885005843380119,1.8465318250143747E-19,-0.0011344542745508244,8.608320130369039E-19,1742529.1572285246,5.937719190688477E-16,1179.2200122574109,-1.6972551950441217,5.735063500206264,0.8783435237635131
1680.0,-5973530.553657045,-5633258.700050149,-1629953.1478383418,2654160.135373082,-7769577.187838656,-1631723.7570515967,6184.865249731921,-933.9825212268198,-7500.028130505556,-1.8035780348567403,5.2796508279030645,1.1088031531897384,0.0,1.1458269849495775,-6.25488097599337E-10,0.16601591866223497,2.0813669492567203E-10,-1.4636796186619199,0.8967751252611263,0.3080159628443667,1.8465318250143747E-19,-0.0011344542745508244,8.728878347966045E-19,1993663.028442635,3.2570836251142997E-16,1177.9028806748936,-1.8035780348567403,5.2796508279030645,1.1088031531897384
1740.0,-5889876.045266797,-5962041.014347384,-2077559.7259595902,3021959.7115590605,-7816379.481546245,-2079615.0130430518,6074.445133716248,-630.49137236213,-7427.892346193824,-1.8712433174688932,4.8400208036190175,1.287729178248094,0.0,1.1502022541979289,-5.968370691940636E-10,0.1589286231513934,3.0653963383763214E-10,-1.3802233839306421,0.8866684240890164,0.4152230396067501,1.8465318250143747E-19,-0.0011344542745508244,8.849436564311294E-19,2257502.6349322475,1.8012326479645846E-16,1176.0679678838003,-1.8712433174688932,4.8400208036190175,1.287729178248094
1800.0,-5796017.269719245,-6278429.449224002,-2520548.36132529,3383032.3162721805,-7845750.856384645,-2522883.752404022,5960.949900044245,-352.72468376978986,-7346.387927832185,-1.9071945437577085,4.4230654117627655,1.4222832291539966,0.0,1.154577523446217,-5.631862087653355E-10,0.14815825499757554,4.0285228978781615E-10,-1.3001943424503486,0.8710935263360888,0.5191122421350292,1.8465318250143747E-19,-0.0011344542745508244,8.969994780656543E-19,2532319.9706170163,1.0782425578485665E-16,1173.8273911013396,-1.9071945437577085,4.4230654117627655,1.4222832291539966
1860.0,-5693212.93219042,-6583059.955059265,-2958432.7202447946,3737246.6277737776,-7859191.126627056,-2961043.481902989,5846.089202494832,-99.18628429665644,-7257.965862381072,-1.9177480230387711,4.0329016912515145,1.5194435500591825,0.0,1.1589527926945367,-5.268213087160058E-10,0.13390759856986284,4.952654964497518E-10,-1.2246974142438118,0.8504140036775312,0.6186283054941345,1.8465318250143747E-19,-0.0011344542745508244,9.090552997001793E-19,2816562.8518419517,1.0650626405851503E-16,1171.277652662346,-1.9177480230387711,4.0329016912515145,1.5194435500591825
1920.0,-5582607.099828204,-6876591.049635766,-3390861.174724352,4084562.997047783,-7858104.290623089,-3393742.4890635144,5731.217130765799,131.80035510134772,-7164.673241149695,-1.9084235423699023,3.67152893405297,1.585652631028346,0.0,1.1633280619442217,-4.873170980521222E-10,0.11638992580123463,5.849269699301533E-10,-1.1544885491334362,0.8250663757818144,0.7130661581873081,1.8465318250143747E-19,-0.0011344542745508244,9.211111213347042E-19,3108850.1112608113,1.0508503145864219E-16,1168.5002775225032,-1.9084235423699023,3.67152893405297,1.585652631028346
1980.0,-5465231.007700831,-7159685.262918233,-3817593.6773893833,4425013.588732193,-7843791.158974255,-3820740.701900519,5617.381791484153,341.98293773379726,-7068.191484087142,-1.8839013864316563,3.339408736935809,1.6266387800107323,0.0,1.1677033311924778,-4.3842043054350944E-10,0.09582065894406015,6.786453272039647E-10,-1.0899862628602552,0.7955232035160311,0.8020597918697837,1.8465318250143747E-19,-0.0011344542745508244,9.331669429692291E-19,3407961.6893862407,1.0359806001967597E-16,1165.5630146815695,-1.8839013864316563,3.339408736935809,1.6266387800107323
2040.0,-5342008.300080206,-7432995.478127249,-4238481.1696392195,4758685.521006399,-7817447.549710434,-4241889.084012281,5505.374912794382,533.102922172871,-6969.88143376462,-1.84805751744287,3.0359418893481203,1.6473572324253625,0.0,1.1720786004407024,-3.691392345323182E-10,0.07241144209085972,7.199695967112081E-10,-1.0313224914086887,0.7622618048266326,0.8855318374086709,1.8465318250143747E-19,-0.0011344542745508244,9.45222764603754E-19,3712825.8502956945,1.0207549586710241E-16,1162.5213528782342,-1.84805751744287,3.0359418893481203,1.6473572324253625
2100.0,-5213762.318326378,-7697155.286830866,-4653447.748364415,5085706.888515128,-7780166.334005538,-4657111.7903334545,5395.777919758944,706.8435403243535,-6870.829532675169,-1.804041077827014,2.7598404639813627,1.6520065269131308,0.0,1.176453869688895,-3.0360758111418496E-10,0.04636613580483156,7.12806880668938E-10,-0.9784112567266602,0.7257412822039476,0.9636253611557565,1.8465318250143747E-19,-0.0011344542745508244,9.57278586238279E-19,4022505.1271212213,1.0054109860470743E-16,1159.4201438962189,-1.804041077827014,2.7598404639813627,1.6520065269131308
2160.0,-5081224.422910546,-7952772.525198946,-5062475.542222484,5406235.396595186,-7732941.989466292,-5066391.034384642,5289.002724303802,864.797254848388,-6771.891605444314,-1.7543698493066313,2.5094061352380193,1.6440874330258852,0.0,1.180829138937088,-2.358100314523173E-10,0.017878290307665787,7.038146303928884E-10,-0.9310179706950694,0.686388019683009,1.0366350617160074,1.8465318250143747E-19,-0.0011344542745508244,9.69334407872804E-19,4336182.088830572,9.901323393827434E-17,1156.295191378096,-1.7543698493066313,2.5094061352380193,1.6440874330258852
2220.0,-4945042.64578448,-8200425.260891812,-5465592.092250789,5720449.267678794,-7676676.654191289,-5469754.461571526,5185.3266484106525,1008.4474982753161,-6673.732411466273,-1.7010284374988551,2.282730723274404,1.6264820208858883,0.0,1.1852044081852489,-1.8040658750776614E-10,-0.01287028204319224,6.916568945854638E-10,-0.8888192355658555,0.6445882994211222,1.104948017816917,1.8465318250143747E-19,-0.0011344542745508244,9.813902295073288E-19,4653145.623504255,9.750580788346701E-17,1153.1747204709789,-1.7010284374988551,2.282730723274404,1.6264820208858883
2280.0,-4805790.208471141,-8440659.620031659,-5862859.956666976,6028540.068970998,-7612186.9546551965,-5867264.748138397,5084.9216031445,1139.1605277130034,-6576.860223465093,-1.645560547108302,2.077835493582641,1.6015385613293038,0.0,1.1895796774333782,-2.098619540064107E-10,-0.04571014161412013,6.755598683302646E-10,-0.8514492123056422,0.600686145448773,1.1689979252896736,1.8465318250143747E-19,-0.0011344542745508244,9.934460511418538E-19,4972778.144050473,9.602910132364124E-17,1150.0806863953737,-1.645560547108302,2.077835493582641,1.6015385613293038
2340.0,-4663973.618088801,-8673988.961590828,-6254368.236964797,6330707.130450926,-7540211.101463928,-6259011.122645487,4987.878022113806,1258.184177531864,-6481.656359910077,-1.5891511282268755,1.8927640675910902,1.5711538035448762,0.0,1.1939549466814758,-2.3591619608771573E-10,-0.08048430315795146,6.67161286163526E-10,-0.8185326703275044,0.5549845832012748,1.2292327203182971,1.8465318250143747E-19,-0.0011344542745508244,1.0055018727763787E-18,5294543.920868398,9.459048975445453E-17,1147.0299086388202,-1.5891511282268755,1.8927640675910902,1.5711538035448762
2400.0,-4520040.1793882735,-8900894.012180338,-6640225.730645149,6627153.2578852,-7461415.914803461,-6645102.515092843,4894.224211404899,1366.6511102404313,-6388.399978869252,-1.5326969321662596,1.7256412877774852,1.5368481522129795,0.0,1.1983302159295892,-2.577476523916654E-10,-0.1170479449541524,6.666134669349227E-10,-0.7897068134468201,0.5077488687332411,1.2860935070121893,1.8465318250143747E-19,-0.0011344542745508244,1.0175576944109036E-18,5617978.611973098,9.319504861394819E-17,1144.0350349277865,-1.5326969321662596,1.7256412877774852,1.5368481522129795
2460.0,-4374384.847207708,-9121823.66376965,-7020555.4406940425,6918081.486810742,-7376403.564746575,-7025662.063612766,4803.941813157425,1465.58482769173,-6297.2886271377565,-1.4768656109773457,1.5747077825310596,1.4998318126028864,0.0,1.2027054851776549,-2.774562095314966E-10,-0.15526788021846433,6.712801754451538E-10,-0.764634551710591,0.459210661199804,1.340002133429347,1.8465318250143747E-19,-0.0011344542745508244,1.0296135160454285E-18,5942679.976388776,9.18460529899862E-17,1141.1053486620663,-1.4768656109773457,1.5747077825310596,1.4998318126028864
2520.0,-4227356.400751836,-9337196.209905723,-7395490.203963894,7203692.664425092,-7285717.899770773,-7400822.7407261375,4716.97804395481,1555.9072178217775,-6208.455104154632,-1.422144325381498,1.4383376485032653,1.4610615075036653,0.0,1.207080754425705,-2.885295509917776E-10,-0.1950218872943552,6.853217930348113E-10,-0.7430117188238085,0.4095724776380826,1.3913549329954298,1.8465318250143747E-19,-0.0011344542745508244,1.0416693376799535E-18,6268299.706560683,9.054538429588246E-17,1138.247437812094,-1.422144325381498,1.4383376485032653,1.4610615075036653
2580.0,-4079262.956947589,-9547400.854007637,-7765169.234256576,7484183.683996365,-7189850.298180326,-7770723.894826931,4633.255298873325,1638.4467972499301,-6121.981195592609,-1.3688791807862044,1.3150447399085123,1.4212882270664007,0.0,1.211456023673723,-2.998205442739375E-10,-0.23619796729946266,7.012645780254622E-10,-0.7245702661735356,0.3590120430401653,1.440520619264817,1.8465318250143747E-19,-0.0011344542745508244,1.0537251593144784E-18,6594536.288964705,8.929385753204086E-17,1135.4657443710958,-1.3688791807862044,1.3150447399085123,1.4212882270664007
2640.0,-3930376.861289429,-9752799.36842252,-8129735.408058546,7759746.229407795,-7089245.018614054,-8135508.534735257,4552.678629516765,1713.9470918740003,-6037.908789436136,-1.3173068880868288,1.2034815338372529,1.381096895963031,0.0,1.2158312929217412,-3.0817286909342075E-10,-0.27869357642162707,7.186015434922781E-10,-0.7090789516338287,0.307686336832496,1.4878408375228727,1.8465318250143747E-19,-0.0011344542745508244,1.0657809809490033E-18,6921128.790945798,8.809148223923967E-17,1132.7630127188656,-1.3173068880868288,1.2034815338372529,1.381096895963031
2700.0,-3780939.0056930957,-9953727.817415437,-8489333.149892243,8030565.915453122,-6984304.052878183,-8495321.214193877,4475.141522250269,1783.0747993258376,-5956.248828547216,-1.2675799732943624,1.102433382408455,1.3409390012095175,0.0,1.2202065621697118,-2.9582075685773694E-10,-0.3224148646204838,7.494750926813058E-10,-0.696342595307588,0.2557352564829137,1.5336323261613098,1.8465318250143747E-19,-0.0011344542745508244,1.0778368025835283E-18,7247851.470275303,8.693766896854801E-17,1130.1406535748088,-1.2675799732943624,1.102433382408455,1.3409390012095175
2760.0,-3631162.6274287202,-1.0150498283300027E7,-8844106.799588569,8296821.732775152,-6875391.501225818,-8850306.398541369,4400.530327447559,1846.4275186835673,-5876.988490347358,-1.2197867168750502,1.0108101025458223,1.301159230958203,0.0,1.2245818314176822,-2.8416072077084613E-10,-0.3672759412409288,7.789659813033135E-10,-0.6862006275540706,0.20328489052954343,1.578189991064462,1.8465318250143747E-19,-0.0011344542745508244,1.0898926242180532E-18,7574509.108165436,8.583139152008473E-17,1127.599038163848,-1.2197867168750502,1.0108101025458223,1.301159230958203
2820.0,-3481236.643507186,-1.0343400554303795E7,-9194199.365331829,8558685.725364089,-6762837.499949624,-9200607.217355903,4328.7276247241225,1904.5409300831022,-5800.096923163251,-1.1739668365906923,0.9276362283830706,1.262017101254564,0.0,1.228957100665621,-2.735011911940853E-10,-0.4131981796768318,8.071111577752604E-10,-0.6785254028560358,0.15045043355378043,1.6217904514125006,1.8465318250143747E-19,-0.0011344542745508244,1.1019484458525781E-18,7900932.973802693,8.477131360290561E-17,1125.1377351105064,-1.1739668365906923,0.9276362283830706,1.262017101254564
2880.0,-3331328.572739752,-1.0532703747044146E7,-9539751.584420037,8816322.843902692,-6646941.736131178,-9546364.52496716,4259.614753292433,1957.8953721801845,-5725.529813347302,-1.1301237621519815,0.8520408037049987,1.2237044381027178,0.0,1.2333323699135281,-2.6472621476971407E-10,-0.46010956812520104,8.337300070021351E-10,-0.6732205794807476,0.09733879532896617,1.664695793120778,1.8465318250143747E-19,-0.0011344542745508244,1.114004267487103E-18,8226977.337280433,8.375588708177774E-17,1122.755700592679,-1.1301237621519815,0.8520408037049987,1.2237044381027178
2940.0,-3181587.0940553,-1.0718657846876822E7,-9880901.228604995,9069890.930557724,-6527976.5861208765,-9887716.20566475,4193.07369030446,2006.9218080353244,-5653.23300883614,-1.0882341989127204,0.7832472766330623,1.1863594619308444,0.0,1.2377076391614352,-3.03818851591954E-10,-0.507944109195618,8.777017525245695E-10,-0.6702197485455113,0.04405096574071778,1.7071573853165063,1.8465318250143747E-19,-0.0011344542745508244,1.126060089121628E-18,8552516.456952687,8.278342766461687E-17,1120.4514305094483,-1.0882341989127204,0.7832472766330623,1.1863594619308444
3000.0,-3032144.285376091,-1.0901495156845417E7,-1.0217782603156373E7,9319540.800622096,-6406189.914022375,-1.0224796672719026E7,4128.988422263445,2052.007196763533,-5583.145383534483,-1.0482555462739918,0.7205638401636913,1.1500781048124296,0.0,1.2420829084093103,-3.507177801330888E-10,-0.5566412689596709,9.378956906092176E-10,-0.66948542072286,-0.009315800492000115,1.7494196927747656,1.8465318250143747E-19,-0.0011344542745508244,1.138115910756153E-18,8877441.976172334,8.185217276451744E-17,1118.2230818758537,-1.0482555462739918,0.7205638401636913,1.1500781048124296
3060.0,-2883117.582872142,-1.1081431651235646E7,-1.0550526198766315E7,9565416.394164642,-6281807.564906458,-1.0557736520308618E7,4067.245924079544,2093.4993041420053,-5515.2010923347325,-1.0101316253905026,0.663374413036566,1.1149230846040312,0.0,1.246458177657154,-3.6177064293214014E-10,-0.6061454737810706,1.0151828543062314E-9,-0.6710084312473305,-0.06266591460630301,1.7917240649647763,1.8465318250143747E-19,-0.0011344542745508244,1.1501717323906778E-18,9201660.672694743,8.09603253357847E-17,1116.0685693492715,-1.0101316253905026,0.663374413036566,1.1149230846040312
3120.0,-2734611.4959800346,-1.125866823339269E7,-1.0879258463519735E7,9807654.976957606,-6155035.585189952,-1.0886662295562478E7,4007.7368359130187,2131.7109938335316,-5449.331337984221,-0.973797078927182,0.6111303555878281,1.0809311672966344,0.0,1.2508334469049975,-3.7391100910101676E-10,-0.6564056529589101,1.0935730214008293E-9,-0.6748077920903661,-0.11590343683163475,1.8343125096678108,1.8465318250143747E-19,-0.0011344542745508244,1.1622275540252028E-18,9525092.511587817,8.010608671502073E-17,1113.9856416964649,-0.973797078927182,0.6111303555878281,1.0809311672966344
3180.0,-2586719.109427679,-1.143339189993043E7,-1.1204101668694135E7,1.004638737475906E7,-6026062.199993862,-1.1211696364466649E7,3950.355908510625,2166.9240444705706,-5385.465747591276,-0.9391807307904656,0.5633429500238406,1.0481189697538544,0.0,1.255208716154222,-3.8876005440550875E-10,-0.7073748239199247,1.1737876427665459E-9,-0.6809309976194986,-0.1689300482623912,1.877431470050657,1.8465318250143747E-19,-0.0011344542745508244,1.1742833756597277E-18,9847668.959229821,7.928768087648326E-17,1111.9719421094326,-0.9391807307904656,0.5633429500238406,1.0481189697538544
3240.0,-2439523.399568137,-1.1605776815087339E7,-1.1525173847422468E7,1.028173822878432E7,-5895059.574556094,-1.1532956850658882E7,3895.002272336227,2199.392538264082,-5323.533437452649,-0.9062081334511524,0.5195766333251085,1.0164875887959652,0.0,1.259583985402018,-4.332216828788756E-10,-0.7590097170481483,1.271020279075219E-9,-0.6894547703141286,-0.221642948629741,1.9213356220223858,1.8465318250143747E-19,-0.0011344542745508244,1.1863391972942526E-18,1.0169331521899143E7,7.850337200593379E-17,1110.0250555282278,-0.9062081334511524,0.5195766333251085,1.0164875887959652
3300.0,-2293098.389196196,-1.1775985299898386E7,-1.1842588789491002E7,1.051382626314782E7,-5762185.3840745445,-1.1850557630374858E7,3841.579573647333,2229.3458652967315,-5263.463829447846,-0.8748034822471572,0.47944294619082717,0.9860262878757818,0.0,1.2639592546497822,-4.957007948771364E-10,-0.8112704367987936,1.3820427202566175E-9,-0.7004862076604135,-0.273932616021689,1.9662916921981142,1.8465318250143747E-19,-0.0011344542745508244,1.1983950189287776E-18,1.0490030477629589E7,7.775147689926662E-17,1108.1425455322014,-0.8748034822471572,0.47944294619082717,0.9860262878757818
3360.0,-2147510.161379238,-1.1944168741500286E7,-1.215645607895752E7,1.0742764557330085E7,-5627584.213772694,-1.216460837022514E7,3789.9960110941533,2256.991384995734,-5205.187269743782,-0.8448910377083859,0.4425951477193534,0.9567154278013879,0.0,1.2683345238975146,-5.732652567943823E-10,-0.864120155750494,1.508718329154993E-9,-0.7141642556773541,-0.3256803639251246,2.012582263224673,1.8465318250143747E-19,-0.0011344542745508244,1.2104508405633025E-18,1.080972377446581E7,7.703037336880132E-17,1106.321982860153,-0.8448910377083859,0.4425951477193534,0.9567154278013879
3420.0,-2002817.750673124,-1.2110468428015148E7,-1.246688116398873E7,1.0968660818533042E7,-5491388.808602095,-1.2475214597197026E7,3740.164298907002,2282.51678304917,-5148.635490507454,-0.8163961665880681,0.4087234391469631,0.9285287915281967,0.0,1.2727097931452471,-6.86816709587395E-10,-0.9175248386578094,1.6668888228032284E-9,-0.730661378005344,-0.37675563202054685,2.0605094762330975,1.8465318250143747E-19,-0.0011344542745508244,1.2225066621978274E-18,1.112837607211325E7,7.633850558870319E-17,1104.5609672270052,-0.8163961665880681,0.4087234391469631,0.9285287915281967
3480.0,-1859073.9273591824,-1.2275016314511456E7,-1.2773965450531414E7,1.1191617650134385E7,-5353721.189782454,-1.2782477792492118E7,3692.0015768421504,2306.092158560411,-5093.741947227612,-0.7892460883244332,0.3775507383389475,0.9014354235642783,0.0,1.2770850623929477,-8.358927664890239E-10,-0.9714529935977005,1.8571758252866868E-9,-0.7501852017866809,-0.4270129515106352,2.1103984497223998,1.8465318250143747E-19,-0.0011344542745508244,1.2345624838323523E-18,1.1445957907269597E7,7.567438710883913E-17,1102.8571437789717,-0.7892460883244332,0.3775507383389475,0.9014354235642783
3540.0,-1716325.888380148,-1.2437935725411452E7,-1.3077806413141528E7,1.1411732813543739E7,-5214693.653415835,-1.3086495502521284E7,3645.429282436604,2327.87187276284,-5040.442057764912,-0.7633703947944632,0.34882894806437975,0.8754010807525598,0.0,1.2814603316406326,-1.0295382879729906E-9,-1.0258754474990572,2.0895313807555623E-9,-0.772979787488706,-0.47628853783081443,2.162600096611126,1.8465318250143747E-19,-0.0011344542745508244,1.2466183054668773E-18,1.1762444965742331E7,7.503660210803781E-17,1101.2082152697296,-0.7633703947944632,0.34882894806437975,0.8754010807525598
3600.0,-1574615.8668141568,-1.2599341998475887E7,-1.3378497717767587E7,1.1629099481567118E7,-5074409.664625997,-1.338736146185123E7,3600.372997527107,2347.9961872885183,-4988.67336403278,-0.73870139638598,0.32233566417032644,0.8503893720634589,0.0,1.2858356008883016,-1.0726946157359057E-9,-1.080765143561215,2.1263000912094507E-9,-0.7993259708245051,-0.5243964897483365,2.2174928184648866,1.8465318250143747E-19,-0.0011344542745508244,1.2586741271014022E-18,1.2077817446906807E7,7.442380533252333E-17,1099.6119508297654,-0.73870139638598,0.32233566417032644,0.8503893720634589
3660.0,-1433981.6701490635,-1.2759343075223092E7,-1.3676129352325037E7,1.18438064820272E7,-4932964.659080416,-1.3685165723938001E7,3556.762278150795,2366.592716868153,-4938.375633027666,-0.7151743357799883,0.2978712738035339,0.826362649669131,0.0,1.2902108701359387,-1.1203820696293231E-9,-1.1360969586574081,2.1546409892806308E-9,-0.8295399422181469,-0.571124622899914,2.275482270037716,1.8465318250143747E-19,-0.0011344542745508244,1.2707299487359271E-18,1.2392059508066341E7,7.383472106665638E-17,1098.0661920314733,-0.7151743357799883,0.2978712738035339,0.826362649669131
3720.0,-1294457.1562736058,-1.2918040042324897E7,-1.39707877618679E7,1.2055938530857407E7,-4790446.762363325,-1.3979994796452744E7,3514.53047476393,2383.777718475593,-4889.490910582532,-0.6927275016950415,0.2752563982639218,0.8032827012404856,0.0,1.29458613938356,-1.2122073565932156E-9,-1.1918475380727256,2.21946580263913E-9,-0.8639688461258692,-0.6162300526734578,2.3369979994557983,1.8465318250143747E-19,-0.0011344542745508244,1.282785770370452E-18,1.270515877808463E7,7.326814140568084E-17,1096.5688568162295,-0.6927275016950415,0.2752563982639218,0.8032827012404856
3780.0,-1156072.6549151381,-1.3075527628192835E7,-1.4262555985849097E7,1.2265576454247598E7,-4646937.436416866,-1.4271931778690327E7,3473.6145479943925,2399.6572363526675,-4841.963538523174,-0.6713022676902798,0.25432963958259025,0.7811112835253607,0.0,1.2989614086311496,-1.3395762248989962E-9,-1.2479951463548584,2.318250865518714E-9,-0.9029817075248436,-0.659434781955393,2.4024852928804927,1.8465318250143747E-19,-0.0011344542745508244,1.294841592004977E-18,1.3017105931132903E7,7.272292403862649E-17,1095.1179417378564,-0.6713022676902798,0.25432963958259025,0.7811112835253607
3840.0,-1018855.341232431,-1.323189465865822E7,-1.4551513795527449E7,1.2472797399706746E7,-4502512.0611672755,-1.4561056499118567E7,3433.954883814315,2414.3281200141278,-4795.740143750093,-0.6508430755151355,0.2349455942820815,0.7598105293411402,0.0,1.3033366778787392,-1.5495284310355176E-9,-1.3045195322847167,2.5255982780646214E-9,-0.9469534765599412,-0.700421765897879,2.472390032311581,1.8465318250143747E-19,-0.0011344542745508244,1.306897413639502E-18,1.3327894312678097E7,7.219798970322984E-17,1093.7115228922069,-0.6508430755151355,0.2349455942820815,0.7598105293411402
3900.0,-882829.5674036858,-1.3387224475320753E7,-1.4837737830064815E7,1.2677675036089621E7,-4357240.458502309,-1.484744565161113E7,3395.4951109892404,2427.8789302737696,-4750.76960604069,-0.6312973780989716,0.21697310187938976,0.7393432537627337,0.0,1.307711947126297,-1.7011437265616094E-9,-1.3614018068303397,2.754829595975956E-9,-0.996239580385588,-0.738832232884942,2.547133971314734,1.8465318250143747E-19,-0.0011344542745508244,1.3189532352740268E-18,1.3637519610943021E7,7.169231943449788E-17,1092.3477558236796,-0.6312973780989716,0.21697310187938976,0.7393432537627337
3960.0,-748017.157291653,-1.354159531984753E7,-1.5121301730195053E7,1.2880279742791766E7,-4211187.364913386,-1.51311729292458E7,3358.1819228601653,2440.3907464968324,-4707.00300997628,-0.6126155538381985,0.20029369946849188,0.7196731801930812,0.0,1.312087216373823,-1.980463385748024E-9,-1.4186243324197605,3.1089026092958275E-9,-1.0511383979138176,-0.7742654313566787,2.6270778577227993,1.8465318250143747E-19,-0.0011344542745508244,1.3310090569085518E-18,1.3945979567989213E7,7.120495170179215E-17,1091.02487464868,-0.6126155538381985,0.20029369946849188,0.7196731801930812
4020.0,-614437.6686009794,-1.369508068721852E7,-1.5402276268647155E7,1.3080678788418474E7,-4064412.8583699916,-1.5412309154850494E7,3321.96490489824,2451.9378866713164,-4664.39358528363,-0.59475080114807,0.18480025714356188,0.7007651029169064,0.0,1.3164624856213492,-2.6261877639396805E-9,-1.4761706224284399,3.826906946067709E-9,-1.1118400575137337,-0.8062823918417603,2.712470815739715,1.8465318250143747E-19,-0.0011344542745508244,1.3430648785430767E-18,1.4253273725377295E7,7.073497950463885E-17,1089.7411905848257,-0.59475080114807,0.18480025714356188,0.7007651029169064
4080.0,-482108.6263866378,-1.3847749650655622E7,-1.5680729476737378E7,1.3278936499308914E7,-3916972.7443493474,-1.5690922407711906E7,3286.796369005509,2462.588550468948,-4622.896638989736,-0.5776590201435845,0.1703957720972405,0.6825849994583224,0.0,1.3208377548688435,-5.41244881889087E-9,-1.5340252500557559,6.683328160724223E-9,-1.1783625965802709,-0.834415591336337,2.8033870361559803,1.8465318250143747E-19,-0.0011344542745508244,1.3551207001776016E-18,1.4559403200049667E7,7.028154748003003E-17,1088.4950900383378,-0.5776590201435845,0.1703957720972405,0.6825849994583224
4140.0,-351045.73128410784,-1.399966716071182E7,-1.5956726766715273E7,1.3475114418328969E7,-3768918.905366392,-1.5967078146031843E7,3252.6311951611287,2472.4053942189516,-4582.469482067146,-0.5612986866729925,0.1569923019638083,0.6651001034308188,0.0,1.325213024116306,-3.1415926446802755,-1.549418888178927,3.1415926459944727,-1.250481361280766,-0.858186313452321,2.899655662386442,1.8465318250143747E-19,-0.0011344542745508244,1.3671765218121266E-18,1.4864370486646766E7,6.984384905988676E-17,1087.2850323713067,-0.5612986866729925,0.1569923019638083,0.6651001034308188
4200.0,-221263.04539467016,-1.4150894320799023E7,-1.6230331049609698E7,1.366927145440152E7,-3620299.61784865,-1.6240839324877655E7,3219.4266807595554,2481.4460456306733,-4543.071352675722,-0.5456307226450315,0.1445100203963122,0.6482789464497343,0.0,1.3295882933637686,-3.141592651215472,-1.490990033332784,3.1415926525683195,-1.3276642819336155,-0.8771306504187991,3.000796516021621,1.8465318250143747E-19,-0.0011344542745508244,1.3792323434466515E-18,1.5168179283002103E7,6.942112370643481E-17,1086.109547445678,-0.5456307226450315,0.1445100203963122,0.6482789464497343
4260.0,-92773.15840692366,-1.4301488641194792E7,-1.6501602848407945E7,1.3861464023223273E7,-3471159.83976312,-1.6512266509459935E7,3187.1423977615805,2489.763565139115,-4504.663337640586,-0.5306183655953136,0.1328763799992102,0.6320913759790907,0.0,1.3339635626111994,-3.141592652221898,-1.4322935543705873,-3.1415926535665353,-1.4090322590274968,-0.8908332079090069,3.105980903844852,1.8465318250143747E-19,-0.0011344542745508244,1.3912881650811764E-18,1.5470834335953696E7,6.901265424483168E-17,1084.9672330209205,-0.5306183655953136,0.1328763799992102,0.6320913759790907
4320.0,34412.66379298896,-1.4451504273407705E7,-1.6770600406513687E7,1.405174617965091E7,-3321541.4720087675,-1.67814179836836E7,3155.740057639034,2497.406859918858,-4467.208293443474,-0.5162270396601293,0.12202536960755378,0.6165085546137766,0.0,1.3383388318585985,-3.1415926526246527,-1.3733413963936774,-3.14159265312581,-1.4933661286606192,-0.8989647842801379,-3.0691463251284,1.8465318250143747E-19,-0.0011344542745508244,1.4033439867157014E-18,1.5772341305018237E7,6.861776430586516E-17,1083.8567520661209,-0.5162270396601293,0.12202536960755378,0.6165085546137766
4380.0,160284.34604261568,-1.4600992226586573E7,-1.7037379791479293E7,1.4240169742209177E7,-3171483.596254264,-1.7048349853968132E7,3125.1833839782716,2504.421055877108,-4430.670767698378,-0.5024242295260712,0.11189685454236879,0.6015029451988836,0.0,1.3427141011059978,-3.1415926528390004,-1.3141447913731745,-3.1415926528734825,-1.579174819046978,-0.9013174690641409,-2.9596570118640058,1.8465318250143747E-19,-0.0011344542745508244,1.4153998083502263E-18,1.6072706641766066E7,6.823581588655619E-17,1082.7768300342125,-0.5024242295260712,0.11189685454236879,0.6015029451988836
4440.0,284832.8845989309,-1.4750000567525307E7,-1.7301994994057175E7,1.4426784410186691E7,-3021022.691599697,-1.7313116148381818E7,3095.437992527971,2510.847832298737,-4395.016921857239,-0.48917935845932675,0.10243598990252639,0.5870482853003022,0.0,1.3470893703547937,-3.141592653161053,-1.2547143104174414,-3.141592652535358,-1.6648221385243303,-0.8978292616492896,-2.8503243703013887,1.8465318250143747E-19,-0.0011344542745508244,1.4274556299847512E-18,1.6371937483023914E7,6.786620703282742E-17,1081.7262521358102,-0.48917935845932675,0.10243598990252639,0.5870482853003022
4500.0,408050.24020149495,-1.4898574605644757E7,-1.756449802268784E7,1.4611637873744559E7,-2870192.8321739314,-1.7575768911208045E7,3066.4712784266703,2516.725723260612,-4360.214455695609,-0.476463671159677,0.0935926982019654,0.5731195538274192,0.0,1.351464639602145,-3.1415926533875225,-1.1950599114015994,-3.14159265229524,-1.748688100653182,-0.888591785736697,-2.742720066182695,1.8465318250143747E-19,-0.0011344542745508244,1.4395114516192761E-18,1.6670041556279385E7,6.750836964471318E-17,1080.7038606392937,-0.476463671159677,0.0935926982019654,0.5731195538274192
4560.0,529929.241845872,-1.5046757064235559E7,-1.7824938993505795E7,1.4794775917468391E7,-2719025.867553822,-1.783635829302495E7,3038.2523102962236,2522.0903894409144,-4326.232533977511,-0.46425012191394804,0.08532120375061683,0.5596929320342564,0.0,1.3558399088494808,-3.1415926535521357,-1.1351909828502167,-3.1415926521196735,-1.829326284798117,-0.8738389497154553,-2.638241796030107,1.8465318250143747E-19,-0.0011344542745508244,1.451567273253801E-18,1.6967027095833454E7,6.716176740496928E-17,1079.7085522240418,-0.46425012191394804,0.08532120375061683,0.5596929320342564
4620.0,650463.5004993546,-1.5194588239109106E7,-1.8083366216032322E7,1.4976242517767506E7,-2567551.5876804376,-1.809493263646777E7,3010.751730885255,2526.9748635269734,-4293.041715585945,-0.45251326831253136,0.07757961712518395,0.5467457606611815,0.0,1.3602151780967846,3.1415926535053034,-1.0751163839853402,-3.141592651988836,-1.905580441654544,-0.8539196912514033,-2.53799630786072,1.8465318250143747E-19,-0.0011344542745508244,1.463623094888326E-18,1.7262902768470816E7,6.682589382616528E-17,1078.7392753962424,-0.45251326831253136,0.07757961712518395,0.5467457606611815
4680.0,769647.331391808,-1.5342106145700583E7,-1.833982627469808E7,1.515607993449482E7,-2415797.8737730794,-1.835153855781702E7,2983.941663917988,2531.409772044895,-4260.61388530357,-0.4412291706382614,0.07032956390316769,0.5342564946079889,0.0,1.3645904473440724,3.141592653408686,-1.0148444815254505,-3.141592651886183,-1.9766402711743567,-0.8292617644961215,-2.44274323801369,1.8465318250143747E-19,-0.0011344542745508244,1.475678916522851E-18,1.755767760753658E7,6.650027041449012E-17,1077.7950279843396,-0.4412291706382614,0.07032956390316769,0.5342564946079889
4740.0,887475.6840877759,-1.5489346655584862E7,-1.859436410635525E7,1.533432879716045E7,-2263790.836576308,-1.8606221024572574E7,2957.7956268079975,2535.4235361115866,-4228.922188359761,-0.43037529691995763,0.06353585255303902,0.5222046562280315,0.0,1.3689657165913447,3.141592653321449,-0.9543831834842673,-3.1415926517974615,-2.0420377972706296,-0.8003343988523598,-2.3528983338296343,1.8465318250143747E-19,-0.0011344542745508244,1.4877347381573759E-18,1.785136095445982E7,6.618444494514273E-17,1076.8748547203304,-0.43037529691995763,0.06353585255303902,0.5222046562280315
4800.0,1003944.0794930488,-1.5636343623264685E7,-1.8847023073954444E7,1.551102818607276E7,-2111554.9431389053,-1.8859023429188814E7,2932.288448903263,2539.042553323417,-4197.9409678000675,-0.4199304335573029,0.05716617700099042,0.5105707880923995,0.0,1.373340985838585,3.14159265325859,-0.8937399703052928,-3.141592651769454,-2.1016011448862133,-0.7676158977757184,-2.2685792504260345,1.8465318250143747E-19,-0.0011344542745508244,1.4997905597919008E-18,1.8143962406878084E7,6.587798984457615E-17,1075.9778449128137,-0.4199304335573029,0.05716617700099042,0.5105707880923995
4860.0,1119048.5530704805,-1.5783129004022826E7,-1.9097845036551517E7,1.5686215708732247E7,-1959113.1331954158,-1.9109987659136623E7,2907.396194928031,2542.2913627373505,-4167.645704688008,-0.4098746013630954,0.05119084994137015,0.4993364058790781,0.0,1.3777162550858253,3.1415926532642353,-0.8329219233325826,-3.141592651836764,-2.155387338021141,-0.7315693211662824,-2.189672296018793,1.8465318250143747E-19,-0.0011344542745508244,1.5118463814264257E-18,1.8435491772616357E7,6.558050067441657E-17,1075.1031302150666,-0.4098746013630954,0.05119084994137015,0.4993364058790781
4920.0,1232785.6036228947,-1.5929732963555919E7,-1.9346870415810492E7,1.5859927571780011E7,-1806486.9261123564,-1.9359154163458183E7,2883.0960933075125,2545.192794686451,-4138.012961117533,-0.4001889768263993,0.04558256343474796,0.4884839518866324,0.0,1.3820915243330338,3.141592653261845,-0.7719357512207623,-3.1415926518987387,-2.2036122536675924,-0.6926267388036117,-2.1159019837358577,1.8465318250143747E-19,-0.0011344542745508244,1.5239022030609506E-18,1.8725959028861508E7,6.5291594711744E-17,1074.249882489647,-0.4001889768263993,0.04558256343474796,0.4884839518866324
4980.0,1345152.1470649894,-1.6076183980047608E7,-1.959413825917695E7,1.6032198648787295E7,-1653696.5192613918,-1.9606562015989456E7,2859.3664690621754,2547.7681069738915,-4109.020325986461,-0.3908558183716267,0.0403161737534429,0.47799674954709187,0.0,1.3864667935802266,3.1415926532457608,-0.7107878143187041,-3.1415926519529878,-2.246588966263109,-0.6511808677072426,-2.0468921468282417,1.8465318250143747E-19,-0.0011344542745508244,1.5359580246954756E-18,1.901537428596074E7,6.501090962040435E-17,1073.4173117697064,-0.3908558183716267,0.0403161737534429,0.47799674954709187
5040.0,1456145.4746793064,-1.622250893926745E7,-1.9839686299882445E7,1.6203062544141559E7,-1500760.8785947694,-1.985224897541084E7,2836.1866809857916,2550.0371088153224,-4080.646363461056,-0.3818583973720039,0.03536850779768196,0.4678589592139366,0.0,1.3908420628273876,3.141592653326177,-0.6494841471494367,-3.141592652008968,-2.284679240012048,-0.6075822346029122,-1.9822138504228255,1.8465318250143747E-19,-0.0011344542745508244,1.5480138463300005E-18,1.9303747755324394E7,6.47381022080697E-17,1072.6046643160748,-0.3818583973720039,0.03536850779768196,0.4678589592139366
5100.0,1565763.2154000283,-1.6368733223253645E7,-2.0083551013933863E7,1.637255165329088E7,-1347697.8221205727,-2.0096251542280335E7,2813.537062823607,2552.018273755741,-4052.870564051833,-0.3731809336670402,0.030718188722825154,0.458055535420984,0.0,1.3952173320745327,3.1415926533906475,-0.5880304788817746,-3.141592652049263,-2.3182585318311815,-0.5621400135181639,-1.9214197268904127,1.8465318250143747E-19,-0.0011344542745508244,1.5600696679645254E-18,1.959108972098564E7,6.447284726397429E-17,1071.8112207686077,-0.3731809336670402,0.030718188722825154,0.458055535420984
5160.0,1674003.3017221163,-1.6514880793070175E7,-2.0325767674248807E7,1.6540697219572172E7,-1194524.0969066145,-2.0338605013210207E7,2791.3988681927376,2553.7288426460786,-4025.6732982039093,-0.3648085353307825,0.02634547869567369,0.4485721857456523,0.0,1.399592601321678,3.141592653440755,-0.5264322527811502,-3.141592652076745,-2.3476926052628313,-0.5151250283993957,-1.8640666216262236,1.8465318250143747E-19,-0.0011344542745508244,1.5721254895990504E-18,1.9877410514418874E7,6.421483647189346E-17,1071.03629438812,-0.3648085353307825,0.02634547869567369,0.4485721857456523
5220.0,1780863.9388735574,-1.6660974266088355E7,-2.0566370402082924E7,1.6707529387835653E7,-1041255.4501794562,-2.0579343532333348E7,2769.754218994362,2555.184917653272,-3999.0357723070574,-0.35672714244012627,0.022232136940795382,0.4393953313604779,0.0,1.4039678705687753,3.141592653479245,-0.4646946438766502,-3.1415926520941486,-2.373323111816135,-0.466773831358434,-1.8097291794611248,1.8465318250143747E-19,-0.0011344542745508244,1.5841813112335753E-18,2.016272049225822E7,6.39637773947112E-17,1070.2792293894768,-0.35672714244012627,0.022232136940795382,0.4393953313604779
5280.0,1886343.5769269143,-1.680703498822106E7,-2.080539221588573E7,1.687307725508053E7,-887906.6950291494,-2.081850014019611E7,2748.5860570856785,2556.4015481701194,-3972.939987020383,-0.34892347459796585,0.01836129145056113,0.43051206931730457,0.0,1.4083431398158728,3.141592653503212,-0.40282257541947675,-3.141592652101157,-2.3954595852607716,-0.41729314495541103,-1.758006909796035,1.8465318250143747E-19,-0.0011344542745508244,1.5962371328681002E-18,2.0447030016605623E7,6.371939252450648E-17,1069.5393993582613,-0.34892347459796585,0.01836129145056113,0.43051206931730457
5340.0,1990440.8855668593,-1.695308310147355E7,-2.104286507772723E7,1.7037368918274786E7,-734491.7711837196,-2.105610682021973E7,2727.8780989946836,2557.3928094022353,-3947.368697806704,-0.34138498197359773,0.014717322919289158,0.42191013657892584,0.0,1.4127184090629386,3.141592653522002,-0.34082073412861696,-3.141592652103857,-2.4143757384723505,-0.36686424523477884,-1.7085268223676449,1.8465318250143747E-19,-0.0011344542745508244,1.6082929545026251E-18,2.0730349437644947E7,6.348141839496069E-17,1068.8162057510492,-0.34138498197359773,0.014717322919289158,0.42191013657892584
5400.0,2093154.7312493015,-1.7099137607174326E7,-2.1278819937423162E7,1.7200431519549895E7,-581023.8012699857,-2.1292194542858746E7,2707.614793471218,2558.1718743243464,-3922.3053775739622,-0.33409979963246195,0.011285759625586039,0.4135778757887036,0.0,1.4170936783099726,3.141592653537722,-0.27869358436594127,-3.141592652105897,-2.430308468226716,-0.3156470625415164,-1.66094320697162,1.8465318250143747E-19,-0.0011344542745508244,1.62034877613715E-18,2.101268907832214E7,6.324960475153037E-17,1068.1090764745322,-0.33409979963246195,0.011285759625586039,0.4135778757887036
5460.0,2194484.156525396,-1.724521642520018E7,-2.151328677447906E7,1.736229128893005E7,-427515.14294032747,-2.152679330757628E7,2687.7812816871233,2558.7510796301167,-3897.7341813184134,-0.32705670493800065,0.00805318213099617,0.40550420275152355,0.0,1.4214689475570224,3.141592653524402,-0.21644538133216368,-3.1415926520943325,-2.4434584332652984,-0.26378390605314195,-1.614935667316833,1.8465318250143747E-19,-0.0011344542745508244,1.632404597771675E-18,2.129405922086581E7,6.302371377560664E-17,1067.4174645401852,-0.32705670493800065,0.00805318213099617,0.40550420275152355
5520.0,2294428.361323012,-1.7391336449478664E7,-2.1746294637974154E7,1.7522973584739666E7,-273977.4372086505,-2.1759932182757564E7,2668.363359903787,2559.1419862322064,-3873.6399126682472,-0.3202450778193686,0.005007136789616882,0.39767857558605735,0.0,1.4258442168040246,3.141592653509108,-0.1540801832189129,-3.1415926520834847,-2.4539914333098483,-0.21140279564920714,-1.5702061532513123,1.8465318250143747E-19,-0.0011344542745508244,1.6444604194062E-18,2.1574470094949313E7,6.280351935901926E-17,1066.740846790973,-0.3202450778193686,0.005007136789616882,0.39767857558605735
5580.0,2392986.6859936058,-1.7537513600059073E7,-2.197787168449293E7,1.7682502931853667E7,-120421.65330703912,-2.199163934366961E7,2649.347444442517,2559.3554348160587,-3850.0079922296522,-0.31365486371028334,0.002136057174787482,0.3900909654977955,0.0,1.430219486051027,3.141592653494364,-0.09160186266629036,-3.1415926520742885,-2.462040082243207,-0.15862042905084325,-1.5264754667752711,1.8465318250143747E-19,-0.0011344542745508244,1.6565162410407249E-18,2.1853931867330387E7,6.258880642549996E-17,1066.0787226966318,-0.31365486371028334,0.002136057174787482,0.3900909654977955
5640.0,2490158.595966539,-1.7683762871972457E7,-2.2208045214207422E7,1.784090305789856E7,33141.86965367676,-2.2221942108570088E7,2630.720538803527,2559.401596894561,-3826.824427640145,-0.30727653897585544,-5.708073727726491E-4,0.38273182911669995,0.0,1.4345947552979816,3.1415926534821077,-0.029014117350198352,-3.1415926520678723,-2.4677054529323423,-0.10554483425594503,-1.4834795287620444,1.8465318250143747E-19,-0.0011344542745508244,1.6685720626752498E-18,2.2132454632795133E7,6.237937029588961E-17,1065.4306132140716,-0.30727653897585544,-5.708073727726491E-4,0.38273182911669995
5700.0,2585943.667824135,-1.783009838113468E7,-2.2436841705219887E7,1.799819692755059E7,186703.38396203436,-2.2450866973075252E7,2612.470202789395,2559.2900217735396,-3804.0757852332495,-0.30110107865504476,-0.003123456784355027,0.3755920823372085,0.0,1.4389700245463648,3.1415926535016205,0.033679520092462244,-3.141592652050268,-2.471058495223226,-0.0522777679699265,-1.4409655662756438,1.8465318250143747E-19,-0.0011344542745508244,1.6806278843097747E-18,2.241004840628875E7,6.217501609417942E-17,1064.7960597097172,-0.30110107865504476,-0.003123456784355027,0.3755920823372085
5760.0,2680341.576825381,-1.797653340746489E7,-2.266428684624716E7,1.8154406775033925E7,340253.6972884036,-2.26784396428682E7,2594.5845234980397,2559.029679789378,-3781.749163232958,-0.29511992635806683,-0.005531199522581225,0.36866307559678557,0.0,1.4433452937933036,3.141592653538102,0.09647567292457561,-3.1415926520197237,-2.472141109281924,0.0010830760896344436,-1.3986882973312382,1.8465318250143747E-19,-0.0011344542745508244,1.6926837059442996E-18,2.2686723116090704E7,6.197555819142917E-17,1064.1746229400633,-0.29511992635806683,-0.005531199522581225,0.36866307559678557
5820.0,2773352.0853654845,-1.8123080435471818E7,-2.289040556774491E7,1.830955413493105E7,493784.1391583891,-2.2904685064845894E7,2577.052088060378,2558.6290021517957,-3759.8321663877477,-0.2893249661680102,-0.007802706625375711,0.3619365705270037,0.0,1.4477205630402266,3.141592653521008,0.1593711116286945,-3.1415926519735153,-2.4709668077038884,0.05444198432573625,-1.3564061382788075,1.8465318250143747E-19,-0.0011344542745508244,1.7047395275788246E-18,2.2962488597932816E7,6.178081968509528E-17,1063.5658820876847,-0.2893249661680102,-0.007802706625375711,0.3619365705270037
5880.0,2864975.032774469,-1.8269751192413945E7,-2.311522207154499E7,1.846365987140884E7,647286.5297221713,-2.312962745677802E7,2559.861958008954,2558.09591768635,-3738.3128819662684,-0.28370849640652146,-0.00994606103939567,0.3554047179111505,0.0,1.4520958322871176,3.1415926535022978,0.22236274595866098,-3.1415926519303476,-2.4675209331573207,0.10770320240121888,-1.3138774289105313,1.8465318250143747E-19,-0.0011344542745508244,1.7167953492133495E-18,2.3237354589954022E7,6.15906319117142E-17,1062.969433850832,-0.28370849640652146,-0.00994606103939567,0.3554047179111505
5940.0,2955210.3259720183,-1.841655668424825E7,-2.333875985910726E7,1.8616744205950964E7,800753.1506425143,-2.3353290335579358E7,2543.00364516629,2557.4378867478435,-3717.1798570391256,-0.27826320513227226,-0.011968802694636849,0.3490600368825815,0.0,1.4564711015339928,3.141592653484236,0.2854476172963822,-3.141592651888892,-2.461760422375174,0.16076891288894896,-1.270856657241948,1.8465318250143747E-19,-0.0011344542745508244,1.7288511708478744E-18,2.351133072841795E7,6.14048339897785E-17,1062.3848915809162,-0.27826320513227226,-0.011968802694636849,0.3490600368825815
6000.0,3044057.931043671,-1.8563507229501702E7,-2.3561041758431226E7,1.8768826743690327E7,954176.7179385867,-2.357569654424086E7,2526.4670889553527,2556.6619325462743,-3696.4220769715557,-0.2729821472511735,-0.013877969724853398,0.34289539529968205,0.0,1.4608463707808523,3.1415926534825043,0.34862289165309046,-3.1415926518407202,-2.453613126480141,0.21353714865519918,-1.2270906658836733,1.8465318250143747E-19,-0.0011344542745508244,1.7409069924823996E-18,2.3784426544093978E7,6.122327239158486E-17,1061.8118844678397,-0.2729821472511735,-0.013877969724853398,0.34289539529968205
6060.0,3131517.8656284884,-1.8710612491199214E7,-2.3782089949720945E7,1.8919926498414118E7,1107550.3566374052,-2.3796868277513064E7,2510.2426350379424,2555.7746701058772,-3676.028945061335,-0.26785872312467623,-0.01568013619662013,0.33690399123458825,0.0,1.4652216400276799,3.1415926534948424,0.4118858531158328,-3.1415926517847854,-2.4429767221870824,0.26589957805589587,-1.1823148361683173,1.8465318250143747E-19,-0.0011344542745508244,1.7529628141169245E-18,2.405665145924222E7,6.10458005417134E-17,1061.2500567693355,-0.26785872312467623,-0.01568013619662013,0.33690399123458825
6120.0,3217590.1920456253,-1.8857881506989744E7,-2.4001925989857722E7,1.9070061916331295E7,1260867.5770967312,-2.4016827106396433E7,2494.3210151933567,2554.782333057522,-3655.990263254068,-0.262886658571276,-0.017381446672701098,0.33107933551477625,0.0,1.4695969092745076,3.14159265350992,0.4752338976630173,-3.1415926517237516,-2.429717281837202,0.3177390974607144,-1.1362492767418138,1.8465318250143747E-19,-0.0011344542745508244,1.7650186357514494E-18,2.4328014785137154E7,6.087227844039286E-17,1060.6990670820496,-0.262886658571276,-0.017381446672701098,0.33107933551477625
