time,gePosition_m_X,gePosition_m_Y,gePosition_m_Z,eiPosition_m_X,eiPosition_m_Y,eiPosition_m_Z,eiVelocity_m_s_X,eiVelocity_m_s_Y,eiVelocity_m_s_Z,eiAccel_m_s2_X,eiAccel_m_s2_Y,eiAccel_m_s2_Z,semiMajorAxis_m,gast_rad,eulerAngle_rad_Roll,eulerAngle_rad_Pitch,eulerAngle_rad_Yaw,eulerAngleWrtEi_rad_Roll,eulerAngleWrtEi_rad_Pitch,eulerAngleWrtEi_rad_Yaw,bodyAngularRateWrtEi_rad_s_Roll,bodyAngularRateWrtEi_rad_s_Pitch,bodyAngularRateWrtEi_rad_s_Yaw,altitudeMsl_m,airDensity_kg_m3,ambientTemperature_dgK,eiGravitation_m_s2_X,eiGravitation_m_s2_Y,eiGravitation_m_s2_Z
0.0,-1428622.31112709,4163200.4655738,5136049.67204027,-4292653.41,955168.47,5139356.57,109.649663,-7527.72649,1484.521489,5.5289865693572,-1.23026788740987,-6.61954989994585,6758662.11722884,1.02331944621101,-0.0,-0.0,-0.0,-2.45673399369088,-0.195157863578589,-1.55662191625545,0.0,-0.0011344542745508,0.0,398252.763838142,3.1122E-12,976.192653674721,5.5289865693572,-1.23026788740987,-6.61954989994585
60.0,-1789712.64876688,3920255.3134273,5213136.60397904,-4276130.76360613,501640.15063872,5216447.94770978,440.899504425955,-7584.04304560366,1084.18939672292,5.50841669093322,-0.646201702281534,-6.71971240615587,6758662.11722887,1.02769471546425,-3.6E-15,2.8900729497E-6,7.0E-16,-2.46403808350274,-0.142273855138574,-1.51314545425421,0.0,-0.0011344542745508,0.0,398335.161468169,3.2024E-12,983.369143358291,5.50841669093322,-0.646201702281534,-6.71971240615587
120.0,-2144732.0333194,3662345.3126043,5266057.24088062,-4239785.46485071,45786.449266332,5269357.68010073,770.149856360686,-7605.20775889381,678.777242699508,5.46236021841803,-0.0589893241270332,-6.78881750197499,6758662.11722883,1.0320699847175,-2.2E-15,1.18821901608E-5,1.0E-15,-2.46898393749583,-0.0891285719195108,-1.47032473601906,0.0,-0.0011344542745508,0.0,398280.483168024,3.312E-12,991.275655191297,5.46236021841803,-0.0589893241270332,-6.78881750197499
180.0,-2492166.12299056,3390599.0029,5294562.85672707,-4183783.25764152,-410279.480789291,5297837.08956815,1095.87688042975,-7591.11290731489,270.159254331849,5.39101509822693,0.52866574084301,-6.82652947798943,6758662.11722882,1.03644525395931,-6.6E-15,2.74378411862E-5,5.0E-16,-2.47163344785323,-0.0358222887881591,-1.42790970548241,0.0,-0.0011344542745508,0.0,398085.3786748,3.4417E-12,999.861374013802,5.39101509822693,0.52866574084301,-6.82652947798943
240.0,-2830524.93283794,3106195.85223943,5298517.62697299,-4108380.89026465,-864442.894077516,5301750.47079899,1416.5720940025,-7541.81319429643,-139.77448384783,5.29469509567264,1.11405482451904,-6.83265572642931,6758662.11722884,1.04082052320969,-6.7E-15,4.99883423126E-5,-6.0E-16,-2.47201970720767,0.0175481294070802,-1.38565662496518,0.0,-0.0011344542745508,0.0,397748.768104346,3.5916E-12,1009.03826093396,5.29469509567264,1.11405482451904,-6.83265572642931
300.0,-3158349.27068251,2810361.12607352,5277899.32207647,-4013924.98616908,-1314597.20057467,5281075.78379538,1730.74928789973,-7457.52569377281,-549.126655787512,5.17382866282785,1.69447627941292,-6.80714795491088,6758662.11722881,1.04519579246293,-9.5E-15,7.99328296596E-5,4.4E-15,-2.47014753600732,0.0708871708738461,-1.34332428943728,0.0,-0.0011344542745508,0.0,397271.883714379,3.7614E-12,1018.68603174665,5.17382866282785,1.69447627941292,-6.80714795491088
360.0,-3474217.0876188,2504360.59818322,5232799.48200484,-3900850.50203112,-1758653.68795,5235904.82755069,2036.95136094463,-7338.62906255864,-956.00139364551,5.02895729882105,2.26724769265305,-6.75010277495461,6758662.1172288,1.04957106170188,-6.9E-15,1.176363958847E-4,2.3E-15,-2.46599356037772,0.124098662252716,-1.30067025372995,0.0,-0.0011344542745508,0.0,396658.271816294,3.9505E-12,1028.66356558606,5.02895729882105,2.26724769265305,-6.75010277495461
420.0,-3776749.7157209,2189495.1251204,5163423.06959608,-3769678.77900142,-2194551.17459278,5166442.89226163,2333.75704093037,-7185.6620201973,-1358.5129738363,4.86073340379137,2.82971808104516,-6.66176165594907,6758662.11722882,1.05394633095227,-8.0E-15,1.634283793488E-4,3.4E-15,-2.45950583704049,0.177083733269008,-1.25744705315704,0.0,-0.0011344542745508,0.0,395913.754633969,4.1579E-12,1038.82359594937,4.86073340379137,2.82971808104516,-6.66176165594907
480.0,-4064617.96585945,1867095.10630415,5070087.60293968,-3621015.19485927,-2620265.54951359,5073007.89024476,2619.7874617098,-6999.32109896086,-1754.79449109399,4.66991762971392,3.37928001560926,-6.54251023745084,6758662.11722886,1.05832160020265,-8.9E-15,2.176008138867E-4,3.2E-15,-2.45060304250778,0.229738697373182,-1.21339840239373,0.0,-0.0011344542745508,0.0,395046.352534709,4.3822E-12,1049.02643605174,4.66991762971392,3.37928001560926,-6.54251023745084
540.0,-4336548.05765017,1538514.85367808,4953221.76924825,-3455546.42660972,-3033819.1554875,4956028.9680342,2893.71256636816,-6780.45766980691,-2143.00647189947,4.45737573340151,3.91338162296548,-6.39287699509342,6758662.11722893,1.06269686945303,-1.09E-14,2.804070468335E-4,3.0E-15,-2.43917326977576,0.28195278436844,-1.16825537618662,0.0,-0.0011344542745508,0.0,394066.16768517,4.6222E-12,1059.14947100887,4.45737573340151,3.91338162296548,-6.39287699509342
600.0,-4591327.35512146,1205126.89368974,4813363.52501608,-3274037.3348504,-3433289.97224998,4816044.60446428,3154.25730682291,-6530.07425328215,-2521.34538840932,4.22407493918389,4.42953841007283,-6.21353125792587,6758662.11722894,1.06707213870913,-1.22E-14,3.520605321057E-4,4.1E-15,-2.4250725143468,0.333605660525283,-1.12173261217407,0.0,-0.0011344542745508,0.0,392985.230809613,4.8764E-12,1069.09131825969,4.22407493918389,4.42953841007283,-6.21353125792587
660.0,-4827809.88150349,868316.225201669,4651157.68959356,-3077327.48299947,-3816820.55719276,4653700.20187414,3400.20761071366,-6249.32012759414,-2888.05203397396,3.97107982105512,4.92534485815692,-6.00528057770761,6758662.11722897,1.0714474079538,-4.8E-15,4.327338045339E-4,4.7E-15,-2.4081229917076,0.384564672847043,-1.07352463756111,0.0,-0.0011344542745508,0.0,391817.313344238,5.1433E-12,1078.7715032867,3.97107982105512,4.92534485815692,-6.00528057770761
720.0,-5044921.58717981,529474.557546531,4467353.04163684,-2866327.30620534,-4182626.70183817,4469745.17990409,3630.41608710307,-5939.48624933574,-3241.41972144966,3.69954771645439,5.39848573122372,-5.76906745354871,6758662.11722898,1.07582267720419,-4.5E-15,5.225576408568E-4,2.7E-15,-2.3881115222722,0.434681759523281,-1.02330251806595,0.0,-0.0011344542745508,0.0,390577.707881745,5.4213E-12,1088.12741165133,3.69954771645439,5.39848573122372,-5.76906745354871
780.0,-5241665.34592555,189994.551533034,4262798.93021112,-2642013.94644413,-4529005.76339734,4265029.58367307,3843.80744331259,-5601.99950563094,-3579.80226580135,3.41072368629182,5.84674704437561,-5.50596541829295,6758662.11722894,1.08019794645171,-9.7E-15,6.216204119022E-4,4.0E-15,-2.36478836266357,0.483789982400115,-0.970711173942727,0.0,-0.0011344542745508,0.0,389282.980377661,5.7085E-12,1097.11022049672,3.41072368629182,5.84674704437561,-5.50596541829295
840.0,-5417125.65492679,-148735.911961008,4038441.41462094,-2405426.77194363,-4854344.63194301,4040500.22042338,4039.38358616868,-5238.41631975528,-3901.62171297128,3.10593503833543,6.26802663725425,-5.21717449618087,6758662.11722895,1.08457321569067,-8.1E-15,7.299676297517E-4,3.2E-15,-2.3378670727536,0.531699666175107,-0.915367922159344,0.0,-0.0011344542745508,0.0,387950.698134415,6.0029E-12,1105.68096071401,3.10593503833543,6.26802663725425,-5.21717449618087
900.0,-5570473.01547434,-485339.412664834,3795318.94930193,-2157662.60064381,-5157127.29514867,3797196.34098099,4216.22838203827,-4850.41563555375,-4205.37577765728,2.7865854336178,6.66034429835598,-4.90401604458787,6758662.11722896,1.08894848494105,-5.4E-15,8.476016927775E-4,2.5E-15,-2.3070263056264,0.578194183065673,-0.856863105181748,0.0,-0.0011344542745508,0.0,386599.138079688,6.3018E-12,1113.80733938154,2.7865854336178,6.66034429835598,-4.90401604458787
960.0,-5700967.97210349,-818454.597994031,3534557.63232429,-1899870.64890394,-5435941.96416277,3536244.88459677,4373.51205128819,-4439.79130921346,-4489.6449535128,2.45414859808208,7.02185138672565,-4.56792699598511,6758662.11722897,1.09332375419143,-8.6E-15,9.744818305139E-4,2.6E-15,-2.27191480548844,0.623025515222046,-0.794764068043584,0.0,-0.0011344542745508,0.0,385246.980300878,6.6025E-12,1121.46132185438,2.45414859808208,7.02185138672565,-4.56792699598511
1020.0,-5810755.12235215,-1156887.84227266,3249266.17036723,-1625505.97317225,-5696608.82016274,3250749.68255915,5285.837124281,-4716.32953440087,-5566.08605705197,41.0563297855886,-27.4070578110753,-45.2198064298752,1.08282289157275E7,1.09769902344753,-7.2E-15,0.0030754380494907,4.4E-15,-2.2321613860813,0.665909878663498,-0.728624235946939,0.0,-0.0011344542745508,0.0,384116.574718768,6.8824E-12,1128.84346609743,2.09994673755039,7.35929323203647,-4.19955466368481
1080.0,-5926580.74886348,-1604524.69765889,2854898.26840897,-1254387.02819926,-6009865.40472739,2856104.69025688,6495.44525005221,-5212.18485953873,-6965.46387729749,1.61053518342634,7.71619880019403,-3.66701583147828,0.0,1.10207429269791,-3.1E-15,0.0275315178633403,7.8E-15,-2.18739217347912,0.706523922081783,-0.65799955864494,0.0,-0.0011344542745508,0.0,396889.796253828,5.728E-12,1139.24004598308,1.61053518342634,7.71619880019403,-3.66701583147828
1140.0,-6023878.30128649,-2063562.75827922,2431021.35286823,-862075.764438615,-6308548.96929906,2431933.62213934,6576.33999215565,-4741.67824026448,-7167.51181453083,1.08525246386961,7.94172460796657,-3.0615197228201,0.0,1.10644956193401,-2.7E-15,0.0550165741665787,8.3E-15,-2.13725775893291,0.744502334881927,-0.58247495196592,0.0,-0.0011344542745508,0.0,440404.029290396,2.9585E-12,1150.7440521114,1.08525246386961,7.94172460796657,-3.0615197228201
1200.0,-6098003.85660831,-2512560.93649793,1996134.14764455,-465855.286407276,-6578688.37902696,1996748.12983509,6625.82832453842,-4262.24415787196,-7332.37617858811,0.567517565675905,8.01433690491926,-2.43249281692424,0.0,1.11082483119011,-2.3E-15,0.0808402321724283,1.0E-14,-2.08147277298249,0.779438099832883,-0.501703234399391,0.0,-0.0011344542745508,0.0,514467.638909755,1.0244E-12,1160.52708259443,0.567517565675905,8.01433690491926,-2.43249281692424
1260.0,-6149415.99572191,-2950065.85828582,1552491.1026052,-67582.9933301208,-6820019.51954997,1552804.09978279,6645.02391907725,-3782.84423922259,-7459.51383548463,0.0787105985503855,7.94294232998534,-1.80847479673395,0.0,1.11520010044049,-6.0E-16,0.104255979794355,1.17E-14,-2.01986919896827,0.810887038531595,-0.415457865277846,0.0,-0.0011344542745508,0.0,617807.018144012,2.589E-13,1167.82384266017,0.0787105985503855,7.94294232998534,-1.80847479673395
1320.0,-6178963.67712472,-3374933.09421416,1102329.8878681,330986.413162434,-7032793.89282224,1102340.57836949,6636.18864245461,-3311.61080851254,-7549.98992478148,-0.364540744263132,7.7457557711911,-1.21409229771944,0.0,1.11957536967945,1.1E-15,0.124642994391533,1.2E-14,-1.95246179217972,0.838378556462925,-0.323697840628991,0.0,-0.0011344542745508,0.0,748729.036761524,5.44E-14,1173.00686555207,-0.364540744263132,7.7457557711911,-1.21409229771944
1380.0,-6187809.0774505,-3786344.04572421,647783.393434652,728260.484728483,-7217714.10293997,647491.722714902,6602.41120766234,-2855.39001166195,-7606.17611437771,-0.751376770285953,7.44681721065295,-0.668044263834832,0.0,1.12395063893269,3.4E-15,0.141523234937168,1.2E-14,-1.87951878173284,0.861434308947364,-0.226637914824924,0.0,-0.0011344542745508,0.0,905233.090126703,1.25E-14,1176.53571778872,-0.751376770285953,7.44681721065295,-0.668044263834832
1440.0,-6177340.88358118,-4183797.4777986,190812.655847345,1122848.14248727,-7375848.40638067,190219.693600844,6547.25795908922,-2419.50207507299,-7631.36739846536,-1.07665038745154,7.07238115647836,-0.182393414627399,0.0,1.12832590818593,7.5E-15,0.154563721893297,1.35E-14,-1.80162410892884,0.87959551424681,-0.124810393801377,0.0,-0.0011344542745508,0.0,1085127.7457705,4.2E-15,1178.72303234305,-1.07665038745154,7.07238115647836,-0.182393414627399
1500.0,-6149088.74766573,-4567081.53959607,-266836.673448467,1513578.46390709,-7508537.10778605,-267728.894372902,6474.45228417481,-2007.70328582833,-7629.39110061851,-1.34008924543966,6.64789442177635,0.237041303505611,0.0,1.13270117743631,9.1E-15,0.163566898412745,1.03E-14,-1.71971120982424,0.892457591777031,-0.0190985003969277,0.0,-0.0011344542745508,0.0,1286139.01645466,2.0E-15,1179.78754739119,-1.34008924543966,6.64789442177635,0.237041303505611
1560.0,-6104646.81394222,-4936233.41180117,-723655.606814762,1899502.03990963,-7617301.57345184,-724844.256029376,6387.61820340082,-1622.30171574317,-7604.2626814127,-1.54505755559255,6.19592351153715,0.589589308606013,0.0,1.13707644668384,8.0E-15,0.168453089161364,1.1E-14,-1.63504724250391,0.899707930097659,0.0892797942445784,0.0,-0.0011344542745508,0.0,1506001.60517521,1.0E-15,1179.90668206351,-1.54505755559255,6.19592351153715,0.589589308606013
1620.0,-6045610.85285745,-5291493.36709003,-1178374.66081899,2279879.25733027,-7703763.31630203,-1179856.26997535,6290.10156561872,-1264.36736278366,-7559.91784497761,-1.69725521645845,5.73506357098313,0.878343536153664,0.0,1.14145171592279,1.17E-14,0.169239058151698,1.17E-14,-1.54915518001026,0.901159884053879,0.198850058322492,0.0,-0.0011344542745508,0.0,1742529.10688434,5.0E-16,1179.23772841482,-1.69725521645845,5.73506357098313,0.878343536153664
1680.0,-5973530.51261124,-5633258.66551393,-1629953.14474568,2654160.12270827,-7769577.13556978,-1631723.75395107,6184.86526526572,-933.982451701928,-7500.02816669448,-1.80357806059447,5.27965089292027,1.10880317219673,0.0,1.14582698517889,1.1E-14,0.166015919777813,9.5E-15,-1.46367961800108,0.896775125160469,0.308015962730531,0.0,-0.0011344542745508,0.0,1993662.97531629,3.0E-16,1177.92310764549,-1.80357806059447,5.27965089292027,1.10880317219673
1740.0,-5889875.999893,-5962040.97905532,-2077559.72499979,3021959.69977811,-7816379.42499313,-2079615.01207623,6074.44514760756,-630.49129913186,-7427.89238107803,-1.87124334629116,4.84002086201862,1.28772920250412,0.0,1.15020225442927,1.07E-14,0.158928625055448,9.4E-15,-1.38022338332082,0.886668423894424,0.415223039436622,0.0,-0.0011344542745508,0.0,2257502.57939572,2.0E-16,1176.09044465935,-1.87124334629116,4.84002086201862,1.28772920250412
1800.0,-5796017.21985839,-6278429.41303614,-2520548.36241134,3383032.30527144,-7845750.79533654,-2522883.75348383,5960.94991214106,-352.724607243878,-7346.38796113591,-1.90719457457206,4.4230654631924,1.42228325736732,0.0,1.15457752367966,8.3E-15,0.148158257666711,7.8E-15,-1.30019434193306,0.871093526058779,0.519112241863613,0.0,-0.0011344542745508,0.0,2532319.91300523,1.0E-16,1173.85187110163,-1.90719457457206,4.4230654631924,1.42228325736732
1860.0,-5693212.87770678,-6583059.91784193,-2958432.72327573,3737246.61744278,-7859191.06089855,-2961043.48492839,5846.08921270545,-99.1862048943468,-7257.96589390193,-1.9177480549268,4.03290173573006,1.51944358107697,0.0,1.15895279293004,6.3E-15,0.133907601978883,8.5E-15,-1.22469741385079,0.850414003335434,0.61862830508475,0.0,-0.0011344542745508,0.0,2816562.7924545,1.0E-16,1171.30390660403,-1.9177480549268,4.03290173573006,1.51944358107697
1920.0,-5582607.04052177,-6876591.01133415,-3390861.17958894,4084562.98727156,-7858104.22005456,-3393742.49392319,5731.21713904988,131.800436970219,-7164.67327075092,-1.90842357458952,3.67152897185486,1.58565266386444,0.0,1.16332806216899,1.13E-14,0.116389929922037,5.7E-15,-1.15448854888537,0.82506637539456,0.713066157615602,0.0,-0.0011344542745508,0.0,3108850.05036352,1.0E-16,1168.52809483037,-1.90842357458952,3.67152897185486,1.58565266386444
1980.0,-5465230.94358382,-7159685.22332644,-3817593.68396965,4425013.57939497,-7843791.08342843,-3820740.70847639,5617.38179783996,341.983021681109,-7068.1915116849,-1.8839014184061,3.33940876849746,1.62663881385077,0.0,1.16770333142223,1.01E-14,0.0958206637410318,7.7E-15,-1.08998626277067,0.79552320309565,0.802059791126272,0.0,-0.0011344542745508,0.0,3407961.62721188,1.0E-16,1165.59220382685,-1.8839014184061,3.33940876849746,1.62663881385077
2040.0,-5342008.2310817,-7432995.43714006,-4238481.17781381,4758685.51199338,-7817447.46907424,-4241889.09218293,5505.37491725051,533.103007839688,-6969.88145931867,-1.84805754873838,3.03594191519427,1.64735726661538,0.0,1.17207860067547,1.46E-14,0.0724114474613781,3.5E-15,-1.03132249141816,0.762261804398718,0.885531836609415,0.0,-0.0011344542745508,0.0,3712825.78704972,1.0E-16,1162.55174096578,-1.84805754873838,3.03594191519427,1.64735726661538
2100.0,-5213762.24425949,-7697155.24444332,-4653447.75801036,5085706.87971404,-7780166.24818608,-4657111.79997582,5395.77792236603,706.84362738455,-6870.82955618023,-1.80404110813112,2.75984048467441,1.65200656094267,0.0,1.17645386991157,1.59E-14,0.0463661416906359,9.0E-16,-0.978411256793013,0.725741281800815,0.963625360360805,0.0,-0.0011344542745508,0.0,4022505.06298265,1.0E-16,1159.4515757672,-1.80404110813112,2.75984048467441,1.65200656094267
2160.0,-5081224.34381615,-7952772.48126433,-5062475.55321747,5406235.38789667,-7732941.8983886,-5066391.04537633,5289.00272512795,864.797343009706,-6771.89162692218,-1.75436987840542,2.50940615134227,1.64408746650767,0.0,1.1808291391591,1.57E-14,0.0178782966809783,4.2E-15,-0.931017970823665,0.686388019310122,1.0366350609201,0.0,-0.0011344542745508,0.0,4336182.02395458,1.0E-16,1156.3275284267,-1.75436987840542,2.50940615134227,1.64408746650767
2220.0,-4945042.56165516,-8200425.21532117,-5465592.10447433,5720449.25897798,-7676676.55779761,-5469754.47379197,5185.32664752826,1008.44758727892,-6673.73243095938,-1.70102846525617,2.2827307353324,1.6264820535345,0.0,1.18520440840948,1.52E-14,-0.0128702752215361,-6.0E-16,-0.88881923573741,0.644588299077311,1.10494801703022,0.0,-0.0011344542745508,0.0,4653145.55802617,1.0E-16,1153.20783931185,-1.70102846525617,2.2827307353324,1.6264820535345
2280.0,-4805790.11933568,-8440659.57273404,-5862859.97000169,6028540.06016848,-7612186.85290199,-5867264.76147014,5084.92160063908,1139.1606173315,-6576.86024102961,-1.64556057344844,2.07783550210132,1.60153859294232,0.0,1.18957967766558,1.05E-14,-0.0457101344473403,5.2E-15,-0.851449212395454,0.600686145088924,1.1689979245819,0.0,-0.0011344542745508,0.0,4972778.07808786,1.0E-16,1150.11447748911,-1.64556057344844,2.07783550210132,1.60153859294232
2340.0,-4663973.52386497,-8673988.9125529,-6254368.25129737,6330707.12145151,-7540210.99432004,-6259011.13697514,4987.87801807109,1258.18426756697,-6481.65637561203,-1.58915115311974,1.89276407303494,1.57115383398637,0.0,1.1939549469131,9.7E-15,-0.080484295666987,7.9E-15,-0.818532670354935,0.554984582821014,1.2292327196693,0.0,-0.0011344542745508,0.0,5294543.85452273,1.0E-16,1147.06427493729,-1.58915115311974,1.89276407303494,1.57115383398637
2400.0,-4520040.07999454,-8900893.9613946,-6640225.74586575,6627153.24859944,-7461415.80224859,-6645102.53031051,4894.22420591195,1366.6512005206,-6388.39999278245,-1.53269695561568,1.7256412905656,1.53684818139876,0.0,1.19833021615206,1.16E-14,-0.117047937158456,5.4E-15,-0.789706813429729,0.507748868329553,1.2860935064045,0.0,-0.0011344542745508,0.0,5617978.54533206,1.0E-16,1144.06989058573,-1.53269695561568,1.7256412905656,1.53684818139876
2460.0,-4374384.74277339,-9121823.61113306,-7020555.45669807,6918081.47715425,-7376403.44677123,-7025662.07961377,4803.94180630026,1465.584918069,-6297.28863933877,-1.47686563301095,1.57470778303715,1.49983184048852,0.0,1.2027054854053,1.26E-14,-0.155267872132532,3.2E-15,-0.764634551662555,0.459210660774962,1.34000213284712,0.0,-0.0011344542745508,0.0,5942679.90952935,1.0E-16,1141.14061783427,-1.47686563301095,1.57470778303715,1.49983184048852
2520.0,-4227356.29123355,-9337196.15541296,-7395490.22065081,7203692.654318,-7285717.77637323,-7400822.75740989,4716.97803581703,1555.90730816909,-6208.45511472194,-1.42214434604407,1.43833764705817,1.46106153407529,0.0,1.20708075465283,1.24E-14,-0.195021878937927,3.0E-15,-0.743011718762826,0.409572477187508,1.3913549324269,0.0,-0.0011344542745508,0.0,6268299.63954864,1.0E-16,1138.28305354615,-1.42214434604407,1.43833764705817,1.46106153407529
2580.0,-4079262.84230214,-9547400.79765835,-7765169.25153094,7484183.67336462,-7189850.16936568,-7770723.91209793,4633.25528953433,1638.44688745939,-6121.98120460462,-1.36887920013375,1.31504473680269,1.42128825233263,0.0,1.21145602389464,7.5E-15,-0.23619795867881,1.6E-15,-0.72457026610702,0.359012042573761,1.4405206186971,0.0,-0.0011344542745508,0.0,6594536.22185751,1.0E-16,1135.50164760755,-1.36887920013375,1.31504473680269,1.42128825233263
2640.0,-3930376.7416398,-9752799.3101525,-8129735.42582914,7759746.21818207,-7089244.88439267,-8135508.55250223,4552.67861905473,1713.9471818538,-6037.90879697076,-1.31730690618247,1.20348152932468,1.38109691994907,0.0,1.21583129314788,7.1E-15,-0.278693567538794,1.2E-15,-0.709078951570653,0.307686336362942,1.48784083694329,0.0,-0.0011344542745508,0.0,6921128.72379257,1.0E-16,1132.79915138932,-1.31730690618247,1.20348152932468,1.38109691994907
2700.0,-3780938.88103179,-9953727.75722498,-8489333.16807331,8030565.90356801,-6984303.91326693,-8495321.23237102,4475.14151073841,1783.0748889983,-5956.24883468017,-1.26757999020457,1.10243337671024,1.3409390239521,0.0,1.22020656239826,7.9E-15,-0.322414855502293,4.2E-15,-0.696342595273999,0.255735255995879,1.53363232556687,0.0,-0.0011344542745508,0.0,7247851.40311942,1.0E-16,1130.1769817933,-1.26757999020457,1.10243337671024,1.3409390239521
2760.0,-3631162.49777649,-1.01504982211827E7,-8844106.81809776,8296821.7201695,-6875391.35624502,-8850306.41704628,4400.53031495489,1846.42760798331,-5876.98849515165,-1.21978673266799,1.01081009585398,1.30115925250216,0.0,1.22458183164864,7.5E-15,-0.367275931887932,3.1E-15,-0.686200627551789,0.203284890039218,1.5781899904474,0.0,-0.0011344542745508,0.0,7574509.0410434,1.0E-16,1127.63551551007,-1.21978673266799,1.01081009585398,1.30115925250216
2820.0,-3481236.50891666,-1.03434004902483E7,-9194199.38409184,8558685.71198114,-6762837.34962369,-9200607.23611123,4328.72761131573,1904.5410189557,-5800.09692670949,-1.17396685133405,0.927636220863663,1.26201712164969,0.0,1.22895710090188,6.6E-15,-0.413198170087826,9.5E-15,-0.678525402884966,0.150450433074824,1.62179045076546,0.0,-0.0011344542745508,0.0,7900932.90674687,1.0E-16,1125.17432599341,-1.17396685133405,0.927636220863663,1.26201712164969
2880.0,-3331328.43305595,-1.05327036811109E7,-9539751.60335726,8816322.82968927,-6646941.58048759,-9546364.54389926,4259.61473902924,1957.89546058044,-5725.52981570286,-1.13012377591199,0.852040795501561,1.22370445740177,0.0,1.23333237013798,5.9E-15,-0.460109558296834,9.4E-15,-0.673220579538438,0.097338794876923,1.66469579243632,0.0,-0.0011344542745508,0.0,8226977.27031845,1.0E-16,1122.79237368518,-1.13012377591199,0.852040795501561,1.22370445740177
2940.0,-3181586.94944996,-1.07186577790221E7,-9880901.24765017,9069890.91546424,-6527976.42518829,-9887716.22470431,4193.07367524343,2006.9218959259,-5653.23301006526,-1.08823421175337,0.783247267869238,1.18635948018801,0.0,1.23770763938837,8.4E-15,-0.507944099168108,8.0E-16,-0.670219748590571,0.0440509652857336,1.70715738460212,0.0,-0.0011344542745508,0.0,8552516.39010809,1.0E-16,1120.48815825342,-1.08823421175337,0.783247267869238,1.18635948018801
3000.0,-3032144.13587457,-1.09014950870787E7,-1.02177826222435E7,9319540.78460246,-6406189.74783198,-1.02247966918E7,4128.98840645792,2052.00728411419,-5583.14538369819,-1.04825555825645,0.720563830945969,1.15007812208193,0.0,1.24208290863875,1.13E-14,-0.556641258755215,-5.0E-15,-0.669485420756583,-0.0093158009651529,1.74941969202876,0.0,-0.0011344542745508,0.0,8877441.90946541,1.0E-16,1118.25984004,-1.04825555825645,0.720563830945969,1.15007812208193
3060.0,-2883117.42837418,-1.10814315796024E7,-1.0550526217833E7,9565416.37717562,-6281807.39349165,-1.05577365393686E7,4067.24590757921,2093.49939092818,-5515.20109148998,-1.01013163657272,0.663374403456543,1.11492310093928,0.0,1.2464581778777,1.34E-14,-0.606145463432761,-6.3E-15,-0.671008431317333,-0.0626659151217822,1.79172406419334,0.0,-0.0011344542745508,0.0,9201660.60614299,1.0E-16,1116.10533664235,-1.01013163657272,0.663374403456543,1.11492310093928
3120.0,-2734611.33666862,-1.12586681598657E7,-1.08792584825073E7,9807654.958959,-6155035.40858534,-1.08866623145428E7,4007.73681876442,2131.71108003621,-5449.33133618615,-0.973797089363749,0.611130345724093,1.08093118274962,0.0,1.25083344713094,1.37E-14,-0.656405642459132,-7.3E-15,-0.674807792198897,-0.115903437373443,1.83431250886395,0.0,-0.0011344542745508,0.0,9525092.4452066,1.0E-16,1114.02239942858,-0.973797089363749,0.611130345724093,1.08093118274962
3180.0,-2586718.94528142,-1.14333918245392E7,-1.12041016875474E7,1.00463873557133E7,-6026062.01823487,-1.1211696383312E7,3950.35589075683,2166.92413007458,-5385.46574489126,-0.939180740532623,0.563342939943761,1.04811898437479,0.0,1.25520871638133,1.79E-14,-0.707374813261528,-1.24E-14,-0.680930997766557,-0.168930048815769,1.87743146920792,0.0,-0.0011344542745508,0.0,9847668.89303231,1.0E-16,1112.00867388727,-0.939180740532623,0.563342939943761,1.04811898437479
3240.0,-2439523.23062929,-1.16057767378484E7,-1.15251738660886E7,1.02817382086569E7,-5895059.38767923,-1.15329568693165E7,3895.00225401753,2199.39262325836,-5323.53343389915,-0.906208142546876,0.519576623086398,1.01648760263288,0.0,1.25958398563171,1.68E-14,-0.759009706244752,-5.8E-15,-0.689454770483414,-0.22164294920337,1.92133562113967,0.0,-0.0011344542745508,0.0,1.01693314558967E7,1.0E-16,1110.06174699193,-0.906208142546876,0.519576623086398,1.01648760263288
3300.0,-2293098.21549093,-1.17759852208324E7,-1.18425888079203E7,1.05138262419051E7,-5762185.19211627,-1.1850557648795E7,3841.57955480105,2229.34594967332,-5263.46382508629,-0.874803490741219,0.479442935842858,0.986026300974647,0.0,1.26395925488209,1.64E-14,-0.81127042585043,-6.4E-15,-0.700486207845003,-0.273932616611774,1.96629169126939,0.0,-0.0011344542745508,0.0,1.0490030411831E7,1.0E-16,1108.1791841213,-0.874803490741219,0.479442935842858,0.986026300974647
3360.0,-2147509.98279756,-1.19441686606555E7,-1.21564560971022E7,1.07427645349418E7,-5627584.01677078,-1.21646083883599E7,3789.99599175508,2256.99146874921,-5205.18726461742,-0.844891045642484,0.442595137304305,0.95671544020567,0.0,1.26833452412105,1.86E-14,-0.86412014465145,-7.5E-15,-0.714164255873806,-0.325680364523664,2.01258226224083,0.0,-0.0011344542745508,0.0,1.08097237088788E7,1.0E-16,1106.35855760699,-0.844891045642484,0.442595137304305,0.95671544020567
3420.0,-2002817.56740951,-1.21104683453844E7,-1.24668811818049E7,1.09686607949704E7,-5491388.60659383,-1.24752146150026E7,3740.16427910774,2282.5168661766,-5148.6354846564,-0.81639617400085,0.408723428700682,0.928528803279037,0.0,1.27270979337429,2.9E-14,-0.917524827407245,-2.31E-14,-0.730661378200777,-0.376755632629187,2.06050947518218,0.0,-0.0011344542745508,0.0,1.11283760067449E7,1.0E-16,1104.59746857623,-0.81639617400085,0.408723428700682,0.928528803279037
3480.0,-1859073.73936965,-1.22750162301323E7,-1.27739654679749E7,1.11916176253706E7,-5353720.9828052,-1.27824778099242E7,3692.00155661239,2306.09224106079,-5093.74194068968,-0.789246095252033,0.377550727892023,0.901435434700561,0.0,1.27708506262181,2.93E-14,-0.97145298219453,-2.15E-14,-0.750185201971143,-0.427012952128958,2.11039844859568,0.0,-0.0011344542745508,0.0,1.14459578421238E7,1.0E-16,1102.89356342404,-0.789246095252033,0.377550727892023,0.901435434700561
3540.0,-1716325.69558254,-1.2437935639325E7,-1.3077806430174E7,1.14117327875535E7,-5214693.44150765,-1.30864955195416E7,3645.4292618049,2327.87195463701,-5040.44205057624,-0.763370401270022,0.348828937642631,0.875401091310736,0.0,1.28146033186077,3.0E-14,-1.02587543594143,-1.78E-14,-0.772979787652264,-0.476288538459357,2.16260009539867,0.0,-0.0011344542745508,0.0,1.17624449008247E7,1.0E-16,1101.24454601281,-0.763370401270022,0.348828937642631,0.875401091310736
3600.0,-1574615.6693366,-1.25993419106943E7,-1.33784977343508E7,1.16290994543274E7,-5074409.44782392,-1.33873614784215E7,3600.37297651966,2347.99626853905,-4988.67335622706,-0.738701402440421,0.32233565379558,0.850389382077808,0.0,1.28583560110829,3.87E-14,-1.08076513191475,-3.04E-14,-0.799325971019488,-0.524396490350908,2.21749281730801,0.0,-0.0011344542745508,0.0,1.2077817382221E7,1.0E-16,1099.64818645701,-0.738701402440421,0.32233565379558,0.850389382077808
3660.0,-1433981.46808708,-1.27593429857676E7,-1.36761293684227E7,1.18438064535171E7,-4932964.4374214,-1.36851657400219E7,3556.762256792,2366.59279749801,-4938.37562463655,-0.715174341441959,0.297871263494162,0.826362659171775,0.0,1.29021087036154,4.69E-14,-1.13609694692991,-4.36E-14,-0.829539942443573,-0.571124623469867,2.27548226894975,0.0,-0.0011344542745508,0.0,1.23920594436155E7,1.0E-16,1098.10232720072,-0.715174341441959,0.297871263494162,0.826362659171775
3720.0,-1294456.94957852,-1.29180399512338E7,-1.39707877774466E7,1.20559385010559E7,-4790446.53588509,-1.39799948120168E7,3514.53045307658,2383.77779848922,-4889.49090163589,-0.692727506990975,0.275256388035372,0.803282710261584,0.0,1.29458613960906,5.54E-14,-1.19184752626423,-5.38E-14,-0.863968846371106,-0.616230053211639,2.33699799842941,0.0,-0.0011344542745508,0.0,1.27051587138712E7,1.0E-16,1096.6048869574,-0.692727506990975,0.275256388035372,0.803282710261584
3780.0,-1156072.44372134,-1.30755275354866E7,-1.42625560008756E7,1.22655764231357E7,-4646937.20515625,-1.42719317937014E7,3473.61452599961,2399.65731575528,-4841.963529049,-0.671302272644788,0.254329629447738,0.781111292093181,0.0,1.29896140886516,6.81E-14,-1.24799513445328,-7.09E-14,-0.902981707781561,-0.659434782450528,2.40248529190138,0.0,-0.0011344542745508,0.0,1.30171058671581E7,1.0E-16,1095.15386296901,-0.671302272644788,0.254329629447738,0.781111292093181
3840.0,-1018855.12529925,-1.32318945643908E7,-1.45515138099709E7,1.24727973672665E7,-4502511.82516065,-1.45610565135458E7,3433.95486153186,2414.32819881175,-4795.74013377472,-0.650843080150965,0.234945584251556,0.759810537482125,0.0,1.30333667810126,8.27E-14,-1.30451952033409,-8.53E-14,-0.946953476873355,-0.700421766384402,2.47239003141125,0.0,-0.0011344542745508,0.0,1.33278942489431E7,1.0E-16,1093.74733193842,-0.650843080150965,0.234945584251556,0.759810537482125
3900.0,-882829.346940403,-1.3387224379508E7,-1.48377378438962E7,1.26776750023043E7,-4357240.21778602,-1.48474456654253E7,3395.49508843775,2427.87900847285,-4750.76959558909,-0.631297382437175,0.21697309196192,0.739343261501618,0.0,1.30771194735164,9.47E-14,-1.36140179486844,-1.009E-13,-0.996239580882421,-0.738832233359828,2.54713397055395,0.0,-0.0011344542745508,0.0,1.36375195474485E7,1.0E-16,1092.38344995268,-0.631297382437175,0.21697309196192,0.739343261501618
3960.0,-748016.932319901,-1.35415952225226E7,-1.51213017433863E7,1.28802797076458E7,-4211187.11952303,-1.51311729424191E7,3358.18190005692,2440.39082410437,-4707.00299907177,-0.612615557898309,0.200293689671147,0.719673187553017,0.0,1.31208721660202,1.442E-13,-1.41862432043297,-1.533E-13,-1.0511383985939,-0.774265431794055,2.62707785709776,0.0,-0.0011344542745508,0.0,1.39459795047355E7,1.0E-16,1091.06045160681,-0.612615557898309,0.200293689671147,0.719673187553017
4020.0,-614437.438945763,-1.36950805884244E7,-1.54022762811721E7,1.30806787518978E7,-4064412.60834084,-1.54123091673565E7,3321.96488185991,2451.93796369484,-4664.39357394835,-0.594750804948168,0.184800247471981,0.700765109919498,0.0,1.31646248583812,2.4E-13,-1.47617061040216,-2.488E-13,-1.11184005836882,-0.806282392216612,2.71247081523811,0.0,-0.0011344542745508,0.0,1.42532736623649E7,1.0E-16,1089.77664854316,-0.594750804948168,0.184800247471981,0.700765109919498
4080.0,-482108.39226244,-1.38477495504149E7,-1.56807294885703E7,1.32789364613992E7,-3916972.48971624,-1.5690922419525E7,3286.79634574654,2462.58862691605,-4622.89662724453,-0.577659023700493,0.170395762555879,0.682585006123897,0.0,1.3208377550885,6.158E-13,-1.53402523797528,-6.268E-13,-1.17836259759189,-0.834415591626914,2.80338703575529,0.0,-0.0011344542745508,0.0,1.45594031372773E7,0.0,1088.53042754769,-0.577659023700493,0.170395762555879,0.682585006123897
4140.0,-351045.492711028,-1.3999667059059E7,-1.59567267778329E7,1.34751143790176E7,-3768918.64616352,-1.59670781571287E7,3252.63117169562,2472.40547009769,-4582.46946993171,-0.561298690002239,0.156992292556022,0.665100109778297,0.0,1.32521302433889,3.1415926535888,-1.54941890027908,-3.14159265358881,-1.25048136243557,-0.858186313691814,2.89965566210666,0.0,-0.0011344542745508,0.0,1.48643704241146E7,0.0,1087.32024831608,-0.561298690002239,0.156992292556022,0.665100109778297
4200.0,-221262.802432862,-1.41508942177677E7,-1.6230331059989E7,1.3669271413676E7,-3620299.35411003,-1.62408393352354E7,3219.42665710076,2481.44612094897,-4543.07134016852,-0.54563072576108,0.144510011124595,0.648278952496892,0.0,1.32958829359213,3.14159265358951,-1.49099004545855,-3.14159265358952,-1.32766428321176,-0.877130650596936,3.00079651584372,0.0,-0.0011344542745508,0.0,1.51681792207088E7,0.0,1086.14464100711,-0.54563072576108,0.144510011124595,0.648278952496892
4260.0,-92772.9110357277,-1.43014885368208E7,-1.65016028580273E7,1.38614639810723E7,-3471159.57152202,-1.65122665190567E7,3187.14237392195,2489.76363990516,-4504.66332477943,-0.530618368511588,0.13287637086526,0.632091381742537,0.0,1.33396356284251,3.14159265358961,-1.43229356653593,-3.14159265358963,-1.40903226039795,-0.890833208010348,3.10598090373264,0.0,-0.0011344542745508,0.0,1.54708342738983E7,0.0,1085.00220364253,-0.530618368511588,0.13287637086526,0.632091381742537
4320.0,34412.9157197941,-1.44515041677254E7,-1.67706004153522E7,1.40517461360635E7,-3321541.19929792,-1.67814179924986E7,3155.74003363019,2497.40693414106,-4467.20828024466,-0.516227042389108,0.122025360612406,0.616508560109085,0.0,1.33833883208147,3.14159265358967,-1.37334140861277,-3.14159265358969,-1.49336613008359,-0.898964784294559,-3.06914632521991,0.0,-0.0011344542745508,0.0,1.57723412431991E7,0.0,1083.89159942398,-0.516227042389108,0.122025360612406,0.616508560109085
4380.0,160284.602343466,-1.46009921196312E7,-1.70373797995154E7,1.42401696971765E7,-3171483.31910625,-1.70483498619797E7,3125.18335981098,2504.42112956376,-4430.67075417747,-0.502424232079435,0.111896845686512,0.601502950440617,0.0,1.34271410133185,3.14159265358971,-1.31414480366007,-3.14159265358974,-1.57917482047755,-0.901317468987387,-2.95965701198486,0.0,-0.0011344542745508,0.0,1.6072706580181E7,0.0,1082.81155401108,-0.502424232079435,0.111896845686512,0.601502950440617
4440.0,284833.145234609,-1.4750000459333E7,-1.73019950012738E7,1.44267843636995E7,-3021022.41004638,-1.7313116155573E7,3095.43796821296,2510.84790545815,-4395.01690802922,-0.489179360847761,0.10243598118592,0.587048290302057,0.0,1.34708937058509,3.14159265358973,-1.25471432274004,-3.14159265358976,-1.66482213993827,-0.897829261427078,-2.85032437043657,0.0,-0.0011344542745508,0.0,1.63719374216729E7,0.0,1081.76085279523,-0.489179360847761,0.10243598118592,0.587048290302057
4500.0,408050.505175111,-1.48985744962506E7,-1.7564498029067E7,1.46116378257941E7,-2870192.5462468,-1.75757689175607E7,3066.47125397299,2516.72579590095,-4360.21444157434,-0.476463673393227,0.0935926896241893,0.573119558602008,0.0,1.35146463983547,3.14159265358974,-1.1950599237748,-3.14159265358976,-1.74868810198843,-0.888591785372205,-2.74272006639717,0.0,-0.0011344542745508,0.0,1.66700414951606E7,0.0,1080.73833820511,-0.476463673393227,0.0935926896241893,0.573119558602008
4560.0,529929.511140501,-1.5046756953676E7,-1.78249389990302E7,1.4794775868047E7,-2719025.5772836,-1.7836358298522E7,3038.25228571293,2522.09046157069,-4326.23251957633,-0.464250124001958,0.085321195310885,0.559692936593656,0.0,1.35583990908586,3.14159265358974,-1.13519099528856,-3.14159265358977,-1.82932628600195,-0.873838949221743,-2.63824179637947,0.0,-0.0011344542745508,0.0,1.69670270349454E7,0.0,1079.74290706119,-0.464250124001958,0.085321195310885,0.559692936593656
4620.0,650463.774314859,-1.51945881274104E7,-1.8083366220686E7,1.49762424668674E7,-2567551.29309759,-1.80949326410931E7,3010.75170618104,2526.97493515451,-4293.04170091736,-0.452513270263699,0.0775796088224261,0.546745765016658,0.0,1.36021517832195,3.14159265358975,-1.07511639650477,-3.14159265358977,-1.90558044268662,-0.853919690649244,-2.53799630838949,0.0,-0.0011344542745508,0.0,1.72629027078119E7,0.0,1078.77350799318,-0.452513270263699,0.0775796088224261,0.546745765016658
4680.0,769647.609496794,-1.53421060329065E7,-1.83398262784649E7,1.51560798821091E7,-2415797.57490748,-1.83515385615544E7,2983.94163910062,2531.40984317824,-4260.61387037941,-0.441229172460731,0.0703295557360663,0.534256498770118,0.0,1.36459044757234,3.14159265358975,-1.01484449414079,-3.14159265358977,-1.97664027200836,-0.829261763809036,-2.44274323875131,0.0,-0.0011344542745508,0.0,1.75576775471046E7,0.0,1077.82913893924,-0.441229172460731,0.0703295557360663,0.534256498770118
4740.0,887475.96651032,-1.54893465417289E7,-1.85943641092204E7,1.53343287432825E7,-2263790.53345738,-1.86062210274073E7,2957.79560188496,2535.42360675904,-4228.92217319142,-0.430375298621299,0.063535844520067,0.522204660206741,0.0,1.36896571681986,3.14159265358976,-0.954383196206879,-3.14159265358978,-2.04203779789163,-0.800334398101605,-2.3528983347908,0.0,-0.0011344542745508,0.0,1.7851360894253E7,0.0,1076.90884472535,-0.430375298621299,0.063535844520067,0.522204660206741
4800.0,1003944.36639666,-1.56363435083707E7,-1.88470230759039E7,1.55110281306963E7,-2111554.63579551,-1.88590234311069E7,2932.28842388134,2539.04262349288,-4197.94095239821,-0.419930435144579,0.057166169100446,0.510570791897016,0.0,1.37334098605596,3.14159265358977,-0.893739983085354,-3.14159265358979,-2.10160114533424,-0.767615896979814,-2.26857925152077,0.0,-0.0011344542745508,0.0,1.81439623468946E7,0.0,1076.011714743,-0.419930435144579,0.057166169100446,0.510570791897016
4860.0,1119048.84412843,-1.57831288881461E7,-1.90978450375711E7,1.56862156518516E7,-1959112.82165597,-1.91099876601238E7,2907.39616981417,2542.29143243657,-4167.64568906282,-0.409874602842936,0.0511908421714168,0.499336409518383,0.0,1.37771625531206,3.14159265358977,-0.83292193613766,-3.14159265358978,-2.15538733835645,-0.731569320368898,-2.18967229715693,0.0,-0.0011344542745508,0.0,1.84354917128538E7,0.0,1075.13688071922,-0.409874602842936,0.0511908421714168,0.499336409518383
4920.0,1232785.89900019,-1.59297328467205E7,-1.93468704158869E7,1.58599275133905E7,-1806486.61040487,-1.93591541635011E7,2883.09606810784,2545.19286392336,-4138.01294527873,-0.400188978204986,0.0455825557934321,0.488483955368853,0.0,1.38209152455673,3.14159265358977,-0.771935764062252,-3.14159265358978,-2.20361225389053,-0.692626738016447,-2.11590198491919,0.0,-0.0011344542745508,0.0,1.87259589693182E7,0.0,1074.2835145764,-0.400188978204986,0.0455825557934321,0.488483955368853
4980.0,1345152.44661039,-1.60761838622992E7,-1.95941382582982E7,1.60321985888833E7,-1653696.1994134,-1.96065620150763E7,2859.36644378276,2547.76817575601,-4109.02030994317,-0.390855819654718,0.0403161662387214,0.477996752880009,0.0,1.38646679380997,3.14159265358977,-0.710787827204034,3.14159265358979,-2.24658896637264,-0.651180866937731,-2.04689214805516,0.0,-0.0011344542745508,0.0,1.90153742266346E7,0.0,1073.45082640276,-0.390855819654718,0.0403161662387214,0.477996752880009
5040.0,1456145.77842344,-1.62225088206386E7,-1.98396862980363E7,1.62030624827183E7,-1500760.55463326,-1.98522489735292E7,2836.18665563204,2550.03717715033,-4080.64634722218,-0.381858398565017,0.0353685004074403,0.467858962404871,0.0,1.39084206306035,3.14159265358978,-0.649484159996279,3.14159265358979,-2.28467924016137,-0.607582233804694,-1.98221385160371,0.0,-0.0011344542745508,0.0,1.9303747696213E7,0.0,1072.63806250413,-0.381858398565017,0.0353685004074403,0.467858962404871
5100.0,1565763.52351563,-1.63687331037632E7,-2.0083551011109E7,1.63725515903446E7,-1347697.49407215,-2.00962515394189E7,2813.53703740081,2552.01834165102,-4052.87054762552,-0.373180934775032,0.0307181814548937,0.458055538476804,0.0,1.3952173322993,3.14159265358978,-0.588030491698228,3.14159265358978,-2.31825853200587,-0.56214001268843,-1.92141972804029,0.0,-0.0011344542745508,0.0,1.95910896620873E7,0.0,1071.84450355897,-0.373180934775032,0.0307181814548937,0.458055538476804
5160.0,1674003.61400975,-1.65148806727705E7,-2.03257676704347E7,1.65406971550985E7,-1194523.76479751,-2.03386050093586E7,2791.39884270594,2553.72891010886,-4025.67328159808,-0.364808536358479,0.026345471547847,0.44857218867285,0.0,1.39959260154969,3.14159265358978,-0.526432265575837,3.14159265358978,-2.34769260544883,-0.515125027537667,-1.86406662275868,0.0,-0.0011344542745508,0.0,1.98774104557319E7,0.0,1071.06946286175,-0.364808536358479,0.026345471547847,0.44857218867285
5220.0,1780864.25527129,-1.66609741450214E7,-2.05663703972687E7,1.67075293218316E7,-1041255.11403534,-2.05793435274805E7,2769.75419344819,2555.18498469061,-3999.03575552931,-0.356727143391986,0.0222321299108397,0.439395334165165,0.0,1.40396787080293,3.14159265358978,-0.464694656658841,3.14159265358978,-2.37332311200134,-0.466773830466736,-1.80972918058794,0.0,-0.0011344542745508,0.0,2.01627204337804E7,0.0,1070.31228465381,-0.356727143391986,0.0222321299108397,0.439395334165165
5280.0,1886343.8977084,-1.68070348663903E7,-2.08053922100607E7,1.68730771875419E7,-887906.354875376,-2.08185001343314E7,2748.58603148463,2556.40161478915,-3972.93997007776,-0.348923475478182,0.0183612845362331,0.430512072005294,0.0,1.40834314003902,3.14159265358978,-0.402822588194805,3.14159265358978,-2.39545958543157,-0.4172931440331,-1.75800691092617,0.0,-0.0011344542745508,0.0,2.04470299583341E7,0.0,1069.57234254185,-0.348923475478182,0.0183612845362331,0.430512072005294
5340.0,1990441.21048023,-1.69530829789402E7,-2.10428650708816E7,1.70373688491981E7,-734491.427045189,-2.10561068133334E7,2727.87807334274,2557.39287560983,-3947.36868070612,-0.341384982786088,0.0147173161183367,0.421910139155681,0.0,1.41271840928941,3.14159265358979,-0.340820746909299,3.14159265358978,-2.41437573862197,-0.366864244290101,-1.70852682351004,0.0,-0.0011344542745508,0.0,2.07303493795773E7,0.0,1068.84903800201,-0.341384982786088,0.0147173161183367,0.421910139155681
5400.0,2093155.06028107,-1.70991374839749E7,-2.12788199295475E7,1.72004314489329E7,-581023.453171173,-2.12921945349414E7,2707.61476777253,2558.17194012724,-3922.305360322,-0.334099800380903,0.0112857529357587,0.41357787825936,0.0,1.41709367853979,3.14159265358979,-0.278693597171283,3.14159265358978,-2.43030846834975,-0.315647061590642,-1.66094320813657,0.0,-0.0011344542745508,0.0,2.10126890204565E7,0.0,1068.14179895379,-0.334099800380903,0.0112857529357587,0.41357787825936
5460.0,2194484.48966279,-1.72452163013697E7,-2.15132867655649E7,1.73622912167692E7,-427514.790905324,-2.15267932986194E7,2687.78125594553,2558.75114503482,-3897.73416392125,-0.327056705625835,0.0080531755500546,0.405504205120968,0.0,1.42146894779017,3.14159265358979,-0.216445394153526,3.14159265358978,-2.44345843333729,-0.263783905083046,-1.61493566850502,0.0,-0.0011344542745508,0.0,2.12940591632E7,0.0,1067.4500784187,-0.327056705625835,0.0080531755500546,0.405504205120968
5520.0,2294428.69860235,-1.73913363250472E7,-2.17462946280134E7,1.75229735110333E7,-273977.081261142,-2.1759932172753E7,2668.36333412266,2559.14205124534,-3873.63989513189,-0.320245078449833,0.0050071303153364,0.397678577858867,0.0,1.4258442170377,3.14159265358979,-0.154080196069682,3.14159265358978,-2.45399143332805,-0.211402794672653,-1.57020615446741,0.0,-0.0011344542745508,0.0,2.1574470037482E7,0.0,1066.77335324682,-0.320245078449833,0.0050071303153364,0.397678577858867
5580.0,2392987.02755345,-1.75375134750409E7,-2.19778716734766E7,1.76825028565991E7,-120421.293470334,-2.19916393326084E7,2649.34741862506,2559.35549944379,-3850.00797456005,-0.313654864286452,0.0021360508049651,0.390090967678347,0.0,1.43021948627666,3.14159265358979,-0.0916018755622935,3.14159265358978,-2.46204008220829,-0.158620428083223,-1.52647546802428,0.0,-0.0011344542745508,0.0,2.18539318100587E7,0.0,1066.11112291243,-0.313654864286452,0.0021360508049651,0.390090967678347
5640.0,2490158.94154442,-1.7683762746437E7,-2.22080452021282E7,1.78409029810941E7,33142.2333566422,-2.2221942096445E7,2630.72051295301,2559.40166114321,-3826.82440984232,-0.307276539500587,-5.708136403153E-4,0.3827318312091,0.0,1.4345947555299,-3.14159265358979,-0.029014130309236,3.14159265358978,-2.46770545284813,-0.105544833314783,-1.48347953004925,0.0,-0.0011344542745508,0.0,2.21324545757177E7,0.0,1065.46290837503,-0.307276539500587,-5.708136403153E-4,0.3827318312091
5700.0,2585944.01748342,-1.78300982551071E7,-2.24368416920704E7,1.79981968491945E7,186703.751508691,-2.24508669598788E7,2612.47017690889,2559.29008564909,-3804.07576731243,-0.301101079131041,-0.0031234629517677,0.375592084345352,0.0,1.43897002478028,-3.14159265358979,0.0336795070898459,3.14159265358979,-2.47105849512447,-0.0522777670349083,-1.44096556759405,0.0,-0.0011344542745508,0.0,2.24100483494038E7,0.0,1064.82825099948,-0.301101079131041,-0.0031234629517677,0.375592084345352
5760.0,2680341.93073387,-1.79765332809534E7,-2.26642868320202E7,1.81544066951244E7,340254.068656562,-2.26784396285932E7,2594.58449759027,2559.02974329786,-3781.74914519404,-0.295119926787879,-0.0055312055919828,0.368663077524379,0.0,1.44334529401923,-3.14159265358979,0.0964756598909761,-3.14159265358979,-2.47214110918533,0.0010830770346514,-1.39868829867987,0.0,-0.0011344542745508,0.0,2.26867230593961E7,0.0,1064.20671153996,-0.295119926787879,-0.0055312055919828,0.368663077524379
5820.0,2773352.44335888,-1.81230803085333E7,-2.28904055524319E7,1.83095540534663E7,493784.514326179,-2.29046850494837E7,2577.0520621282,2558.62906529899,-3759.83214823534,-0.289324966554079,-0.007802712598852,0.361936572377579,0.0,1.44772056326676,-3.14159265358979,0.159371098595949,-3.14159265358978,-2.47096680755212,0.0544419853135389,-1.35640613964667,0.0,-0.0011344542745508,0.0,2.29624885414251E7,0.0,1063.59786917637,-0.289324966554079,-0.007802712598852,0.361936572377579
5880.0,2864975.39484122,-1.82697510650831E7,-2.31152220551407E7,1.84636597883874E7,647286.908668109,-2.31296274403236E7,2559.86193205486,2558.09598047802,-3738.31286370505,-0.283708496751077,-0.0099460669189962,0.355404719688012,0.0,1.45209583251429,-3.14159265358979,0.222362732908335,-3.14159265358978,-2.46752093294638,0.107703203413478,-1.3138774303028,0.0,-0.0011344542745508,0.0,2.32373545336325E7,0.0,1063.00132060078,-0.283708496751077,-0.0099460669189962,0.355404719688012
5940.0,2955210.69204837,-1.84165565565688E7,-2.33387598416055E7,1.86167441213722E7,800753.533345435,-2.33532903180263E7,2543.00361919272,2557.43794918959,-3717.17983867336,-0.278263205437449,-0.0119688084823739,0.349060038588873,0.0,1.45647110176467,-3.14159265358979,0.285447604212573,-3.14159265358977,-2.46176042210434,0.160768913910078,-1.27085665866307,0.0,-0.0011344542745508,0.0,2.3511330672281E7,0.0,1062.41667915782,-0.278263205437449,-0.0119688084823739,0.349060038588873
6000.0,3044058.30111763,-1.85635071015082E7,-2.35610417398259E7,1.87688266575524E7,954177.104377658,-2.35756965255832E7,2526.46706296466,2556.66199464348,-3696.42205850547,-0.272982147518988,-0.0138779754227018,0.34289539693841,0.0,1.46084637101505,-3.14159265358979,0.348622878537025,-3.14159265358977,-2.45361312616172,0.213537149687987,-1.22709066733339,0.0,-0.0011344542745508,0.0,2.37844264881394E7,0.0,1061.84357402933,-0.272982147518988,-0.0138779754227018,0.34289539693841
6060.0,3131518.23984833,-1.87106123629E7,-2.37820899300058E7,1.89199264107164E7,1107550.74679209,-2.37968682577445E7,2510.24260903217,2555.77473186389,-3676.02892649877,-0.267858723357042,-0.0156801418065153,0.336903992808596,0.0,1.46522164025686,-3.14159265358979,0.411885839965121,-3.14159265358977,-2.44297672183024,0.265899579100585,-1.1823148376487,0.0,-0.0011344542745508,0.0,2.4056651403468E7,0.0,1061.28164946404,-0.267858723357042,-0.0156801418065153,0.336903992808596
6120.0,3217590.57040245,-1.88578813784184E7,-2.40019259690275E7,1.90700618270731E7,1260867.97094685,-2.40168270855118E7,2494.32098917471,2554.78239448157,-3655.99024459893,-0.262886658769984,-0.0173814521965386,0.331079337026757,0.0,1.46959690949868,-3.14159265358979,0.475233884461747,-3.14159265358977,-2.42971728144226,0.317739098505413,-1.13624927826152,0.0,-0.0011344542745508,0.0,2.43280147295418E7,0.0,1060.73056404834,-0.262886658769984,-0.0173814521965386,0.331079337026757
6180.0,3302275.39341806,-1.9005322588797E7,-2.42205708138007E7,1.92192508078448E7,1414122.65040096,-2.42355939795031E7,2478.69330232957,2553.69085953957,-3636.29619513334,-0.25805998633022,-0.0189876533419695,0.325415236711647,0.0,1.47397217874906,-3.14159265358979,0.538664514084674,-3.14159265358978,-2.41366762242538,0.368927168176365,-1.08859509777308,0.0,-0.0011344542745508,0.0,2.4598525664654E7,0.0,1060.18999001851,-0.25805998633022,-0.0189876533419695,0.325415236711647
6240.0,3385572.84291458,-1.91529438645969E7,-2.44380448435463E7,1.93675107307557E7,1567309.00121727,-2.44531893322533E7,2463.3509967174,2552.50567047725,-3616.93732350386,-0.253373027866111,-0.0205041232588352,0.3199057797478,0.0,1.47834744799087,3.14159265358979,0.602175331553394,-3.14159265358978,-2.39462563881943,0.419320831310254,-1.03903092545515,0.0,-0.0011344542745508,0.0,2.4868193292549E7,0.0,1059.65961260538,-0.253373027866111,-0.0205041232588352,0.3199057797478
6300.0,3467483.08017914,-1.9300752531772E7,-2.46543678810684E7,1.95148584704776E7,1720421.56259366,-2.4669632979501E7,2448.2858529836,2551.23205844177,-3597.90452178453,-0.248820378084823,-0.02193589793733,0.314545320144617,0.0,1.4827227172384,-3.14159265358979,0.665764035149836,-3.14159265358977,-2.37235294334097,0.468759366461229,-0.98720997337124,0.0,-0.0011344542745508,0.0,2.51370265812372E7,0.0,1059.13912942041,-0.248820378084823,-0.02193589793733,0.314545320144617
6360.0,3548006.29016665,-1.94487553955053E7,-2.48695592130702E7,1.96613104180937E7,1873455.17872608,-2.48849442205187E7,2433.48996829058,2549.87496206285,-3579.18901317223,-0.244396889238118,-0.0232876958896053,0.309328464229014,0.0,1.48709798648878,3.14159265358979,0.729428413927601,-3.14159265358978,-2.34657433603753,0.517060547064361,-0.932758124448193,0.0,-0.0011344542745508,0.0,2.54050343821516E7,0.0,1058.62824986923,-0.244396889238118,-0.0232876958896053,0.309328464229014
6420.0,3627142.67717372,-1.95969587629551E7,-2.50836376095608E7,1.9806882499635E7,2026404.98181511,-2.50991418375338E7,2418.95574130076,2548.43904581464,-3560.78233724214,-0.240097656758819,-0.0245639407305602,0.304250057623158,0.0,1.49147325573631,3.14159265358979,0.793166343208177,-3.14159265358978,-2.31697888451195,0.564016526670572,-0.875273803668225,0.0,-0.0011344542745508,0.0,2.56722254296077E7,0.0,1058.12669459891,-0.240097656758819,-0.0245639407305602,0.304250057623158
6480.0,3704892.46092223,-1.97453684647963E7,-2.5296621342402E7,1.99515901937409E7,2179266.37613479,-2.5312244114288E7,2404.67585799378,2546.92871707744,-3542.67633596213,-0.235918005800922,-0.0257687819654602,0.299305172961218,0.0,1.49584852498669,3.14159265358979,0.856975780344208,-3.14159265358978,-2.28322376723355,0.609389448060048,-0.814330759547862,0.0,-0.0011344542745508,0.0,2.59386083405344E7,0.0,1057.63419497563,-0.235918005800922,-0.0257687819654602,0.299305172961218
6540.0,3781255.87392406,-1.9893989875457E7,-2.55085282030372E7,2.00954485484917E7,2332035.02308855,-2.55242688537797E7,2390.64327826588,2545.34814200186,-3524.86314042303,-0.231853478621209,-0.0269061141414608,0.294489098301614,0.0,1.50022379422564,3.14159265358979,0.9208547607316,-3.14159265358978,-2.24494249493595,0.652907005858194,-0.749485349694987,0.0,-0.0011344542745508,0.0,2.62041916144445E7,0.0,1057.15049258693,-0.231853478621209,-0.0269061141414608,0.294489098301614
6600.0,3856233.15744957,-2.00428279326169E7,-2.57193755194465E7,2.02384721974612E7,2484706.82718362,-2.57352333952297E7,2376.85122326257,2543.70126026946,-3507.3351582443,-0.227899822744734,-0.0279795945051036,0.289797326193572,0.0,1.50459906347603,-3.14159265358979,0.984801394053509,-3.14159265358977,-2.20175964133929,0.694258395775748,-0.68029044326198,0.0,-0.0011344542745508,0.0,2.64689836336187E7,0.0,1056.67533877391,-0.227899822744734,-0.0279795945051036,0.289797326193572
6660.0,3929824.56041866,-2.01918871552123E7,-2.59291801723643E7,2.03806753750275E7,2637277.92286007,-2.59451546303114E7,2363.29316339912,2541.9917988355,-3490.08506161723,-0.224052979860755,-0.028992659294392,0.285225543359182,0.0,1.50897433272355,-3.14159265358979,1.04881386074063,-3.14159265358976,-2.15331464995748,0.733091375979019,-0.6063184910712,0.0,-0.0011344542745508,0.0,2.67329926634779E7,0.0,1056.20849418305,-0.224052979860755,-0.028992659294392,0.285225543359182
6720.0,4002030.33615115,-2.03411716609609E7,-2.61379586107995E7,2.05220719309874E7,2789744.66211576,-2.61540490186815E7,2349.96280702674,2540.22328473221,-3473.10577594938,-0.220309075399547,-0.0299485387819695,0.280769620954297,0.0,1.51334960196536,-3.14159265358979,1.11289040863342,-3.14159265358976,-2.09929735222347,0.769011546287028,-0.527196384760508,0.0,-0.0011344542745508,0.0,2.69962268531218E7,0.0,1055.74972834691,-0.220309075399547,-0.0299485387819695,0.280769620954297
6780.0,4072850.74021793,-2.04906851828483E7,-2.6345726866892E7,2.0662675344507E7,2942103.60287328,-2.63619326028466E7,2336.85408970485,2538.39905700417,-3456.39046907721,-0.216664408744128,-0.0308502711750715,0.276425605373832,0.0,1.51772487121575,-3.14159265358978,1.17702934983285,-3.14159265358975,-2.03949703769732,0.801585372417441,-0.44265393362067,0.0,-0.0011344542745508,0.0,2.7258694236016E7,0.0,1055.29881928351,-0.216664408744128,-0.0308502711750715,0.276425605373832
6840.0,4142286.02953248,-2.06404310845857E7,-2.65525005701376E7,2.0802498737447E7,3094351.49803848,-2.65688210223987E7,2323.96116404257,2536.52227784172,-3439.93254101453,-0.213115444034262,-0.0317007154681595,0.272189709569007,0.0,1.52210014046327,-3.14159265358979,1.24122905772743,-3.14159265358975,-1.9738645803412,0.830348813782662,-0.352585452530087,0.0,-0.0011344542745508,0.0,2.75204027308063E7,0.0,1054.85555311488,-0.213115444034262,-0.0317007154681595,0.272189709569007
6900.0,4210336.45992027,-2.07904123756282E7,-2.67582949610153E7,2.09415548870939E7,3246485.28520459,-2.67747295276513E7,2311.27839007538,2534.59594297236,-3423.72561420765,-0.209658801523161,-0.0325025633353544,0.268058304846015,0.0,1.52647540971366,3.14159265358979,1.305487964185,-3.14159265358976,-1.9025826368433,0.854823402549088,-0.257119467657706,0.0,-0.0011344542745508,0.0,2.77813601422473E7,0.0,1054.41972370958,-0.209658801523161,-0.0325025633353544,0.268058304846015
6960.0,4277002.28534763,-2.09406317251695E7,-2.69631249040426E7,2.10798562383303E7,3398502.07695882,-2.69796729927047E7,2298.80032614456,2532.62289136535,-3407.76352426861,-0.206291249450171,-0.0332583501418777,0.264027913117444,0.0,1.53085067896118,3.14159265358978,1.3698045568988,-3.14159265358977,-1.82613239174698,0.874540913865675,-0.156685006427819,0.0,-0.0011344542745508,0.0,2.80415741622294E7,0.0,1053.99113233931,-0.206291249450171,-0.0332583501418777,0.264027913117444
7020.0,4342283.75651684,-2.10910914756066E7,-2.71670049002914E7,2.1217414915271E7,3550399.15175203,-2.71836659279695E7,2286.52172024973,2530.60581430033,-3392.04031116062,-0.203009696395324,-0.0339704651465638,0.260095199579525,0.0,1.53522594820014,3.14159265358979,1.43417737687795,-3.14159265358976,-1.74533847359188,0.889076049138107,-0.0520560885457879,0.0,-0.0011344542745508,0.0,2.83010523708918E7,0.0,1053.56958735599,-0.203009696395324,-0.0339704651465638,0.260095199579525
7080.0,4406181.1193158,-2.12417936554187E7,-2.73699490993859E7,2.13542427323944E7,3702173.94529456,-2.73867224921738E7,2274.43750184647,2528.54726384637,-3376.55021081061,-0.199811184084114,-0.0346411609610714,0.256256965789894,0.0,1.53960121745052,3.14159265358977,1.4986050160732,-3.14159265358978,-1.66137042707799,0.898083867622687,0.0556472036311687,0.0,-0.0011344542745508,0.0,2.85598022378092E7,0.0,1053.15490388381,-0.199811184084114,-0.0346411609610714,0.256256965789894
7140.0,4468694.61510891,-2.13927399910819E7,-2.75719713110115E7,2.14903512051941E7,3853824.04244416,-2.75888565038798E7,2262.5427740628,2526.44966079423,-3361.28764712578,-0.196692880613071,-0.0352725623256004,0.252510143122147,0.0,1.54397648670376,3.14159265358943,1.56308611512955,3.14159265358947,-1.57568435780423,0.901335792481704,0.165017465026811,0.0,-0.0011344542745508,0.0,2.88178311232422E7,0.0,1052.74690352529,-0.196692880613071,-0.0352725623256004,0.252510143122147
7200.0,4529824.47955508,-2.15439319187344E7,-2.77730850159562E7,2.16257515603763E7,4005347.16955455,-2.77900814525325E7,2250.83280631032,2524.31530208127,-3346.24722439203,-0.193652074068801,-0.0358666742556596,0.248851786574865,0.0,1.54835175594557,4.06E-14,1.51397329233196,7.96E-14,-1.48990413621393,0.898746338870563,0.274479137265883,0.0,-0.0011344542745508,0.0,2.90751462794423E7,0.0,1052.34541408388,-0.193652074068801,-0.0358666742556596,0.248851786574865
7260.0,4589570.94122219,-2.16953705953662E7,-2.79733033767066E7,2.17604547456238E7,4156741.18725502,-2.79904105090635E7,2239.30302726691,2522.14636774504,-3331.42372003385,-0.190686166515089,-0.0364253896096745,0.245279068914236,0.0,1.5527270251931,1.97E-14,1.44938916737173,5.67E-14,-1.40566308919557,0.890383707545934,0.382447184696392,0.0,-0.0011344542745508,0.0,2.93317548520022E7,0.0,1051.95026930303,-0.190686166515089,-0.0364253896096745,0.245279068914236
7320.0,4647934.22240633,-2.18470569090549E7,-2.81726392476211E7,2.18944714389507E7,4308004.08363407,-2.8189856536071E7,2227.94901820987,2519.94492743924,-3316.81207771608,-0.187792668324446,-0.0369504961229164,0.241789275130626,0.0,1.55710229443491,3.11E-14,1.3847553891823,6.35E-14,-1.32444337782699,0.87646130676816,0.487488083960851,0.0,-0.0011344542745508,0.0,2.95876638812443E7,0.0,1051.56130861135,-0.187792668324446,-0.0369504961229164,0.241789275130626
7380.0,4704914.53759673,-2.19989914892278E7,-2.83711051846981E7,2.20278120576662E7,4459133.9678016,-2.83884320975947E7,2216.76650667927,2517.71294654241,-3302.4074007693,-0.184969192832113,-0.0374436829493227,0.238379797190701,0.0,1.56147756368529,1.66E-14,1.32007314254237,4.46E-14,-1.24745125833763,0.857312562795933,0.58844493547012,0.0,-0.0011344542745508,0.0,2.98428803036398E7,0.0,1051.17837688543,-0.184969192832113,-0.0374436829493227,0.238379797190701
7440.0,4760512.09432932,-2.21511747159799E7,-2.85687134549605E7,2.21604867669687E7,4610129.0638061,-2.8586149468507E7,2205.75136045304,2515.45229188801,-3288.2049459217,-0.182213451292092,-0.0379065467492434,0.235048129067823,0.0,1.56585283293282,1.67E-14,1.25534357312735,3.87E-14,-1.17555150278067,0.833355563856187,0.684503425830543,0.0,-0.0011344542745508,0.0,3.00974109532546E7,0.0,1050.80132422255,-0.182213451292092,-0.0379065467492434,0.235048129067823
7500.0,4814727.09239008,-2.23036067293214E7,-2.87654760454727E7,2.22925054881864E7,4760987.70488505,-2.87830206435357E7,2194.89958181601,2513.16473714199,-3274.20011732123,-0.179523248116149,-0.0383405973579305,0.231791862034529,0.0,1.57022810216892,2.11E-14,1.19056778914275,3.69E-14,-1.10926269131469,0.805055431063465,0.775196935105555,0.0,-0.0011344542745508,0.0,3.03512625632127E7,0.0,1050.43000572545,-0.179523248116149,-0.0383405973579305,0.231791862034529
7560.0,4867559.72300755,-2.24562874380372E7,-2.89614046720068E7,2.24238779066827E7,4911708.32802782,-2.89790573459369E7,2184.20730210659,2510.851967852,-3260.3884608326,-0.17689647637809,-0.0387472630666662,0.22860868020188,0.0,1.5746033714193,1.58E-14,1.12574686287577,2.57E-14,-1.04879827272694,0.772890874170429,0.860365898429448,0.0,-0.0011344542745508,0.0,3.06044417671757E7,0.0,1050.06428129733,-0.17689647637809,-0.0387472630666662,0.22860868020188
