time,gePosition_m_X,gePosition_m_Y,gePosition_m_Z,eiPosition_m_X,eiPosition_m_Y,eiPosition_m_Z,eiVelocity_m_s_X,eiVelocity_m_s_Y,eiVelocity_m_s_Z,eiAccel_m_s2_X,eiAccel_m_s2_Y,eiAccel_m_s2_Z,semiMajorAxis_m,gast_rad,eulerAngle_rad_Roll,eulerAngle_rad_Pitch,eulerAngle_rad_Yaw,eulerAngleWrtEi_rad_Roll,eulerAngleWrtEi_rad_Pitch,eulerAngleWrtEi_rad_Yaw,bodyAngularRateWrtEi_rad_s_Roll,bodyAngularRateWrtEi_rad_s_Pitch,bodyAngularRateWrtEi_rad_s_Yaw,altitudeMsl_m,airDensity_kg_m3,ambientTemperature_dgK,eiGravitation_m_s2_X,eiGravitation_m_s2_Y,eiGravitation_m_s2_Z
0.0,-1428622.31101,4163200.46562,5136049.67203,-4292653.41,955168.47,5139356.57,109.649663,-7527.72649,1484.521489,5.52898656936,-1.23026788741,-6.61954989995,6758662.11723,1.02334780893,-2.2204460492583294E-16,2.7755575615598222E-17,1.110223024625674E-16,-2.4567339936942507,-0.19515786357783788,-1.5566219162553807,0.0,0.0,0.0,398252.763838,3.11591362917E-12,976.47737094,5.52898656936,-1.23026788741,-6.61954989995
60.0,-1789712.64868,3920255.31305,5213136.6043,-4276130.76361,501640.150639,5216447.94771,440.899504426,-7584.0430456,1084.18939672,5.50841669093,-0.646201702282,-6.71971240616,6758662.11723,1.02772307802,1.3766765505405136E-14,2.8900729521480916E-6,3.7470027081310675E-16,-2.4640380834990583,-0.14227385513864466,-1.5131454542546983,0.0,-0.0011344542745501645,0.0,398335.16147,3.20687244874E-12,983.702829946,5.50841669093,-0.646201702282,-6.71971240616
120.0,-2144732.03326,3662345.31178,5266057.24147,-4239785.46485,45786.4492663,5269357.6801,770.149856361,-7605.20775889,678.7772427,5.46236021842,-0.058989324127,-6.78881750198,6758662.11723,1.03209834711,2.6256774534265653E-14,1.1882190166843848E-5,-2.1926904737950986E-15,-2.4689839374940337,-0.08912857191957727,-1.4703247360194258,0.0,-0.0011344542745501645,0.0,398280.483171,3.31726588913E-12,991.661468685,5.46236021842,-0.058989324127,-6.78881750198
180.0,-2492166.12293,3390599.00166,5294562.85755,-4183783.25764,-410279.480789,5297837.08957,1095.87688043,-7591.11290731,270.159254332,5.39101509823,0.528665740843,-6.82652947799,6758662.11723,1.0364736162,3.5860203708911316E-14,2.743784119545924E-5,-7.153999617622953E-15,-2.4716334478469792,-0.03582228878815343,-1.427909705482227,0.0,-0.0011344542745501645,0.0,398085.378679,3.44775481373E-12,1000.300609,5.39101509823,0.528665740843,-6.82652947799
240.0,-2830524.93281,3106195.85057,5298517.62797,-4108380.89026,-864442.894078,5301750.4708,1416.572094,-7541.8131943,-139.774483848,5.29469509567,1.11405482452,-6.83265572643,6758662.11723,1.04084888529,3.902433936428896E-14,4.9988342323644207E-5,-9.447304061975582E-15,-2.4720197072047903,0.01754812940699113,-1.3856566249643638,0.0,-0.0011344542745501645,0.0,397748.768109,3.59852917815E-12,1009.53002767,5.29469509567,1.11405482452,-6.83265572643
300.0,-3158349.2707,2810361.12396,5277899.32319,-4013924.98617,-1314597.20057,5281075.7838,1730.7492879,-7457.52569377,-549.126655788,5.17382866283,1.69447627941,-6.80714795491,6758662.11723,1.04522415437,4.168887470785893E-14,7.993282966949236E-5,-1.274674814219506E-14,-2.470147536009781,0.07088717087377493,-1.3433242894378667,0.0,-0.0011344542745501645,0.0,397271.88372,3.76928395326E-12,1019.22714303,5.17382866283,1.69447627941,-6.80714795491
360.0,-3474217.08765,2504360.5957,5232799.48317,-3900850.50203,-1758653.68795,5235904.82755,2036.95136094,-7338.62906256,-956.001393646,5.02895729882,2.26724769265,-6.75010277495,6758662.11723,1.04959942346,4.8405724208652055E-14,1.1763639589720639E-4,-1.5404344573259104E-14,-2.465993560376276,0.12409866225271445,-1.3006702537293207,0.0,-0.0011344542745501645,0.0,396658.271822,3.95927497991E-12,1029.24864764,5.02895729882,2.26724769265,-6.75010277495
420.0,-3776749.71579,2189495.12225,5163423.07076,-3769678.779,-2194551.17459,5166442.89226,2333.75704093,-7185.6620202,-1358.51297384,4.86073340379,2.82971808105,-6.66176165595,6758662.11723,1.05397469255,5.989653297842669E-14,1.6342837936137995E-4,-1.970645895030006E-14,-2.459505837036809,0.17708373326840474,-1.2574470531577229,0.0,-0.0011344542745501645,0.0,395913.75464,4.16743259548E-12,1039.44538411,4.86073340379,2.82971808105,-6.66176165595
480.0,-4064617.96598,1867095.10307,5070087.60404,-3621015.19486,-2620265.54951,5073007.89024,2619.78746171,-6999.32109896,-1754.79449109,4.66991762971,3.37928001561,-6.54251023745,6758662.11723,1.05834996164,6.827871763096889E-14,2.1760081390381073E-4,-2.2065683136771522E-14,-2.450603042514509,0.22973869737289257,-1.2133984023941227,0.0,-0.0011344542745501645,0.0,395046.35254,4.39248786984E-12,1049.67618037,4.66991762971,3.37928001561,-6.54251023745
540.0,-4336548.05782,1538514.85011,4953221.77021,-3455546.42661,-3033819.15549,4956028.96803,2893.71256637,-6780.45766981,-2143.0064719,4.4573757334,3.91338162297,-6.39287699509,6758662.11723,1.06272523073,5.989653453334052E-14,2.8040704685292956E-4,-2.7811087860252713E-14,-2.4391732697709427,0.2819527843688976,-1.1682553761872896,0.0,-0.0011344542745501645,0.0,394066.16769,4.63306699777E-12,1059.81737392,4.4573757334,3.91338162297,-6.39287699509
600.0,-4591327.35534,1205126.8898,4813363.52578,-3274037.33485,-3433289.97225,4816044.60446,3154.25730682,-6530.07425328,-2521.34538841,4.22407493918,4.42953841007,-6.21353125793,6758662.11723,1.06710049981,5.406786465000736E-14,3.5206053212338665E-4,-3.2973625874810344E-14,-2.425072514342429,0.3336056605257576,-1.1217326121747786,0.0,-0.0011344542745501645,0.0,392985.230813,4.88772979641E-12,1069.76694871,4.22407493918,4.42953841007,-6.21353125793
660.0,-4827809.88176,868316.221086,4651157.69009,-3077327.483,-3816820.55719,4653700.20187,3400.20761071,-6249.32012759,-2888.05203397,3.97107982106,4.92534485816,-6.00528057771,6758662.11723,1.0714757689,5.0959241601614554E-14,4.3273380455603776E-4,-3.5915718209403867E-14,-2.4081229917030123,0.3845646728476571,-1.0735246375617562,0.0,-0.0011344542745501645,0.0,391817.313346,5.15495300749E-12,1079.44416186,3.97107982106,4.92534485816,-6.00528057771
720.0,-5044921.58748,529474.553226,4467353.04181,-2866327.30621,-4182626.70184,4469745.1799,3630.4160871,-5939.48624934,-3241.41972145,3.69954771645,5.39848573122,-5.76906745355,6758662.11723,1.07585103799,5.251355623467869E-14,5.225576408845913E-4,-4.1133768678404564E-14,-2.3881115222764,0.434681759523201,-1.0233025180661486,0.0,-0.0011344542745501645,0.0,390577.707882,5.43307543139E-12,1088.78644481,3.69954771645,5.39848573122,-5.76906745355
780.0,-5241665.34627,189994.547074,4262798.92999,-2642013.94644,-4529005.7634,4265029.58367,3843.80744331,-5601.99950563,-3579.8022658,3.41072368629,5.84674704438,-5.50596541829,6758662.11723,1.08022630708,3.785861245425103E-14,6.216204119269859E-4,-4.329870632589181E-14,-2.3647883626587727,0.48378998239950466,-0.9707111739425909,0.0,-0.0011344542745501645,0.0,389282.980377,5.72022664279E-12,1097.7452932,3.41072368629,5.84674704438,-5.50596541829
840.0,-5417125.65531,-148735.916456,4038441.41394,-2405426.77194,-4854344.63194,4040500.22042,4039.38358617,-5238.41631976,-3901.62171297,3.10593503834,6.26802663725,-5.21717449618,6758662.11723,1.08460157617,2.5424114037533833E-14,7.299676297806599E-4,-4.6351823627490925E-14,-2.337867072746872,0.5316996661742621,-0.915367922159517,0.0,-0.0011344542745501645,0.0,387950.698132,6.01425775883E-12,1106.28229852,3.10593503834,6.26802663725,-5.21717449618
900.0,-5570473.01589,-485339.417195,3795318.94811,-2157662.60064,-5157127.29515,3797196.34098,4216.22838204,-4850.41563555,-4205.37577766,2.78658543362,6.66034429836,-4.90401604459,6758662.11723,1.08897684525,1.3211658738863317E-14,8.476016928124941E-4,-4.8017163063499705E-14,-2.307026305625508,0.5781941830660646,-0.8568631051819486,0.0,-0.0011344542745501645,0.0,386599.138075,6.31268818241E-12,1114.36594672,2.78658543362,6.66034429836,-4.90401604459
960.0,-5700967.97255,-818454.602498,3534557.63056,-1899870.6489,-5435941.96416,3536244.8846,4373.51205129,-4439.79130921,-4489.64495351,2.45414859808,7.02185138673,-4.56792699599,6758662.11723,1.09335211434,5.71765129159644E-15,9.744818305482955E-4,-4.8960858632868026E-14,-2.271914805492402,0.6230255152222752,-0.794764068042789,0.0,-0.0011344542745501645,0.0,385246.980295,6.61267311837E-12,1121.96917921,2.45414859808,7.02185138673,-4.56792699599
1020.0,-5810755.17075,-1156888.01606,3249266.0338,-1625505.84458,-5696608.94023,3250749.5483,5285.84355276,-4716.3355371,-5566.0927689,41.0563296141,-27.4070576746,-45.2198062458,1.08282875702E7,1.09772738343,-8.154626681190688E-14,0.0030754707904229782,-3.7581227114788623E-14,-2.232161386089496,0.6659098786637216,-0.7286242359468711,0.0,-0.0011344542745501645,0.0,384116.579996,6.89163619513E-12,1129.29198488,2.09994656611,7.35929336852,-4.19955447961
1080.0,-5926580.88281,-1604525.11078,2854897.95264,-1254386.7244,-6009865.70914,2856104.37753,6495.44509644,-5212.18536749,-6965.46357664,1.61053473486,7.71619891072,-3.66701529674,-2.81688453175E9,1.10210265252,-1.6554147714604933E-13,0.0275315954554702,-2.85990810903595E-14,-2.187392173473856,0.7065239220815037,-0.6579995586444868,0.0,-0.0011344542745501645,0.0,396889.877313,5.73438704646E-12,1139.60281876,1.61053473486,7.71619891072,-3.66701529674
1140.0,-6023878.46874,-2063563.17502,2431021.05517,-862075.47067,-6308549.30415,2431933.32846,6576.33981135,-4741.67874986,-7167.51147965,1.0852520138,7.94172444229,-3.06151912674,-2.81688453175E9,1.10647792161,-1.691208075952175E-13,0.05501664846658128,-1.7012152243298154E-14,-2.1372577589251525,0.7445023348824529,-0.5824749519653515,0.0,-0.0011344542745501645,0.0,440404.196477,2.96586270635E-12,1151.01171327,1.0852520138,7.94172444229,-3.06151912674
1200.0,-6098004.05881,-2512561.35542,1996133.87009,-465855.004278,-6578688.74492,1996747.85733,6625.82811784,-4262.24468549,-7332.3758076,0.567517159892,8.0143364739,-2.43249221884,-2.81688453175E9,1.11085319069,-1.731217944134116E-13,0.08084030094681617,-4.344056607453427E-15,-2.081472772977449,0.7794380998325214,-0.5017032344003026,0.0,-0.0011344542745501645,0.0,514467.889559,1.02506288615E-12,1160.69667402,0.567517159892,8.0143364739,-2.43249221884
1260.0,-6149416.23471,-2950066.27835,1552490.84727,-67582.7242886,-6820019.91802,1552803.85059,6645.02369032,-3782.84479985,-7459.51342991,0.0787102740509,7.94294166787,-1.8084742501,-2.81688453175E9,1.11522845978,-1.7662406084359749E-13,0.10425604111287269,8.204688558686307E-15,-2.0198691989621227,0.8108870385312013,-0.41545786527897477,0.0,-0.0011344542745501645,0.0,617807.348287,2.59020152269E-13,1167.89731636,0.0787102740509,7.94294166787,-1.8084742501
1320.0,-6178963.95558,-3374933.51495,1102329.65666,330986.667955,-7032794.32624,1102340.35445,6636.18839731,-3311.61141457,-7549.98948903,-0.364540962746,7.74575492819,-1.21409184414,-2.81688453176E9,1.11960372887,-1.7800353781680025E-13,0.12464304669874295,1.9357028077203574E-14,-1.9524617921719216,0.8383785564629949,-0.32369784063004636,0.0,-0.0011344542745501645,0.0,748729.44141,5.44362927886E-14,1172.9908521,-0.364540962746,7.74575492819,-1.21409184414
1380.0,-6187809.39838,-3786344.4674,647783.187927,728260.724489,-7217714.57432,647491.525683,6602.41095292,-2855.3906723,-7606.17565491,-0.751376871079,7.44681624428,-0.668043930228,-2.81688453176E9,1.12397899796,-1.7551856580472579E-13,0.14152327708026985,3.1568389920186213E-14,-1.87951878173525,0.8614343089464458,-0.226637914824687,0.0,-0.0011344542745501645,0.0,905233.563596,1.24554600198E-14,1176.44001572,-0.751376871079,7.44681624428,-0.668043930228
1440.0,-6177341.25027,-4183797.90112,190812.4772,1122848.36685,-7375848.91919,190219.524659,6547.25770185,-2419.50279596,-7631.36692293,-1.07665037051,7.07238012369,-0.182393213321,-2.81688453176E9,1.12835426705,-1.7828656148866247E-13,0.1545637531125298,4.258511901008149E-14,-1.801624108935119,0.879595514247133,-0.12481039380181902,0.0,-0.0011344542745501645,0.0,1085128.28199,4.22390484101E-15,1178.55904431,-1.07665037051,7.07238012369,-0.182393213321
1500.0,-6149089.16345,-4567081.96572,-266836.824546,1513578.67294,-7508537.66572,-267729.0345,6474.45203128,-2007.70406938,-7629.39061699,-1.34008911957,6.64789337326,0.237041372571,-2.81688453176E9,1.13272953613,-1.8018991370459836E-13,0.16356691830294695,5.80062216586327E-14,-1.7197112098248384,0.8924575917764515,-0.019098500397226416,0.0,-0.0011344542745501645,0.0,1286139.60925,1.97570492705E-15,1179.56700883,-1.34008911957,6.64789337326,0.237041372571
1560.0,-6104647.28208,-4936233.8422,-723655.730141,1899502.23405,-7617302.18028,-724844.36709,6387.61796098,-1622.30256162,-7604.2621974,-1.5450573353,6.19592248847,0.589589254622,-2.81688453176E9,1.13710480522,-1.8169944800075453E-13,0.16845309761770919,7.049783734939366E-14,-1.6350472425043066,0.8997079300968359,0.08927979424421675,0.0,-0.0011344542745501645,0.0,1506002.24849,1.02411249249E-15,1179.64073797,-1.5450573353,6.19592248847,0.589589254622
1620.0,-6045611.37644,-5291493.80345,-1178374.75659,2279879.43737,-7703763.97569,-1179856.35216,6290.10133881,-1264.36826849,-7559.91736753,-1.69725491904,5.73506260399,0.878343374058,-2.81688453177E9,1.14148007431,-1.8135070234671494E-13,0.16923905530888114,8.391042512114277E-14,-1.5491551800099594,0.9011598840541253,0.1988500583223338,0.0,-0.0011344542745501645,0.0,1742529.79494,5.41461811182E-16,1178.9363514,-1.69725491904,5.73506260399,0.878343374058
1680.0,-5973531.09432,-5633259.1098,-1629953.21356,2654160.28971,-7769577.851,-1631723.80784,6184.86505817,-933.98341321,-7500.02770178,-1.80357770386,5.27965000258,1.10880291973,-2.81688453177E9,1.1458553434,-1.7324527600664805E-13,0.16601590595024762,9.78233559777338E-14,-1.4636796180013862,0.8967751251602764,0.3080159627302118,0.0,-0.0011344542745501645,0.0,1993663.70273,2.88540873541E-16,1177.59481004,-1.80357770386,5.27965000258,1.10880291973
1740.0,-5889876.64221,-5962041.43315,-2077559.76779,3021959.85503,-7816380.19966,-2079615.03857,6074.44496328,-630.492311443,-7427.89193356,-1.87124294701,4.84002006029,1.28772887798,-2.81688453177E9,1.15023061249,-1.6680374488644175E-13,0.15892860068429376,1.072109004040591E-13,-1.3802233833216888,0.8866684238949974,0.41522303943640243,0.0,-0.0011344542745501645,0.0,2257503.34122,1.55650709233E-16,1175.74221313,-1.87124294701,4.84002006029,1.28772887798
1800.0,-5796017.92493,-6278429.87883,-2520548.38035,3383032.4502,-7845751.63213,-2522883.75374,5960.94975267,-352.725664858,-7346.38753481,-1.90719414758,4.4230647552,1.42228287816,-2.81688453177E9,1.15460588157,-1.63242565666192E-13,0.1481582232749228,1.2016583568547053E-13,-1.3001943419338666,0.8710935260581291,0.5191122418625757,0.0,-0.0011344542745501645,0.0,2532320.70478,9.12524152555E-17,1173.4892485,-1.90719414758,4.4230647552,1.42228287816
1860.0,-5693213.64735,-6583060.39716,-2958432.71774,3737246.75358,-7859191.96237,-2961043.46032,5846.08907936,-99.1873021647,-7257.96549158,-1.91774761274,4.03290112152,1.51944316275,-2.81688453176E9,1.15898115066,-1.4826532228155383E-13,0.13390755813538024,1.3319793592209457E-13,-1.2246974138518896,0.8504140033363994,0.6186283050849652,0.0,-0.0011344542745501645,0.0,2816563.61019,8.83301195426E-17,1170.93115646,-1.91774761274,4.03290112152,1.51944316275
1920.0,-5582607.87632,-6876591.50585,-3390861.15209,4084563.11621,-7858105.18841,-3393742.44594,5731.21703243,131.799305581,-7164.67289436,-1.90842312734,3.67152844796,1.58565221979,-2.81688453176E9,1.16335641975,-1.2929984703984098E-13,0.11638987721490637,1.432442221582138E-13,-1.1544885488851162,0.8250663753951757,0.7130661576158752,0.0,-0.0011344542745501645,0.0,3108850.89052,8.56001875194E-17,1168.14840014,-1.90842312734,3.67152844796,1.58565221979
1980.0,-5465231.84669,-7159685.73471,-3817593.63612,4425013.70274,-7843792.12056,-3820740.63872,5617.38171801,341.981861429,-7068.19116243,-1.88390097402,3.33940832924,1.62663835511,-2.81688453176E9,1.16773168884,-1.1066955211443078E-13,0.09582060275724923,1.5151885769453194E-13,-1.0899862627707237,0.7955232030954864,0.8020597911266255,0.0,-0.0011344542745501645,0.0,3407962.48667,8.30567065598E-17,1165.20786838,-1.88390097402,3.33940832924,1.62663835511
2040.0,-5342009.20247,-7432995.96685,-4238481.11127,4758685.63135,-7817448.57656,-4241889.0023,5505.37486384,533.101823599,-6969.8811378,-1.84805711318,3.03594155362,1.64735680213,-2.81688453176E9,1.17210695793,-9.795632645417632E-14,0.07241137877271904,1.6107136861263596E-13,-1.0313224914185504,0.7622618043991851,0.8855318366096264,0.0,-0.0011344542745501645,0.0,3712826.66307,8.06908285461E-17,1162.16437477,-1.84805711318,3.03594155362,1.64735680213
2100.0,-5213763.28483,-7697155.79369,-4653447.67446,5085706.99664,-7780167.42734,-4657111.69164,5395.77789471,706.842423594,-6870.82926252,-1.80404068572,2.7598401933,1.65200609772,-2.81688453177E9,1.17648222702,-9.052495374333327E-14,0.04636606584527615,1.7021358705684787E-13,-0.978411256792485,0.7257412818007932,0.9636253603599815,0.0,-0.0011344542745501645,0.0,4022505.95319,7.84920678584E-17,1159.06225572,-1.80404068572,2.7598401933,1.65200609772
2160.0,-5081225.45405,-7952773.05128,-5062475.45433,5406235.50391,-7732943.15025,-5066390.92025,5289.00272235,864.796123653,-6771.89136088,-1.75436947214,2.50940592261,1.64408700989,-2.81688453176E9,1.1808574961,-7.989331445337626E-14,0.017878214197017975,1.748880754194479E-13,-0.931017970823141,0.6863880193098768,1.036635060919948,0.0,-0.0011344542745501645,0.0,4336182.92626,7.64492016488E-17,1155.93693182,-1.75436947214,2.50940592261,1.64408700989
2220.0,-4945043.74192,-8200425.80713,-5465591.9919,5720449.37555,-7676677.8832,-5469754.33352,5185.32666859,1008.44635589,-6673.73219201,-1.70102807705,2.28273056197,1.62648160748,-2.81688453176E9,1.18523276519,-6.561961550242183E-14,-0.012870363858382024,1.7942690127206802E-13,-0.8888192357374625,0.6445882990782468,1.1049480170305512,0.0,-0.0011344542745501645,0.0,4653146.47062,7.45508744507E-17,1152.8163512,-1.70102807705,2.28273056197,1.62648160748
2280.0,-4805791.36985,-8440660.18725,-5862859.84535,6028540.17869,-7612188.25247,-5867264.60766,5084.92164442,1139.15937703,-6576.86002846,-1.64556020439,2.07783537728,1.60153816029,-2.81688453176E9,1.18960803428,-4.934544512156339E-14,-0.04571022878521102,1.8165569831410567E-13,-0.851449212395497,0.6006861450893015,1.1689979245819806,0.0,-0.0011344542745501645,0.0,4972778.99941,7.27859889928E-17,1149.72227488,-1.64556020439,2.07783537728,1.60153816029
2340.0,-4663974.84484,-8673989.55048,-6254368.11614,6330707.24325,-7540212.46851,-6259010.97118,4987.87808341,1258.18302108,-6481.65618855,-1.58915080369,1.89276399048,1.57115341666,-2.81688453176E9,1.19398330337,-3.408315585101889E-14,-0.08048439528773801,1.8634352855889135E-13,-0.8185326703547455,0.5549845828214888,1.2292327196686237,0.0,-0.0011344542745501645,0.0,5294544.7832,7.11439459481E-17,1146.67139135,-1.58915080369,1.89276399048,1.57115341666
2400.0,-4520041.47153,-8900894.62333,-6640225.60171,6627153.37494,-7461417.35135,-6645102.35403,4894.22429163,1366.6499502,-6388.39983026,-1.5326966258,1.72564124461,1.53684778063,-2.81688453176E9,1.19835857246,-1.805363029075844E-14,-0.11704804167624143,1.8662870446083138E-13,-0.7897068134306262,0.5077488683290793,1.2860935064052126,0.0,-0.0011344542745501645,0.0,5617979.4802,6.96147791844E-17,1143.67626469,-1.5326966258,1.72564124461,1.53684778063
2460.0,-4374386.2047,-9121824.29766,-7020555.30499,6918081.60922,-7376405.07095,-7025661.8943,4803.94191123,1465.58366596,-6297.28850035,-1.47686532248,1.5747077686,1.49983145694,-2.81688453176E9,1.20273384154,-2.1351088406794048E-15,-0.15526798119237967,1.8457454056778013E-13,-0.7646345516618165,0.45921066077462924,1.3400021328476672,0.0,-0.0011344542745501645,0.0,5942680.84956,6.81892202779E-17,1140.74612932,-1.47686532248,1.5747077686,1.49983145694
2520.0,-4227357.82348,-9337196.86692,-7395490.06277,7203692.79322,-7285719.47569,-7400822.56443,4716.97815881,1555.90605603,-6208.45499823,-1.42214405423,1.43833765966,1.461061168,-2.81688453176E9,1.20710911063,2.8291893498889846E-15,-0.19502199221408026,1.827939238964125E-13,-0.7430117187633284,0.40957247718816425,1.3913549324274022,0.0,-0.0011344542745501645,0.0,6268300.58387,6.68587163222E-17,1137.88754915,-1.42214405423,1.43833765966,1.461061168
2580.0,-4079264.44474,-9547401.53444,-7765169.08881,7484183.82017,-7189851.94378,-7770723.71278,4633.25542949,1638.44563679,-6121.98110955,-1.3688789263,1.31504477249,1.42128790368,-2.81688453176E9,1.21148437972,4.453523296052505E-15,-0.23619807587241184,1.8307977498420961E-13,-0.724570266106964,0.3590120425746766,1.440520618696786,0.0,-0.0011344542745501645,0.0,6594537.1697,6.56154178713E-17,1135.10495955,-1.3688789263,1.31504477249,1.42128790368
2640.0,-3930378.41393,-9752800.0725,-8129735.25953,7759746.37386,-7089246.73377,-8135508.3481,4552.67877492,1713.94593393,-6037.90872232,-1.3173066495,1.20348158462,1.38109658842,-2.81688453176E9,1.21585964881,1.2067445450203356E-14,-0.27869368837636704,1.8086733431969163E-13,-0.709078951571356,0.307686336364003,1.4878408369439424,0.0,-0.0011344542745501645,0.0,6921129.6745,6.44521486459E-17,1132.40111013,-1.3173066495,1.20348158462,1.38109658842
2700.0,-3780940.62295,-9953728.54528,-8489332.99939,8030566.06905,-6984305.83741,-8495321.02407,4475.14168152,1783.0736449,-5956.24877942,-1.26757974978,1.10243344861,1.3409387091,-2.81688453176E9,1.2202349179,2.2825477858999888E-14,-0.3224149797330545,1.7739493176943793E-13,-0.6963425952742334,0.2557352559965501,1.533632325566607,0.0,-0.0011344542745501645,0.0,7247852.35613,6.33623649137E-17,1129.77742452,-1.26757974978,1.10243344861,1.3409387091
2760.0,-3631164.30902,-1.0150499035E7,-8844106.64817,8296821.89632,-6875393.35489,-8850306.20599,4400.53049969,1846.42636863,-5876.98845829,-1.21978650759,1.01081018172,1.30115895376,-2.81688453176E9,1.22461018698,2.7538216870576584E-14,-0.36727605928278145,1.7287219726678872E-13,-0.6862006275509857,0.20328489003872546,1.5781899904469159,0.0,-0.0011344542745501645,0.0,7574509.99586,6.23401098349E-17,1127.23429153,-1.21978650759,1.01081018172,1.30115895376
2820.0,-3481238.38914,-1.03434013299E7,-9194199.21399,8558685.89962,-6762839.42247,-9200607.02337,4328.72780912,1904.53978512,-5800.09690731,-1.1739666407,0.927636318418,1.26201683837,-2.81688453176E9,1.22898545607,1.9456515321786722E-14,-0.4131983004349283,1.6801701081686036E-13,-0.6785254028845756,0.15045043307512307,1.6217904507658056,0.0,-0.0011344542745501645,0.0,7900933.86295,6.13799662373E-17,1124.77129988,-1.1739666407,0.927636318418,1.26201683837
2880.0,-3331330.3821,-1.05327045466E7,-9539751.43412,8816323.02956,-6646943.72718,-9546364.3305,4259.61494906,1957.8942329,-5725.52981285,-1.13012357883,0.852040902775,1.22370418891,-2.81688453176E9,1.23336072516,1.3072325114243074E-14,-0.4601096914037219,1.6675733215931594E-13,-0.6732205795383709,0.0973387948773187,1.6646957924365424,0.0,-0.0011344542745501645,0.0,8226978.22754,6.04770100239E-17,1122.38742683,-1.13012357883,0.852040902775,1.22370418891
2940.0,-3181588.96681,-1.07186586702E7,-9880901.08024,9069891.12829,-6527978.64535,-9887716.01161,4193.07389671,2006.92067493,-5653.2330229,-1.08823402736,0.783247383159,1.18635922577,-2.81688453176E9,1.23773599425,7.56034955018097E-15,-0.5079442348568607,1.6446539811921765E-13,-0.6702197485912896,0.04405096528608553,1.7071573846022359,0.0,-0.0011344542745501645,0.0,8552517.34804,5.96267655545E-17,1120.08118933,-1.08823402736,0.783247383159,1.18635922577
3000.0,-3032146.2212,-1.09014960038E7,-1.02177824576E7,9319541.01104,-6406192.04104,-1.02247964799E7,4128.98863863,2052.00607024,-5583.14541139,-1.04825538573,0.720563952782,1.15007788102,-2.81688453176E9,1.24211126334,7.780399956757971E-15,-0.5566413968644555,1.6032364070555307E-13,-0.6694854207567168,-0.009315800964835946,1.749419692023101,0.0,-0.0011344542745501645,0.0,8877442.86784,5.88251637603E-17,1117.85076469,-1.04825538573,0.720563952782,1.15007788102
3060.0,-2883119.58142,-1.10814325218E7,-1.05505260568E7,9565416.61785,-6281809.75931,-1.05577363296E7,4067.24614977,2093.49818452,-5515.20113326,-1.01013147512,0.663374530574,1.11492287253,-2.81688453176E9,1.24648653242,9.186003203007748E-15,-0.6061456038113628,1.590326804521349E-13,-0.6710084313177317,-0.06266591512155244,1.7917240641880101,0.0,-0.0011344542745501645,0.0,9201661.56474,5.80685033655E-17,1115.69408667,-1.01013147512,0.663374530574,1.11492287253
3120.0,-2734613.55692,-1.12586691272E7,-1.08792583259E7,9807655.21445,-6155037.84655,-1.08866621077E7,4007.73707033,2131.70988139,-5449.3313913,-0.973796938249,0.611130477033,1.08093096631,-2.81688453176E9,1.25086180151,4.2744503398558394E-15,-0.6564057849690775,1.5875028270368808E-13,-0.6748077921982358,-0.11590343737314392,1.8343125088646872,0.0,-0.0011344542745501645,0.0,9525093.40382,5.73534153359E-17,1113.60892176,-0.973796938249,0.611130477033,1.08093096631
3180.0,-2586721.23239,-1.14333928169E7,-1.12041015362E7,1.00463876266E7,-6026064.52788,-1.12116961801E7,3950.35615109,2166.92293941,-5385.46581265,-0.939180599056,0.563343074508,1.04811877924,-2.81688453176E9,1.2552370706,-4.4550878938599145E-15,-0.7073749577758321,1.5297019006048767E-13,-0.6809309977673282,-0.1689300488155502,1.877431469213868,0.0,-0.0011344542745501645,0.0,9847669.8515,5.6676830516E-17,1111.59292929,-0.939180599056,0.563343074508,1.04811877924
3240.0,-2439525.58422,-1.16057777549E7,-1.15251737207E7,1.02817384954E7,-5895061.96852,-1.15329566706E7,3895.00252257,2199.39144074,-5323.53351364,-0.906208010055,0.519576760102,1.01648740815,-2.81688453176E9,1.25961233969,-1.3542705521544216E-14,-0.7590098526466575,1.493523230398868E-13,-0.6894547704841039,-0.22164294920362143,1.9213356211318227,0.0,-0.0011344542745501645,0.0,1.01693324141E7,5.60359503185E-17,1109.64370877,-0.906208010055,0.519576760102,1.01648740815
3300.0,-2293100.6352,-1.17759862623E7,-1.18425886692E7,1.0513826545E7,-5762187.84366,-1.18505574552E7,3841.57983105,2229.34477544,-5263.4639162,-0.874803366623,0.479443074621,0.986026116542,-2.81688453175E9,1.26398760878,-8.867884305265233E-15,-0.8112705740321884,1.4938354197861492E-13,-0.7004862078442621,-0.27393261661125184,1.966291691262815,0.0,-0.0011344542745501645,0.0,1.04900313696E7,5.5428220274E-17,1107.75883681,-0.874803366623,0.479443074621,0.986026116542
3360.0,-2147512.4684,-1.19441697262E7,-1.21564559657E7,1.07427648548E7,-5627586.73852,-1.21646082005E7,3789.99627521,2256.99030288,-5205.18736651,-0.844890929329,0.442595277255,0.95671526524,-2.81688453175E9,1.26836287786,-1.624359460091639E-15,-0.8641202945113138,1.498685333442295E-13,-0.7141642558743279,-0.3256803645238711,2.0125822622357505,0.0,-0.0011344542745501645,0.0,1.08097246662E7,5.48513062253E-17,1105.93589569,-0.844890929329,0.442595277255,0.95671526524
3420.0,-2002820.11836,-1.21104694347E7,-1.24668810584E7,1.0968661132E7,-5491391.39805,-1.24752144336E7,3740.16456933,2282.51570872,-5148.63559677,-0.816396064963,0.408723569319,0.928528637228,-2.81688453175E9,1.27273814695,2.4659955264896785E-15,-0.9175249788546229,1.4645273432319838E-13,-0.7306613782004876,-0.376755632628598,2.0605094751881983,0.0,-0.0011344542745501645,0.0,1.11283769635E7,5.43030729371E-17,1104.17249527,-0.816396064963,0.408723569319,0.928528637228
3480.0,-1859076.35539,-1.22750173429E7,-1.27739653531E7,1.119161798E7,-5353723.84345,-1.27824776355E7,3692.00185317,2306.09109205,-5093.74206251,-0.789245992998,0.377550868748,0.901435277045,-2.81688453175E9,1.27711341604,2.7553829217726794E-15,-0.9714531351421989,1.4692095365031087E-13,-0.7501852019708681,-0.4270129521287633,2.110398448587144,0.0,-0.0011344542745501645,0.0,1.14459587982E7,5.37815648992E-17,1102.46628957,-0.789245992998,0.377550868748,0.901435277045
3540.0,-1716328.37643,-1.24379367751E7,-1.30778063245E7,1.14117331602E7,-5214696.37084,-1.30864953527E7,3645.4295643,2327.87081408,-5040.44218162,-0.763370305342,0.34882907837,0.87540094156,-2.81688453175E9,1.28148868513,2.088293247440333E-14,-1.0258755903107863,1.418968488646473E-13,-0.7729797876523807,-0.4762885384597837,2.162600095399839,0.0,-0.0011344542745501645,0.0,1.17624458562E7,5.32849891088E-17,1100.81498901,-0.763370305342,0.34882907837,0.87540094156
3600.0,-1574618.41455,-1.25993430691E7,-1.33784976383E7,1.16290998453E7,-5074412.44534,-1.33873613197E7,3600.37328459,2347.99513641,-4988.67349603,-0.738701312415,0.322335794083,0.850389239772,-2.81688453175E9,1.28586395422,3.337840537597246E-14,-1.0807652876310212,1.411800397000103E-13,-0.7993259710192607,-0.52439649035126,2.217492817302364,0.0,-0.0011344542745501645,0.0,1.20778183369E7,5.28116996307E-17,1099.21636936,-0.738701312415,0.322335794083,0.850389239772
3660.0,-1433984.27726,-1.27593441664E7,-1.36761292826E7,1.18438068631E7,-4932967.50261,-1.368516559E7,3556.7625701,2366.59167377,-4938.37577277,-0.715174256926,0.297871403079,0.826362523876,-2.81688453175E9,1.2902392233,5.0088704117983474E-14,-1.1360971039243337,1.3458043922239289E-13,-0.8295399424428406,-0.5711246234694889,2.275482268955454,0.0,-0.0011344542745501645,0.0,1.23920603975E7,5.23601837531E-17,1097.66827784,-0.715174256926,0.297871403079,0.826362523876
3720.0,-1294459.82245,-1.29180411536E7,-1.39707877023E7,1.20559389296E7,-4790449.66825,-1.39799946711E7,3514.5307713,2383.77668311,-4889.49105768,-0.692727427619,0.275256526696,0.80328258157,-2.81688453175E9,1.29461449239,7.082496282110002E-14,-1.1918476844739996,1.179415694436455E-13,-0.8639688463702161,-0.6162300532107827,2.3369979984376794,0.0,-0.0011344542745501645,0.0,1.2705159667E7,5.19290495677E-17,1096.16863719,-0.692727427619,0.275256526696,0.80328258157
3780.0,-1156075.37985,-1.30755287593E7,-1.42625559369E7,1.22655768709E7,-4646940.40419,-1.42719316624E7,3473.61484884,2399.65620866,-4841.96369263,-0.671302198078,0.254329766998,0.781111169625,-2.81688453175E9,1.29898976148,8.662019820162855E-14,-1.2479952938169436,1.0446920874011844E-13,-0.9029817077815809,-0.6594347824497798,2.4024852918978072,0.0,-0.0011344542745501645,0.0,1.30171068195E7,5.15170148251E-17,1094.715448,-0.671302198078,0.254329766998,0.781111169625
3840.0,-1018858.12462,-1.32318958091E7,-1.45515137576E7,1.24727978346E7,-4502515.09037,-1.45610563923E7,3433.95518871,2414.32709993,-4795.74030453,-0.650843010077,0.234945720536,0.75981042088,-2.81688453175E9,1.30336503057,1.145490043583652E-13,-1.3045196807966255,7.763173776027249E-14,-0.9469534768736613,-0.7004217663839769,2.4723900314098244,0.0,-0.0011344542745501645,0.0,1.33278952005E7,5.11228969256E-17,1093.30678971,-0.650843010077,0.234945720536,0.75981042088
3900.0,-882832.408961,-1.33872256447E7,-1.48377378035E7,1.26776754894E7,-4357243.54869,-1.48474455546E7,3395.49541969,2427.87791773,-4750.76977317,-0.631297316564,0.216973226852,0.739343150431,-2.81688453175E9,1.30774029966,1.596962608202372E-13,-1.3614019563777764,3.3114274818912067E-14,-0.9962395808816401,-0.7388322333590793,2.547133970551488,0.0,-0.0011344542745501645,0.0,1.36375204982E7,5.07456039252E-17,1091.94082062,-0.631297316564,0.216973226852,0.739343150431
3960.0,-748020.056728,-1.35415965078E7,-1.51213017154E7,1.28802802147E7,-4211190.51563,-1.51311728424E7,3358.18223514,2440.38974141,-4707.00318316,-0.612615495957,0.200293823061,0.719673081701,-2.81688453175E9,1.31211556874,2.3363828639495983E-13,-1.4186244829401629,-3.295837895859027E-14,-1.0511383985926688,-0.7742654317945148,2.6270778570982127,0.0,-0.0011344542745501645,0.0,1.39459804547E7,5.03841264454E-17,1090.61577709,-0.612615495957,0.200293823061,0.719673081701
4020.0,-614440.625634,-1.36950818933E7,-1.5402276266E7,1.30806792791E7,-4064416.06917,-1.54123090786E7,3321.96522055,2451.93688896,-4664.39376424,-0.594750746688,0.184800379277,0.700765008992,-2.81688453175E9,1.31649083783,4.0303635727527445E-13,-1.4761707738628156,-2.0445576141651484E-13,-1.111840058368602,-0.8062823922162006,2.7124708152459043,0.0,-0.0011344542745501645,0.0,1.42532746116E7,5.00375303902E-17,1089.32997208,-0.594750746688,0.184800379277,0.700765008992
4080.0,-482111.640741,-1.38477508744E7,-1.56807294866E7,1.32789370091E7,-3916976.01479,-1.56909223424E7,3286.79668783,2462.58756004,-4622.89682345,-0.577658968889,0.170395892707,0.682584909847,-2.81688453175E9,1.32086610692,1.0977614338441581E-12,-1.5340254023462823,-8.954230127506299E-13,-1.1783625975921013,-0.8344155916263238,2.8033870357471127,0.0,-0.0011344542745501645,0.0,1.45594040857E7,4.97049503827E-17,1088.08179338,-0.577658968889,0.170395892707,0.682584909847
4140.0,-351048.802691,-1.39996684017E7,-1.59567267894E7,1.34751149473E7,-3768922.23502,-1.59670780919E7,3252.63151697,2472.40441098,-4582.46967178,-0.561298638423,0.156992421,0.665100017894,-2.81688453175E9,1.32524137601,3.1415926535897927,-1.5494187350384157,-3.1415926535897927,-1.250481362435095,-0.8581863136912715,2.899655662107987,0.0,-0.0011344542745501645,0.0,1.48643713718E7,4.93855838458E-17,1086.86970134,-0.561298638423,0.156992421,0.665100017894
4200.0,-221266.17359,-1.41508955786E7,-1.62303310854E7,1.36692720028E7,-3620303.00628,-1.62408392823E7,3219.42700538,2481.44506948,-4543.0715474,-0.545630677214,0.144510137821,0.648278864764,-2.81688453176E9,1.3296166451,3.1415926535897927,-1.490989879385346,-3.1415926535897927,-1.3276642832118386,-0.8771306505974859,3.000796515836609,0.0,-0.0011344542745501645,0.0,1.51681801677E7,4.90786856557E-17,1085.69222655,-0.545630677214,0.144510137821,0.648278864764
4260.0,-92776.3431314,-1.43014899153E7,-1.65016028976E7,1.38614645912E7,-3471163.28655,-1.65122664787E7,3187.14272503,2489.76259599,-4504.66353716,-0.53061832281,0.132876495784,0.632091297936,-2.81688453175E9,1.33399191418,3.1415926535897927,-1.432293399665891,-3.1415926535897927,-1.4090322603965373,-0.8908332080104753,3.105980903730728,0.0,-0.0011344542745501645,0.0,1.54708352202E7,4.87835633101E-17,1084.54796719,-0.53061832281,0.132876495784,0.632091297936
4320.0,34409.422792,-1.44515055635E7,-1.67706004694E7,1.40517467673E7,-3321544.97674,-1.6781417965E7,3155.74038739,2497.40589767,-4467.20849754,-0.51622699936,0.122025483734,0.616508480017,-2.81688453175E9,1.33836718327,3.1415926535897927,-1.3733412409797738,-3.1415926535897927,-1.4933661300822914,-0.8989647842951407,-3.069146325216649,0.0,-0.0011344542745501645,0.0,1.57723421888E7,4.84995725552E-17,1083.43558646,-0.51622699936,0.122025483734,0.616508480017
4380.0,160281.049014,-1.46009935321E7,-1.70373798683E7,1.42401703497E7,-3171487.15852,-1.70483498477E7,3125.18371608,2504.42010042,-4430.67097617,-0.502424191561,0.111896966998,0.601502873864,-2.81688453176E9,1.34274245236,3.1415926535897927,-1.3141446352956578,-3.1415926535897927,-1.579174820477671,-0.9013174689875485,-2.959657011984291,0.0,-0.0011344542745501645,0.0,1.60727075252E7,4.82261134247E-17,1082.35380983,-0.502424191561,0.111896966998,0.601502873864
4440.0,284829.531806,-1.4750001888E7,-1.73019950851E7,1.44267850377E7,-3021026.31099,-1.73131161547E7,3095.43832684,2510.84688354,-4395.01713452,-0.489179322689,0.102436100682,0.587048217056,-2.81688453176E9,1.34711772145,3.1415926535897927,-1.254714153671396,-3.1415926535897927,-1.6648221399382523,-0.8978292614267391,-2.850324370431353,0.0,-0.0011344542745501645,0.0,1.63719383661E7,4.79626266473E-17,1081.30142236,-0.489179322689,0.102436100682,0.587048217056
4500.0,408046.831861,-1.48985759407E7,-1.75644981282E7,1.46116385214E7,-2870196.50829,-1.75757689305E7,3066.47161482,2516.7247811,-4360.21467236,-0.476463637455,0.0935928073058,0.573119488511,-2.81688453176E9,1.35149299054,3.1415926535897927,-1.195059754032421,-3.1415926535897927,-1.7486881019940235,-0.8885917853718204,-2.7427200663902096,0.0,-0.0011344542745501645,0.0,1.6670042439E7,4.77085903855E-17,1080.27726602,-0.476463637455,0.0935928073058,0.573119488511
4560.0,529925.778193,-1.50467584134E7,-1.78249391137E7,1.47947765853E7,-2719029.60001,-1.78363583254E7,3038.25264866,2522.08945377,-4326.23275448,-0.464250090154,0.0853213111839,0.559692869495,-2.81688453176E9,1.35586825962,3.1415926535897927,-1.1351908248974787,-3.1415926535897927,-1.8293262859975254,-0.8738389492225714,-2.638241796387213,0.0,-0.0011344542745501645,0.0,1.69670279782E7,4.7463517271E-17,1079.2802371,-0.464250090154,0.0853213111839,0.559692869495
4620.0,650459.981761,-1.51945896019E7,-1.80833663511E7,1.4976243206E7,-2567555.37608,-1.80949326822E7,3010.7520711,2526.97393426,-4293.04193976,-0.452513238384,0.077579722897,0.546745700755,-2.81688453176E9,1.36024352871,3.1415926535897927,-1.0751162254897846,-3.1415926535897927,-1.90558044269335,-0.8539196906489201,-2.537996308398197,0.0,-0.0011344542745501645,0.0,1.72629036506E7,4.72269517085E-17,1078.30928358,-0.452513238384,0.077579722897,0.546745700755
4680.0,769643.757794,-1.53421075217E7,-1.83398264249E7,1.51560806432E7,-2415801.71774,-1.83515386171E7,2983.94200587,2531.40884907,-4260.614113,-0.441229142435,0.0703296680261,0.534256437202,-2.81688453176E9,1.3646187978,3.1415926535897927,-1.0148443225250732,-3.1415926535897927,-1.9766402720141183,-0.8292617638084725,-2.4427432387588555,0.0,-0.0011344542745501645,0.0,1.75576784894E7,4.69984674189E-17,1077.36340271,-0.441229142435,0.0703296680261,0.534256437202
4740.0,887472.055851,-1.54893480443E7,-1.85943642719E7,1.53343295264E7,-2263794.73573,-1.86062210976E7,2957.79597041,2535.42261934,-4228.92241942,-0.430375270344,0.0635359550423,0.522204601196,-2.81688453176E9,1.36899406689,3.1415926535897927,-0.9543830240133908,-3.1415926535897927,-2.042037797885015,-0.8003343981022155,-2.35289833479303,0.0,-0.0011344542745501645,0.0,1.78513618361E7,4.67776651999E-17,1076.44163854,-0.430375270344,0.0635359550423,0.522204601196
4800.0,1003940.39683,-1.56363450242E7,-1.88470232551E7,1.5511028936E7,-2111558.89712,-1.88590235162E7,2932.28879405,2539.04164265,-4197.9412021,-0.419930408516,0.0571662778745,0.510570735316,-2.81688453176E9,1.37336933598,3.1415926535897927,-0.893739810336428,-3.1415926535897927,-2.1016011453253056,-0.7676158969799476,-2.268579251519245,0.0,-0.0011344542745501645,0.0,1.81439632884E7,4.65641708821E-17,1075.54307967,-0.419930408516,0.0571662778745,0.510570735316
4860.0,1119044.8162,-1.57831304167E7,-1.90978452334E7,1.56862164794E7,-1959117.14164,-1.91099877603E7,2907.39654153,2542.29045807,-4167.64594209,-0.409874577771,0.0511909492188,0.499336355247,-2.81688453176E9,1.37774460506,3.1415926535897927,-0.83292176285172,-3.1415926535897927,-2.1553873383606295,-0.7315693203690399,-2.189672297160282,0.0,-0.0011344542745501645,0.0,1.8435492654E7,4.63576334612E-17,1074.66685699,-0.409874577771,0.0511909492188,0.499336355247
4920.0,1232781.81275,-1.59297343876E7,-1.93468706286E7,1.58599283633E7,-1806490.98866,-1.93591542789E7,2883.09644129,2545.19189593,-4138.01320149,-0.400188954602,0.0455826611375,0.488483903294,-2.81688453176E9,1.38211987415,3.1415926535897927,-0.771935590257591,-3.1415926535897927,-2.2036122538863725,-0.6926267380172186,-2.115901984915295,0.0,-0.0011344542745501645,0.0,1.87259599101E7,4.61577233899E-17,1073.81214156,-0.400188954602,0.0455826611375,0.488483903294
4980.0,1345148.3024,-1.6076185415E7,-1.9594138488E7,1.60321994612E7,-1653700.63556,-1.9606562146E7,2859.36681834,2547.76721403,-4109.02056922,-0.39085579744,0.0403162699043,0.477996702896,-2.81688453176E9,1.38649514324,3.1415926535897927,-0.7107876529003544,-3.1415926535897927,-2.2465889663759504,-0.6511808669376954,-2.0468921480546727,0.0,-0.0011344542745501645,0.0,1.90153751672E7,4.59641310142E-17,1072.97814258,-0.39085579744,0.0403162699043,0.477996702896
5040.0,1456141.57642,-1.62225103846E7,-1.9839686545E7,1.62030633776E7,-1500765.04829,-1.98522491201E7,2836.18703148,2550.03622159,-4080.64660944,-0.381858377663,0.0353686024204,0.46785891441,-2.81688453176E9,1.39087041233,3.1415926535897927,-0.649483985208775,-3.1415926535897927,-2.284679240154348,-0.6075822338057449,-1.9822138515991046,0.0,-0.0011344542745501645,0.0,1.93037486365E7,4.57765651403E-17,1072.16410546,-0.381858377663,0.0353686024204,0.46785891441
5100.0,1565759.26375,-1.63687346786E7,-2.00835512754E7,1.63725525078E7,-1347702.04488,-2.00962517018E7,2813.53741446,2552.01739217,-4052.87081266,-0.373180915113,0.0307182818422,0.458055492377,-2.81688453176E9,1.39524568142,3.1415926535897927,-0.5880303164442887,-3.1415926535897927,-2.318258532003597,-0.5621400126888211,-1.9214197280423309,0.0,-0.0011344542745501645,0.0,1.95910906022E7,4.55947517198E-17,1071.36930998,-0.373180915113,0.0307182818422,0.458055492377
5160.0,1673999.29687,-1.65148822579E7,-2.03257679523E7,1.65406980952E7,-1194528.3724,-2.03386051877E7,2791.39922091,2553.7279666,-4025.67354935,-0.364808517871,0.0263455703369,0.448572144379,-2.81688453176E9,1.3996209505,3.1415926535897927,-0.5264320898716989,-3.1415926535897927,-2.3476926054437697,-0.5151250275382144,-1.8640666227538394,0.0,-0.0011344542745501645,0.0,1.98774113956E7,4.5418432643E-17,1070.59306854,-0.364808517871,0.0263455703369,0.448572144379
5220.0,1780859.88101,-1.666097574E7,-2.05663706969E7,1.67075302846E7,-1041259.77807,-2.0579343722E7,2769.75457273,2555.18404706,-3999.03602588,-0.356727126015,0.0222322271298,0.439395291592,-2.81688453176E9,1.40399621959,3.1415926535897927,-0.46469448051790124,-3.1415926535897927,-2.373323112009522,-0.4667738304667538,-1.809729180581696,0.0,-0.0011344542745501645,0.0,2.01627213736E7,4.52473646292E-17,1069.83472447,-0.356727126015,0.0222322271298,0.439395291592
5280.0,1886339.46625,-1.68070364707E7,-2.08053925275E7,1.68730781731E7,-887911.074993,-2.08185003451E7,2748.58641178,2556.40068295,-3972.94024294,-0.348923459153,0.0183613802134,0.430512031074,-2.81688453176E9,1.40837148868,3.1415926535897927,-0.40282241163208443,-3.1415926535897927,-2.395459585424818,-0.41729314403412265,-1.7580069109279013,0.0,-0.0011344542745501645,0.0,2.0447030898E7,4.50813182066E-17,1069.09365049,-0.348923459153,0.0183613802134,0.430512031074
5340.0,1990436.72227,-1.69530845921E7,-2.10428654064E7,1.70373698576E7,-734496.202902,-2.10561070406E7,2727.87845458,2557.39194946,-3947.36895597,-0.341384967458,0.0147174102823,0.421910099792,-2.81688453176E9,1.41274675777,3.1415926535897927,-0.34082056993816223,-3.1415926535897927,-2.414375738625117,-0.36686424429046405,-1.7085268235097226,0.0,-0.0011344542745501645,0.0,2.07303503192E7,4.49200767718E-17,1068.36924718,-0.341384967458,0.0147174102823,0.421910099792
5400.0,2093150.5155,-1.70991391054E7,-2.12788202832E7,1.72004324803E7,-581028.284429,-2.12921947788E7,2707.61514991,2558.17101958,-3922.30563791,-0.334099785997,0.0112858456151,0.413577840391,-2.81688453176E9,1.41712202686,3.1415926535897927,-0.2786934198033564,-3.1415926535897927,-2.4303084683437444,-0.3156470615915191,-1.6609432081357929,0.0,-0.0011344542745501645,0.0,2.10126899601E7,4.47634357247E-17,1067.66094157,-0.334099785997,0.0112858456151,0.413577840391
5460.0,2194479.88852,-1.72452179307E7,-2.15132871375E7,1.73622922711E7,-427519.677229,-2.15267935592E7,2687.78163891,2558.75023001,-3897.73444373,-0.327056692137,0.00805326677349,0.405504168681,-2.81688453176E9,1.42149729594,3.1415926535897927,-0.21644521640146971,-3.1415926535897927,-2.4434584333394724,-0.26378390508412736,-1.6149356685054417,0.0,-0.0011344542745501645,0.0,2.12940601029E7,4.46112016693E-17,1066.96818584,-0.327056692137,0.00805326677349,0.405504168681
5520.0,2294424.04124,-1.73913379617E7,-2.17462950184E7,1.75229745883E7,-273982.022323,-2.17599324501E7,2668.36371788,2559.14114165,-3873.64017709,-0.320245065811,0.00500722011138,0.397678542784,-2.81688453176E9,1.42587256503,3.1415926535897927,-0.15408001794607357,-3.1415926535897927,-2.4539914333288038,-0.21140279467241316,-1.5702061544682893,0.0,-0.0011344542745501645,0.0,2.15744709772E7,4.44631916762E-17,1066.29045597,-0.320245065811,0.00500722011138,0.397678542784
5580.0,2392982.31401,-1.75375151186E7,-2.19778720824E7,1.76825039569E7,-120426.288948,-2.1991639627E7,2649.34780311,2559.35459519,-3850.00825858,-0.313654852453,0.00213613920197,0.390090933908,-2.81688453176E9,1.43024783412,3.1415926535897927,-0.09160169707755937,-3.1415926535897927,-2.462040082215668,-0.1586204280836231,-1.5264754680251822,0.0,-0.0011344542745501645,0.0,2.18539327499E7,4.43192326011E-17,1065.6272506,-0.313654852453,0.00213613920197,0.390090933908
5640.0,2490154.17226,-1.76837643964E7,-2.22080456297E7,1.78409041045E7,33137.1837826,-2.22219424079E7,2630.72089813,2559.40076216,-3826.82469585,-0.307276528432,-5.7072661425E-4,0.382731798687,-2.81688453176E9,1.43462310321,3.1415926535897927,-0.029013951474216874,-3.1415926535897927,-2.4677054528548066,-0.10554483331515244,-1.4834795300497243,0.0,-0.0011344542745501645,0.0,2.21324555157E7,4.4179160455E-17,1064.97808987,-0.307276528432,-5.7072661425E-4,0.382731798687
5700.0,2585939.19259,-1.7830099911E7,-2.24368421385E7,1.79981979958E7,186698.648151,-2.24508672886E7,2612.47056272,2559.28919184,-3804.07605524,-0.301101068789,-0.00312337726883,0.375592053017,-2.81688453176E9,1.4389983723,3.1415926535897927,0.03367968626518802,-3.1415926535897927,-2.4710584951317887,-0.05227776703528547,-1.4409655675938366,0.0,-0.0011344542745501645,0.0,2.24100492896E7,4.40428198204E-17,1064.34251434,-0.301101068789,-0.00312337726883,0.375592053017
5760.0,2680337.05022,-1.79765349423E7,-2.26642872973E7,1.81544078649E7,340248.911824,-2.26784399746E7,2594.58488401,2559.02885459,-3781.74943497,-0.295119917136,-0.0055311212247,0.368663047338,-2.81688453176E9,1.44337364138,3.1415926535897927,0.09647583939682453,-3.1415926535897927,-2.4721411091834193,0.001083077034271448,-1.3986882986800433,0.0,-0.0011344542745501645,0.0,2.26867239998E7,4.39100633117E-17,1063.72008399,-0.295119917136,-0.0055311212247,0.368663047338
5820.0,2773347.50756,-1.81230819748E7,-2.28904060367E7,1.83095552464E7,493779.304322,-2.29046854129E7,2577.0524491,2558.62818162,-3759.83243979,-0.289324957558,-0.00780262952013,0.361936543285,-2.81688453176E9,1.44774891047,3.1415926535897927,0.15937127842296048,-3.1415926535897927,-2.4709668075582076,0.054441985313207444,-1.356406139646901,0.0,-0.0011344542745501645,0.0,2.2962489482E7,4.37807510738E-17,1063.11037721,-0.289324957558,-0.00780262952013,0.361936543285
5880.0,2864970.40393,-1.82697527358E7,-2.31152225585E7,1.84636610046E7,647281.645792,-2.31296278213E7,2559.86231955,2558.09510174,-3738.31315697,-0.283708488378,-0.00994598510216,0.355404691644,-2.81688453176E9,1.45212417956,3.1415926535897927,0.22236291304826344,-3.1415926535897927,-2.467520932946188,0.1077032034131064,-1.3138774303020246,0.0,-0.0011344542745501645,0.0,2.32373554745E7,4.36547503175E-17,1062.51298996,-0.283708488378,-0.00994598510216,0.355404691644
5940.0,2955205.64626,-1.84165582313E7,-2.33387603642E7,1.86167453608E7,800748.217892,-2.33532907167E7,2543.00400717,2557.43707533,-3717.18013359,-0.278263197657,-0.0119687279012,0.349060011549,-2.81688453176E9,1.45649944865,3.1415926535897927,0.2854477846551626,-3.1415926535897927,-2.461760422105688,0.16076891390973688,-1.2708566586632133,0.0,-0.0011344542745501645,0.0,2.35113316135E7,4.35319348886E-17,1061.92753485,-0.278263197657,-0.0119687279012,0.349060011549
6000.0,3044053.20064,-1.85635087797E7,-2.35610422817E7,1.87688279203E7,954171.736637,-2.3575696942E7,2526.46745139,2556.66112558,-3696.42235501,-0.272982140303,-0.0138778960514,0.342895370861,-2.81688453176E9,1.46087471774,3.1415926535897927,0.34862305927505877,-3.1415926535897927,-2.4536131261623035,0.21353714968842405,-1.2270906673334778,0.0,-0.0011344542745501645,0.0,2.37844274297E7,4.34121848662E-17,1061.35364035,-0.272982140303,-0.0138778960514,0.342895370861
6060.0,3131513.08469,-1.87106140441E7,-2.37820904913E7,1.89199276968E7,1107545.32705,-2.3796868692E7,2510.24299788,2555.77386753,-3676.02922455,-0.267858716677,-0.0156800636197,0.336903967654,-2.81688453176E9,1.46524998683,3.1415926535897927,0.4118860209906311,-3.1415926535897927,-2.4429767218376033,0.2658995790993892,-1.1823148376492996,0.0,-0.0011344542745501645,0.0,2.40566523454E7,4.32953861905E-17,1060.79095001,-0.267858716677,-0.0156800636197,0.336903967654
6120.0,3217585.36074,-1.88578830622E7,-2.40019265498E7,1.90700631365E7,1260862.49948,-2.40168275377E7,2494.32137841,2554.7815348,-3655.99054413,-0.262886652601,-0.0173813751694,0.331079312758,-2.81688453176E9,1.46962525591,3.1415926535897927,0.4752340657671449,-3.1415926535897927,-2.4297172814485166,0.3177390985045108,-1.1362492782620264,0.0,-0.0011344542745501645,0.0,2.4328015672E7,4.31814303157E-17,1060.23912174,-0.262886652601,-0.0173813751694,0.331079312758
6180.0,3302270.12959,-1.90053242747E7,-2.42205714142E7,1.92192521406E7,1414117.1275,-2.42355944497E7,2478.69369192,2553.69000444,-3636.29649609,-0.258059980647,-0.0189875774502,0.325415213292,-2.81688453176E9,1.474000525,3.1415926535897927,0.5386646956631947,-3.1415926535897927,-2.4136676224192675,0.368927168176036,-1.0885950977725791,0.0,-0.0011344542745501645,0.0,2.45985266075E7,4.3070213887E-17,1059.69782714,-0.258059980647,-0.0189875774502,0.325415213292
6240.0,3385567.52492,-1.91529455521E7,-2.44380454636E7,1.93675120869E7,1567303.42714,-2.44531898205E7,2463.35138663,2552.5048199,-3616.93762584,-0.253373022646,-0.0205040484785,0.319905757144,-2.81688453176E9,1.47837579409,3.1415926535897927,0.6021755133974945,-3.1415926535897927,-2.394625638816428,0.4193208313103465,-1.039030925455985,0.0,-0.0011344542745501645,0.0,2.48681942359E7,4.29616384395E-17,1059.16675078,-0.253373022646,-0.0205040484785,0.319905757144
6300.0,3467477.70831,-1.93007542204E7,-2.46543685208E7,1.951485985E7,1720415.93762,-2.46696334859E7,2448.2862432,2551.23121232,-3597.90482546,-0.248820373306,-0.0219358242451,0.314545298324,-2.81688453176E9,1.48275106318,3.1415926535897927,0.665764217252516,-3.1415926535897927,-2.3723529433431323,0.46875936646027366,-0.987209973371337,0.0,-0.0011344542745501645,0.0,2.51370275251E7,4.28556101175E-17,1058.64558966,-0.248820373306,-0.0219358242451,0.314545298324
6360.0,3548000.86465,-1.94487570848E7,-2.48695598726E7,1.96613118211E7,1873449.50311,-2.48849447452E7,2433.49035878,2549.87412033,-3579.18931813,-0.244396884879,-0.0232876232627,0.309328443161,-2.81688453176E9,1.48712633227,3.1415926535897927,0.72942859628356,-3.1415926535897927,-2.346574336043396,0.5170605470641279,-0.9327581244478461,0.0,-0.0011344542745501645,0.0,2.54050353266E7,4.27520394126E-17,1058.13405259,-0.244396884879,-0.0232876232627,0.309328443161
6420.0,3627137.19812,-1.95969604525E7,-2.5083638289E7,1.9806883926E7,2026399.25583,-2.50991423806E7,2418.95613204,2548.43820841,-3560.78264344,-0.2400976528,-0.0245638691466,0.304250037279,-2.81688453176E9,1.49150160135,3.1415926535897927,0.7931665258088256,-3.1415926535897927,-2.3169788845038495,0.5640165266696713,-0.8752738036690709,0.0,-0.0011344542745501645,0.0,2.56722263747E7,4.26508409187E-17,1057.63185963,-0.2400976528,-0.0245638691466,0.304250037279
6480.0,3704886.92856,-1.9745370154E7,-2.52966220418E7,1.99515916436E7,2179260.60003,-2.53122446757E7,2404.67624896,2546.92788394,-3542.67664336,-0.235918002224,-0.0257687114026,0.299305153312,-2.81688453176E9,1.49587687044,3.1415926535897927,0.8569759631857135,-3.1415926535897927,-2.2832237672258233,0.6093894480592199,-0.8143307595482954,0.0,-0.0011344542745501645,0.0,2.59386092862E7,4.2551933104E-17,1057.13874158,-0.235918002224,-0.0257687114026,0.299305153312
6540.0,3781250.2882,-1.9893991564E7,-2.55085289225E7,2.00954500218E7,2332029.19713,-2.55242694337E7,2390.64366943,2545.34731306,-3524.86344898,-0.231853475408,-0.0269060445783,0.294489079321,-2.81688453176E9,1.50025213953,3.1415926535897927,0.9208549438070402,-3.1415926535897927,-2.244942494928984,0.6529070058582318,-0.7494853496948232,0.0,-0.0011344542745501645,0.0,2.62041925608E7,4.24552380965E-17,1056.65443947,-0.231853475408,-0.0269060445783,0.294489079321
6600.00000001,3856227.51876,-2.004282962E7,-2.5719376259E7,2.02384736943E7,2484700.95161,-2.57352339937E7,2376.85161461,2543.70043548,-3507.33546792,-0.227899819879,-0.0279795259208,0.289797307856,-2.81688453176E9,1.50462740862,3.1415926535897927,0.984801577359053,-3.1415926535897927,-2.2017596413396534,0.6942583957762104,-0.6802904432620595,0.0,-0.0011344542745501645,0.0,2.64689845807E7,4.23606814847E-17,1056.17870411,-0.227899819879,-0.0279795259208,0.289797307856
6660.00000001,3929818.86887,-2.01918888409E7,-2.5929180932E7,2.03806768953E7,2637271.99792,-2.59451552474E7,2363.29355491,2541.99097813,-3490.08537238,-0.224052977326,-0.0289925916685,0.285225525641,-2.81688453176E9,1.50900267771,3.1415926535897927,1.0488140442696843,-3.1415926535897927,-2.15331464995305,0.7330913759783905,-0.6063184910708466,0.0,-0.0011344542745501645,0.0,2.67329936113E7,4.22681921297E-17,1055.71129564,-0.224052977326,-0.0289925916685,0.285225525641
6720.00000001,4002024.5918,-2.03411733446E7,-2.61379593907E7,2.05220734748E7,2789738.68805,-2.61540496544E7,2349.96319868,2540.22246806,-3473.10608775,-0.220309073181,-0.0299484720947,0.280769603831,-2.81688453176E9,1.51337794679,3.1415926535897927,1.1128905923802084,3.1415926535897927,-2.0992973522166025,0.7690115462874457,-0.5271963847616916,0.0,-0.0011344542745501645,0.0,2.69962278017E7,4.21777019905E-17,1055.25198307,-0.220309073181,-0.0299484720947,0.280769603831
6780.00000001,4072844.9434,-2.04906868639E7,-2.63457276671E7,2.06626769118E7,2942097.57993,-2.63619332574E7,2336.85448148,2538.3982443,-3456.39078189,-0.216664406827,-0.0308502054069,0.276425588824,-2.81688453176E9,1.51775321588,3.1415926535897927,1.1770295337931778,3.1415926535897927,-2.0394970377062176,0.8015853724167135,-0.4426539336219181,0.0,-0.0011344542745501645,0.0,2.72586951853E7,4.20891459587E-17,1054.80054395,-0.216664406827,-0.0308502054069,0.276425588824
6840.00000001,4142280.18036,-2.06404327627E7,-2.65525013906E7,2.08025003282E7,3094345.42645,-2.65688216957E7,2323.96155593,2536.52146906,-3439.93285481,-0.213115442406,-0.0317006506001,0.272189693572,-2.81688453176E9,1.52212848497,3.1415926535897927,1.241229241894891,3.1415926535897927,-1.9738645803427328,0.8303488137819489,-0.3525854525303624,0.0,-0.0011344542745501645,0.0,2.7520403681E7,4.20024617049E-17,1054.35676392,-0.213115442406,-0.0317006506001,0.272189693572
6900.00000001,4210330.55863,-2.07904140502E7,-2.67582958019E7,2.09415565014E7,3246479.16521,-2.67747302198E7,2311.27878205,2534.59513805,-3423.72592894,-0.209658800169,-0.0325024993489,0.268058289381,-2.81688453176E9,1.52650375406,3.1415926535897927,1.3054881485576293,3.1415926535897927,-1.9025826368434309,0.8548234025495179,-0.2571194676588051,0.0,-0.0011344542745501645,0.0,2.77813610932E7,4.19175895338E-17,1053.92043639,-0.209658800169,-0.0325024993489,0.268058289381
6960.00000001,4276996.33203,-2.09406333958E7,-2.69631257654E7,2.10798578762E7,3398495.90878,-2.69796737038E7,2298.80071819,2532.62209026,-3407.76383992,-0.206291248359,-0.033258287019,0.264027898165,-2.81688453176E9,1.53087902315,3.1415926535897927,1.3698047414710495,3.1415926535897927,-1.8261323917429193,0.874540913865374,-0.15668500642844374,0.0,-0.0011344542745501645,0.0,2.80415751141E7,4.18344722478E-17,1053.4913622,-0.206291248359,-0.033258287019,0.264027898165
7020.00000001,4342277.75117,-2.1091093142E7,-2.71670057821E7,2.12174165766E7,3550392.93562,-2.7183666658E7,2286.52211235,2530.60501696,-3392.04062769,-0.203009695554,-0.0339704028696,0.260095185122,-2.81688453176E9,1.53525429223,3.1415926535897927,1.4341775616446166,3.1415926535897927,-1.7453384735985118,0.8890760491384677,-0.05205608854625994,0.0,-0.0011344542745501645,0.0,2.83010533237E7,4.17530550202E-17,1053.06934925,-0.203009695554,-0.0339704028696,0.260095185122
7080.00000001,4406175.06235,-2.12417953169E7,-2.73699500018E7,2.13542444173E7,3702167.68143,-2.73867232412E7,2274.43789399,2528.54647021,-3376.55052819,-0.199811183483,-0.0346410995128,0.256256951808,-2.81688453176E9,1.53962956132,3.1415926535897927,1.498605201030466,3.1415926535897927,-1.6613704270794571,0.8980838676232857,0.055647203630627015,0.0,-0.0011344542745501645,0.0,2.85598031915E7,4.16732852739E-17,1052.65421227,-0.199811183483,-0.0346410995128,0.256256951808
7140.00000001,4468688.50674,-2.13927416473E7,-2.7571972234E7,2.14903529136E7,3853817.73108,-2.7588857272E7,2262.54316624,2526.44887082,-3361.28796533,-0.19669288024,-0.0352725016892,0.2525101296,-2.81688453176E9,1.54400483041,3.1415926535723395,1.5630863002736735,3.1415926535723395,-1.5756843578048603,0.9013357924820349,0.16501746502621867,0.0,-0.0011344542745501645,0.0,2.88178320779E7,4.15951125697E-17,1052.24577244,-0.19669288024,-0.0352725016892,0.2525101296
7200.00000001,4529818.31972,-2.15439335693E7,-2.77730859596E7,2.16257532923E7,4005340.8109,-2.77900822398E7,2250.8331985,2524.31451573,-3346.2475434,-0.193652073915,-0.0358666144148,0.248851773496,-2.81688453176E9,1.5483800995,2.131786954728686E-12,1.5139731070050928,2.3614843111630288E-12,-1.48990413621493,0.8987463388702531,0.2744791372654101,0.0,-0.0011344542745501645,0.0,2.90751472351E7,4.15184884988E-17,1051.84385718,-0.193652073915,-0.0358666144148,0.248851773496
7260.00000001,4589564.7302,-2.16953722398E7,-2.7973304341E7,2.17604565011E7,4156734.78152,-2.79904113155E7,2239.30341946,2522.14558496,-3331.42403981,-0.19068616657,-0.0364253305483,0.245279056264,-2.81688453176E9,1.55275536859,1.00975774417189E-12,1.449388981866258,1.231601933086324E-12,-1.4056630891968342,0.8903837075460629,0.3824471846952828,0.0,-0.0011344542745501645,0.0,2.93317558087E7,4.14433665836E-17,1051.44829985,-0.19068616657,-0.0364253305483,0.245279056264
7320.00000001,4647927.96024,-2.18470585469E7,-2.81726402326E7,2.1894473218E7,4307997.63104,-2.81898573617E7,2227.9494104,2519.94414817,-3316.81239824,-0.187792668578,-0.0369504378255,0.241789262893,-2.81688453176E9,1.55713063767,6.635416215398436E-13,1.3847552035012312,8.853223806164976E-13,-1.3244433778280857,0.8764613067675229,0.48748808395952653,0.0,-0.0011344542745501645,0.0,2.9587664839E7,4.13697021828E-17,1051.05893952,-0.187792668578,-0.0369504378255,0.241789262893
7380.00000001,4704908.22465,-2.199899312E7,-2.83711061905E7,2.20278138602E7,4459127.46856,-2.83884329425E7,2216.76689884,2517.71217075,-3302.40772202,-0.184969193277,-0.0374436254007,0.238379785352,-2.81688453175E9,1.56150590676,4.915584490349638E-13,1.3200729566901235,7.070208006150003E-13,-1.2474512583388526,0.8573125627967825,0.5884449354703651,0.0,-0.0011344542745501645,0.0,2.98428812625E7,4.12974524027E-17,1050.6756207,-0.184969193277,-0.0374436254007,0.238379785352
7440.00000001,4760505.7307,-2.21511763393E7,-2.85687144815E7,2.2160488593E7,4610122.51812,-2.85861503327E7,2205.75175259,2515.45151953,-3288.20526787,-0.182213451919,-0.0379064899345,0.235048117614,-2.81688453176E9,1.56588117585,4.0276155458590005E-13,1.2553433871054531,6.067367532657876E-13,-1.1755515027807772,0.8333555638561085,0.6845034258299095,0.0,-0.0011344542745501645,0.0,3.00974119132E7,4.12265760132E-17,1050.29819314,-0.182213451919,-0.0379064899345,0.235048117614
7500.00000001,4814720.67799,-2.23036083448E7,-2.87654770929E7,2.22925073378E7,4760981.11296,-2.8783021527E7,2194.89997391,2513.16396817,-3274.20043994,-0.179523248917,-0.0383405412627,0.231791850952,-2.81688453175E9,1.57025644494,3.4999889601329534E-13,1.1905676029562455,5.387589843760093E-13,-1.109262691315479,0.8050554310630856,0.7751969351051174,0.0,-0.0011344542745501645,0.0,3.03512635243E7,4.1157033369E-17,1049.92651161,-0.179523248917,-0.0383405412627,0.231791850952
7560.00000001,4867553.25833,-2.24562890452E7,-2.89614057403E7,2.24238797798E7,4911701.69006,-2.89790582488E7,2184.20769414,2510.85120222,-3260.38878411,-0.176896477346,-0.0387472076767,0.228608669479,-2.81688453175E9,1.57463171403,3.111441800286443E-13,1.1257466765274151,4.862514309529326E-13,-1.0487982727275624,0.7728908741714351,0.8603658984296463,0.0,-0.0011344542745501645,0.0,3.06044427294E7,4.10887863342E-17,1049.56043569,-0.176896477346,-0.0387472076767,0.228608669479
7620.00000001,4919003.65569,-2.2609218126E7,-2.91565118766E7,2.25546153761E7,5062282.78503,-2.91742719581E7,2173.6711685,2508.51482386,-3246.7659825,-0.174331114694,-0.0391278408474,0.225496345916,-2.81688453176E9,1.57900698311,2.7908950679602604E-13,1.0608816456632935,4.4501925023950693E-13,-0.9941318649918086,0.7373285384738334,0.9400929568381453,0.0,-0.0011344542745501645,0.0,3.08569560643E7,4.10217982124E-17,1049.19982957,-0.174331114694,-0.0391278408474,0.225496345916
