time,gePosition_m_X,gePosition_m_Y,gePosition_m_Z,eiPosition_m_X,eiPosition_m_Y,eiPosition_m_Z,eiVelocity_m_s_X,eiVelocity_m_s_Y,eiVelocity_m_s_Z,eiAccel_m_s2_X,eiAccel_m_s2_Y,eiAccel_m_s2_Z,semiMajorAxis_m,gast_rad,eulerAngle_rad_Roll,eulerAngle_rad_Pitch,eulerAngle_rad_Yaw,eulerAngleWrtEi_rad_Roll,eulerAngleWrtEi_rad_Pitch,eulerAngleWrtEi_rad_Yaw,bodyAngularRateWrtEi_rad_s_Roll,bodyAngularRateWrtEi_rad_s_Pitch,bodyAngularRateWrtEi_rad_s_Yaw,altitudeMsl_m,airDensity_kg_m3,ambientTemperature_dgK,eiGravitation_m_s2_X,eiGravitation_m_s2_Y,eiGravitation_m_s2_Z
0.0,-1428622.33421604,4163200.23408806,5136049.85325658,-4292653.40999999,955168.470000001,5139356.56999999,109.649662999999,-7527.72648999999,1484.521489,5.52898656943576,-1.23026788742735,-6.61954990003991,6758662.11713295,1.02331933954551,0.0,-1.0E-16,-1.0E-16,-2.45673399369087,-0.195157863578589,-1.55662191625545,0.0,-0.0011344542745502,0.0,398254.541169311,3.4018E-12,990.9677734375,5.52898656943576,-1.23026788742735,-6.61954990003991
60.0,-1789712.66688799,3920255.07286147,5213136.77866199,-4276130.76360596,501640.150638696,5216447.9477096,440.89950443067,-7584.04304560446,1084.18939671721,5.50841669101188,-0.646201702290723,-6.71971240625185,6758662.11713295,1.02769460895833,2.0E-16,2.890072992E-6,5.0E-16,-2.46403808350273,-0.142273855138605,-1.51314545425423,0.0,-0.0011344542745502,0.0,398336.992349115,3.2024E-12,984.492431640625,5.50841669101188,-0.646201702290723,-6.71971240625185
120.0,-2144732.04662889,3662345.06425552,5266057.40817608,-4239785.46485012,45786.4492662478,5269357.68010003,770.149856370132,-7605.20775889493,678.777242687981,5.46236021849707,-0.0589893241277552,-6.78881750207328,6758662.11713295,1.03206987837114,0.0,1.18821902548E-5,2.0E-15,-2.46898393749582,-0.0891285719195745,-1.47032473601911,0.0,-0.0011344542745502,0.0,398282.351311357,3.31E-12,992.429565429687,5.46236021849707,-0.0589893241277552,-6.78881750207328
180.0,-2492166.13162674,3390598.74813029,5294563.01581204,-4183783.25764021,-410279.480789438,5297837.08956659,1095.87688044395,-7591.11290731578,270.159254314343,5.39101509830666,0.528665740851215,-6.82652947809053,6758662.11713293,1.03644514778395,-4.0E-16,2.74378413513E-5,2.4E-15,-2.47163344785322,-0.0358222887882547,-1.42790970548248,0.0,-0.0011344542745502,0.0,398087.267113154,3.4386E-12,1001.05029296875,5.39101509830666,0.528665740851215,-6.82652947809053
240.0,-2830524.93702988,3106195.59239542,5298517.77705964,-4108380.89026234,-864442.894077697,5301750.47079619,1416.57209402152,-7541.81319429654,-139.774483871494,5.29469509575327,1.11405482453689,-6.8326557265336,6758662.11713293,1.04082041719676,3.0E-16,4.9988342573E-5,2.2E-15,-2.47201970720766,0.0175481294069533,-1.38565662496528,0.0,-0.0011344542745502,0.0,397750.65949774,3.5884E-12,1010.26550292968,5.29469509575327,1.11405482453689,-6.8326557265336
300.0,-3158349.270653,2810360.8625335,5277899.46241607,-4013924.98616549,-1314597.20057481,5281075.78379098,1730.74928792362,-7457.52569377154,-549.126655817536,5.17382866290943,1.69447627944137,-6.80714795501864,6758662.11713292,1.04519568660958,2.0E-16,7.99328300486E-5,3.7E-15,-2.47014753600732,0.0708871708736869,-1.3433242894374,0.0,-0.0011344542745502,0.0,397273.760663849,3.7594E-12,1019.95324707031,5.17382866290943,1.69447627944137,-6.80714795501864
360.0,-3474217.08356008,2504360.33239744,5232799.61189145,-3900850.50202594,-1758653.68795,5235904.82754429,2036.95136097345,-7338.62906255532,-956.001393682112,5.0289572989035,2.26724769269328,-6.75010277506601,6758662.11713291,1.04957095602238,5.0E-16,1.176363964492E-4,4.0E-15,-2.46599356037773,0.124098662252526,-1.3006702537301,0.0,-0.0011344542745502,0.0,396660.117178728,3.9509E-12,1029.97082519531,5.0289572989035,2.26724769269328,-6.75010277506601
420.0,-3776749.70790785,2189494.85846297,5163423.18837005,-3769678.77899435,-2194551.1745925,5166442.89225282,2333.75704096416,-7185.66202019119,-1358.51297387969,4.86073340387451,2.82971808109854,-6.66176165606416,6758662.11713291,1.0539462254352,1.0E-16,1.634283801384E-4,3.1E-15,-2.45950583704051,0.177083733268789,-1.25744705315722,0.0,-0.0011344542745502,0.0,395915.551833144,4.162E-12,1040.1689453125,4.86073340387451,2.82971808109854,-6.66176165606416
480.0,-4064617.9545457,1867094.84018571,5070087.70999107,-3621015.19485001,-2620265.54951284,5073007.89023311,2619.78746174859,-6999.32109895111,-1754.79449114439,4.66991762979729,3.37928001567731,-6.54251023756935,6758662.11713289,1.05832149484801,1.4E-15,2.176008149674E-4,3.5E-15,-2.45060304250781,0.229738697372934,-1.21339840239394,0.0,-0.0011344542745502,0.0,395048.085863346,4.3915E-12,1050.40612792968,4.66991762979729,3.37928001567731,-6.54251023756935
540.0,-4336548.0430981,1538514.58950239,4953221.86401991,-3455546.42659797,-3033819.15548605,4956028.9680193,2893.71256641194,-6780.45766979256,-2143.00647195708,4.45737573348444,3.91338162304976,-6.39287699521488,6758662.11713288,1.06269676426082,1.9E-15,2.804070482729E-4,2.9E-15,-2.43917326977581,0.281952784368164,-1.16825537618686,0.0,-0.0011344542745502,0.0,394067.822592779,4.6383E-12,1060.55859375,4.45737573348444,3.91338162304976,-6.39287699521488
600.0,-4591327.33760699,1205126.63282019,4813363.60700654,-3274037.33483586,-3433289.97224749,4816044.6044457,3154.25730687163,-6530.07425326224,-2521.34538847429,4.2240749392655,4.42953841017491,-6.21353125804955,6758662.11713289,1.06707203367362,1.5E-15,3.520605339778E-4,4.6E-15,-2.42507251434688,0.333605660524981,-1.12173261217434,0.0,-0.0011344542745502,0.0,392986.794171214,4.901E-12,1070.52355957031,4.2240749392655,4.42953841017491,-6.21353125804955
660.0,-4827809.86128651,868315.969059012,4651157.75835964,-3077327.48298188,-3816820.55718888,4653700.20185142,3400.20761076722,-6249.32012756754,-2888.0520340464,3.97107982113437,4.92534485827839,-6.00528057783245,6758662.11713291,1.07144730308643,1.9E-15,4.327338069211E-4,1.8E-15,-2.40812299170771,0.384564672846714,-1.07352463756142,0.0,-0.0011344542745502,0.0,391818.773704977,5.1781E-12,1080.21948242187,3.97107982113437,4.92534485827839,-6.00528057783245
720.0,-5044921.56454341,529474.307444179,4467353.09679607,-2866327.3061844,-4182626.70183246,4469745.1798768,3630.41608716128,-5939.48624930122,-3241.41972152959,3.69954771652993,5.39848573136605,-5.76906745367342,6758662.11713291,1.07582257249925,2.5E-15,5.225576438489E-4,1.8E-15,-2.38811152227235,0.43468175952293,-1.02330251806631,0.0,-0.0011344542745502,0.0,390579.055672699,5.4681E-12,1089.58361816406,3.69954771652993,5.39848573136605,-5.76906745367342
780.0,-5241665.32114602,189994.308790014,4262798.97144382,-2642013.94641956,-4529005.76338929,4265029.58364077,3843.80744337518,-5601.99950558723,-3579.80226588873,3.41072368636211,5.84674704454011,-5.50596541841593,6758662.1171329,1.08019784191205,3.0E-15,6.21620415594E-4,1.9E-15,-2.36478836266375,0.483789982399744,-0.970711173943139,0.0,-0.0011344542745502,0.0,389284.208098517,5.7689E-12,1098.56665039062,3.41072368636211,5.84674704454011,-5.50596541841593
840.0,-5417125.62828282,-148736.146035411,4038441.441672,-2405426.77191518,-4854344.63193202,4040500.22038563,4039.38358623529,-5238.416319701,-3901.62171306594,3.10593503839876,6.26802663744205,-5.21717449630022,6758662.1171329,1.08457311132487,3.4E-15,7.29967634249E-4,2.3E-15,-2.33786707275382,0.531699666174718,-0.915367922159814,0.0,-0.0011344542745502,0.0,387951.800499092,6.0783E-12,1107.12976074218,3.10593503839876,6.26802663744205,-5.21717449630022
900.0,-5570472.98724038,-485339.636918006,3795318.96198237,-2157662.60061125,-5157127.29513407,3797196.34093735,4216.22838210843,-4850.41563548746,-4205.37577775894,2.7865854336723,6.66034429856794,-4.90401604470142,6758662.11713289,1.08894838073768,2.2E-15,8.476016981903E-4,1.8E-15,-2.30702630562668,0.578194183065269,-0.856863105182283,0.0,-0.0011344542745502,0.0,386600.112121685,6.3938E-12,1115.24084472656,2.7865854336723,6.66034429856794,-4.90401604470142
960.0,-5700967.94254684,-818454.811268765,3534557.63051242,-1899870.64886709,-5435941.96414376,3536244.88454681,4373.51205136129,-4439.79130913374,-4489.64495362103,2.45414859812575,7.02185138696231,-4.56792699609048,6758662.11713284,1.09332365015049,1.2E-15,9.744818369484E-4,3.2E-15,-2.27191480548879,0.623025515221634,-0.794764068044191,0.0,-0.0011344542745502,0.0,385247.825435734,6.7121E-12,1122.87268066406,2.45414859812575,7.02185138696231,-4.56792699609048
1020.0,-5810755.09517447,-1156888.0559631,3249266.14339914,-1625505.9633872,-5696608.82910167,3250749.67230017,5285.83810026091,-4716.33042530629,-5566.08708045316,41.056378806227,-27.4071015598622,-45.2198580474338,1.08282377748719E7,1.0976989195633,3.3E-15,0.0030754405301894,4.5E-15,-2.23216138608171,0.665909878663081,-0.728624235947624,0.0,-0.0011344542745502,0.0,384117.289424861,7.0105E-12,1130.22583007812,2.09994672470912,7.35929324288276,-4.19955465003107
1080.0,-5926580.76149056,-1604525.05219867,2854898.09331911,-1254386.89644192,-6009865.52211528,2856104.55147656,6495.44760245935,-5212.18694124556,-6965.46635814055,1.61053499912521,7.71619887839819,-3.66701561883446,-2.81516063654456E9,1.10207418897612,4.7E-15,0.0275315508702538,5.6E-15,-2.18739217347962,0.706523922081365,-0.657999558645713,0.0,-0.0011344542745502,0.0,396890.366583603,5.8519E-12,1140.58117675781,1.61053499912521,7.71619887839819,-3.66701561883446
1140.0,-6023878.36147529,-2063563.27568366,2431021.00915383,-862075.491991034,-6308549.21146989,2431933.33504824,6576.34232741356,-4741.68031877263,-7167.51427470915,1.08525207922734,7.94172460794995,-3.06151924387482,-2.81516063654192E9,1.10644945838892,5.0E-15,0.0550166410298764,5.5E-15,-2.13725775893349,0.744502334881517,-0.58247495196679,0.0,-0.0011344542745502,0.0,440404.509143165,3.0344E-12,1152.04064941406,1.08525207922734,7.94172460794995,-3.06151924387482
1200.0,-6098003.96685409,-2512561.61439492,1996133.6372013,-465854.874643589,-6578688.74602963,1996747.69615477,6625.83063148951,-4262.24624282791,-7332.37860213137,0.56751701541928,8.01433666520189,-2.43249208014416,-2.81516063653575E9,1.11082472780174,6.5E-15,0.0808403299075725,4.7E-15,-2.08147277298317,0.779438099832488,-0.501703234400367,0.0,-0.0011344542745502,0.0,514468.09434807,1.0558E-12,1161.77514648437,0.56751701541928,8.01433666520189,-2.43249208014416
1260.0,-6149416.15956069,-2950066.69410061,1552490.42832547,-67582.4442116435,-6820020.0122862,1552803.52214959,6645.0261896067,-3782.84634907352,-7459.51620831607,0.0787099473102032,7.9429417222692,-1.80847385496659,-2.8151606365406E9,1.11519999721455,6.5E-15,0.104256104233553,5.2E-15,-2.01986919896906,0.810887038531226,-0.415457865278937,0.0,-0.0011344542745502,0.0,617807.516400601,2.684E-13,1169.021484375,0.0787099473102032,7.9429417222692,-1.80847385496659
1320.0,-6178963.89941621,-3374934.08567826,1102329.05344396,330987.097315623,-7032794.51350363,1102339.86014852,6636.19087287756,-3311.61296798181,-7549.99223698882,-0.364541415951197,7.74575471623802,-1.21409123418123,-2.81516063653311E9,1.11957526662736,8.1E-15,0.12464314054796,2.9E-15,-1.95246179218062,0.83837855646259,-0.323697840630205,0.0,-0.0011344542745502,0.0,748729.64313338,5.67E-14,1174.1572265625,-0.364541415951197,7.74575471623802,-1.21409123418123
1380.0,-6187809.36440199,-3786345.19142582,647782.403050913,728261.301523063,-7217714.85537205,647490.867705755,6602.41339923585,-2855.39224862318,-7606.17836152378,-0.751377380483766,7.44681568245661,-0.668043174951681,-2.81516063654236E9,1.12395053604017,1.01E-14,0.141523397387923,1.8E-15,-1.87951878173385,0.861434308947076,-0.226637914826265,0.0,-0.0011344542745502,0.0,905233.865364686,1.29E-14,1177.64526367187,-0.751377380483766,7.44681568245661,-0.668043174951681
1440.0,-6177341.24284285,-4183798.7772087,190811.513826097,1122849.08974815,-7375849.29605834,190218.705695142,6547.26011772737,-2419.5044174893,-7631.36958189246,-1.0766508644468,7.07237917644989,-0.18239239430346,-2.81516063654412E9,1.12832580545299,1.17E-14,0.154563895129491,-2.0E-15,-1.80162410892996,0.879595514246577,-0.124810393802845,0.0,-0.0011344542745502,0.0,1085128.74421489,4.4E-15,1179.7998046875,-1.0766508644468,7.07237917644989,-0.18239239430346
1500.0,-6149089.1881409,-4567082.99330528,-266837.962995088,1513579.53993345,-7508538.14182015,-267730.01152608,6474.45441959852,-2007.7057592456,-7629.39322692955,-1.34008953483124,6.64789204680771,0.237042175280808,-2.81516063653751E9,1.13270107486579,1.2E-14,0.163567077123024,-3.2E-15,-1.71971120982546,0.892457591776872,-0.0190985003985074,0.0,-0.0011344542745502,0.0,1286140.28499428,2.0E-15,1180.84008789062,-1.34008953483124,6.64789204680771,0.237042175280808
1560.0,-6104647.34553211,-4936235.02159673,-723657.040282235,1899503.24367,-7617302.76036853,-724845.499309636,6387.62032800235,-1622.30434157811,-7604.26476142614,-1.54505762282283,6.19592082007597,0.589589971909382,-2.81516063653928E9,1.1370763442786,1.1E-14,0.168453268434909,-4.1E-15,-1.63504724250522,0.899707930097581,0.0892797942429083,0.0,-0.0011344542745502,0.0,1506003.18296083,1.1E-15,1180.94299316406,-1.54505762282283,6.19592082007597,0.589589971909382
1620.0,-6045611.48620655,-5291495.1358893,-1178376.23533569,2279880.58858728,-7703764.66576423,-1179857.63700627,6290.10369328649,-1264.37015742518,-7559.91989245747,-1.69725504583313,5.73506065025157,0.878343952660478,-2.81516063653751E9,1.14145161369142,1.18E-14,0.169239233602575,-6.0E-15,-1.54915518001162,0.901159884053888,0.198850058320749,0.0,-0.0011344542745502,0.0,1742531.02563281,6.0E-16,1180.26452636718,-1.69725504583313,5.73506065025157,0.878343952660478
1680.0,-5973531.25865184,-5633260.59745318,-1629954.85831972,2654161.5820761,-7769578.65806622,-1631725.24323869,6184.86741033813,-933.985426298946,-7500.03019709354,-1.8035776521854,5.27964782898554,1.10880332346236,-2.81516063653972E9,1.14582688310422,1.01E-14,0.166016087602581,-7.6E-15,-1.46367961800248,0.896775125160577,0.308015962728738,0.0,-0.0011344542745502,0.0,1993665.26000519,3.0E-16,1178.94604492187,-1.8035776521854,5.27964782898554,1.10880332346236
1740.0,-5889876.8698389,-5962043.07905139,-2077561.57659314,3021961.2887234,-7816381.13153042,-2079616.62307657,6074.44732404416,-630.494459877138,-7427.89441044458,-1.87124271197783,4.84001773318416,1.28772908645825,-2.81516063653663E9,1.15020215251704,9.1E-15,0.158928782040061,-5.1E-15,-1.38022338332222,0.886668423894634,0.415223039434813,0.0,-0.0011344542745502,0.0,2257505.24916032,2.0E-16,1177.11340332031,-1.87124271197783,4.84001773318416,1.28772908645825
1800.0,-5796018.22483344,-6278431.6867947,-2520550.35195365,3383034.02607174,-7845752.69715841,-2522885.48661154,5960.95213293363,-352.727955961711,-7346.39000525399,-1.90719373411324,4.42306233638375,1.4222828842008,-2.81516063653553E9,1.15457742192984,9.5E-15,0.148158401158826,-2.3E-15,-1.30019434193443,0.871093526059092,0.519112241861816,0.0,-0.0011344542745502,0.0,2532322.98209032,1.0E-16,1174.87768554687,-1.90719373411324,4.42306233638375,1.4222828842008
1860.0,-5693214.02859819,-6583062.37165387,-2958434.85163259,3737248.47311643,-7859193.16924523,-2961045.34152125,5846.09148951042,-99.1897397720808,-7257.967967676,-1.91774703256872,4.03289866518727,1.51944296929997,-2.81516063653707E9,1.15895269134266,9.5E-15,0.133907729839326,-4.3E-15,-1.22469741385211,0.850414003335844,0.618628305082979,0.0,-0.0011344542745502,0.0,2816566.27112276,1.0E-16,1172.33435058593,-1.91774703256872,4.03289866518727,1.51944296929997
1920.0,-5582608.34792592,-6876593.6518513,-3390863.4484989,4084564.98149118,-7858106.54596747,-3393744.47617654,5731.21948200254,131.796720622562,-7164.67538781105,-1.90842239641246,3.67152599938434,1.58565183694834,-2.81516063653641E9,1.16332796075546,8.7E-15,0.116390040466016,-6.8E-15,-1.15448854888664,0.825066375395068,0.713066157613871,0.0,-0.0011344542745502,0.0,3108853.94570659,1.0E-16,1169.56433105468,-1.90842239641246,3.67152599938434,1.58565183694834
1980.0,-5465232.41746113,-7159688.05762456,-3817596.09596221,4425015.71639421,-7843793.63759934,-3820742.81935935,5617.38421550522,341.979130716642,-7068.19368417155,-1.88390011041599,3.33940592464038,1.6266377976003,-2.81516063653707E9,1.16770323016828,8.7E-15,0.095820755676543,-5.9E-15,-1.08998626277186,0.795523203096251,0.802059791124596,0.0,-0.0011344542745502,0.0,3407965.94384297,1.0E-16,1166.63439941406,-1.88390011041599,3.33940592464038,1.6266377976003
2040.0,-5342009.88096651,-7432998.47236674,-4238483.73611816,4758687.79647356,-7817450.26173479,-4241891.33534611,5505.37741666807,533.09895064562,-6969.88369780353,-1.848056135607,3.03593922083051,1.64735608725453,-2.81516063653333E9,1.17207849958109,9.4E-15,0.0724115198295992,-7.3E-15,-1.03132249141928,0.762261804399408,0.885531836607798,0.0,-0.0011344542745502,0.0,3712830.52767712,1.0E-16,1163.59985351562,-1.848056135607,3.03593922083051,1.64735608725453
2100.0,-5213764.07926706,-7697158.48770384,-4653450.46646168,5085709.31675566,-7780169.28903215,-4657114.17965728,5395.78050915501,706.839413354038,-6870.83186968278,-1.80403961245003,2.75983795273912,1.65200524381604,-2.81516063653443E9,1.1764537689939,9.7E-15,0.0463661938110333,-9.1E-15,-0.978411256794049,0.725741281801588,0.96362536035925,0.0,-0.0011344542745502,0.0,4022510.22887507,1.0E-16,1160.5048828125,-1.80403961245003,2.75983795273912,1.65200524381604
2160.0,-5081226.37228709,-7952775.93977599,-5062478.41616613,5406237.98287812,-7732945.19653318,-5066393.56631065,5289.00540362429,864.792982114956,-6771.89402298883,-1.75436832031888,2.5094037884617,1.64408603527123,-2.81516063653641E9,1.18082903840671,6.3E-15,0.0178783281024872,-8.6E-15,-0.931017970824625,0.686388019310972,1.0366350609186,0.0,-0.0011344542745502,0.0,4336187.61531313,1.0E-16,1157.38537597656,-1.75436832031888,2.5094037884617,1.64408603527123
2220.0,-4945044.7914367,-8200428.89614544,-5465595.12670038,5720452.01750312,-7676680.12174655,-5469757.1411251,5185.32942093583,1008.44308973735,-6673.7349157797,-1.70102686235645,2.28272854327836,1.62648052971187,-2.81516063653641E9,1.18520430781953,7.8E-15,-0.0128702647629302,-1.23E-14,-0.888819235738285,0.644588299078235,1.10494801702877,0.0,-0.0011344542745502,0.0,4653151.57427871,1.0E-16,1154.26953125,-1.70102686235645,2.28272854327836,1.62648052971187
2280.0,-4805792.5577112,-8440663.48278232,-5862863.15663711,6028542.98800321,-7612190.69054726,-5867267.5806821,5084.92447118138,1139.15599335262,-6576.86281957084,-1.645558940841,2.07783347902536,1.6015369957403,-2.81516063653972E9,1.18957957723233,6.3E-15,-0.0457101450647227,-1.28E-14,-0.851449212396248,0.600686145089914,1.1689979245805,0.0,-0.0011344542745502,0.0,4972784.51812021,1.0E-16,1151.17895507812,-1.645558940841,2.07783347902536,1.6015369957403
2340.0,-4663976.17772522,-8673993.05846443,-6254371.60775619,6330710.22446939,-7540215.11294606,-6259014.1138108,4987.88098713596,1258.17952716661,-6481.6590517591,-1.58914950358981,1.89276221448012,1.57115218028443,-2.81516063653773E9,1.19395484664514,4.6E-15,-0.0804843273529133,-1.47E-14,-0.818532670355654,0.554984582822069,1.22923271966795,0.0,-0.0011344542745502,0.0,5294550.7168589,1.0E-16,1148.13073730468,-1.58914950358981,1.89276221448012,1.57115218028443
2400.0,-4520042.95575286,-8900898.34958004,-6640229.27778256,6627156.53273558,-7461420.20854802,-6645105.67071883,4894.22727418431,1366.64635338957,-6388.402769475,-1.53269529984773,1.72563959027384,1.53684648584845,-2.81516063653685E9,1.19833011605796,5.7E-15,-0.117047989810229,-1.79E-14,-0.789706813430375,0.507748868330668,1.28609350640318,0.0,-0.0011344542745502,0.0,5617985.82827388,1.0E-16,1145.13732910156,-1.53269529984773,1.72563959027384,1.53684648584845
2460.0,-4374387.84618901,-9121828.24785437,-7020559.16987437,6918084.94836675,-7376408.14686736,-7025665.38969495,4803.94497388098,1465.57997348472,-6297.29151870027,-1.47686397982847,1.57470623357893,1.49983011567639,-2.81516063653928E9,1.20270538547076,3.8E-15,-0.15526794557306,-1.71E-14,-0.76463455166313,0.459210660776136,1.34000213284584,0.0,-0.0011344542745502,0.0,5942687.6112637,1.0E-16,1142.20837402343,-1.47686397982847,1.57470623357893,1.49983011567639
2520.0,-4227359.62782497,-9337201.04657611,-7395494.1210089,7203696.31855619,-7285722.77584654,-7400826.24337003,4716.9813023274,1555.90227494044,-6208.45809817779,-1.42214270264891,1.43833624031361,1.46105979071737,-2.81516063653773E9,1.20708065488357,2.5E-15,-0.195021972932788,-1.74E-14,-0.743011718763333,0.409572477188737,1.39135493242565,0.0,-0.0011344542745502,0.0,6268307.75822909,1.0E-16,1141.70288085937,-1.42214270264891,1.43833624031361,1.46105979071737
2580.0,-4079266.41720652,-9547405.94889952,-7765173.34507446,7484187.53654298,-7189855.473283,-7770727.58021042,4633.25865420647,1638.4417738966,-6121.98429298819,-1.36887757233267,1.31504346432192,1.42128649947892,-2.81516063654104E9,1.21145592429638,2.8E-15,-0.236198072950172,-1.81E-14,-0.724570266107457,0.359012042575037,1.44052061869587,0.0,-0.0011344542745502,0.0,6594544.75566553,2.678E-13,1137.25903320312,-1.36887757233267,1.31504346432192,1.42128649947892
2640.0,-3930380.55947739,-9752804.72690331,-8129739.71860959,7759750.2861593,-7089250.49733751,-8135512.40907506,4552.68208080898,1713.94199575702,-6037.91199061746,-1.31730529859434,1.20348038259199,1.38109516518462,-2.81516063653861E9,1.2158311937092,4.1E-15,-0.278693701776667,-1.93E-14,-0.709078951571025,0.307686336364264,1.48784083694208,0.0,-0.0011344542745502,0.0,6921137.67098268,5.348E-13,1131.98071289062,-1.31730529859434,1.20348038259199,1.38109516518462
2700.0,-3780942.9462355,-9953733.44458454,-8489337.66616199,8030570.18213034,-6984309.83937004,-8495325.28371948,4475.14506824889,1783.06963765965,-5956.25213350939,-1.26757840644526,1.10243234733303,1.34093727358654,-2.81516063653928E9,1.220206463122,3.6E-15,-0.322415009373617,-2.23E-14,-0.696342595274312,0.255735255997248,1.53363232556566,0.0,-0.0011344542745502,0.0,7247860.76205174,1.03E-14,1130.97241210937,-1.26757840644526,1.10243234733303,1.34093727358654
2760.0,-3631166.81445865,-1.01505041839921E7,-8844111.52756215,8296826.2150176,-6875397.59921464,-8850310.66947007,4400.53396670482,1846.42229819844,-5876.99189873812,-1.21978517551255,1.01080917569379,1.30115751174345,-2.81516063653839E9,1.22458173253482,2.1E-15,-0.367276105043878,-2.09E-14,-0.686200627552041,0.203284890040631,1.57818999044619,0.0,-0.0011344542745502,0.0,7574518.81020615,1.6E-15,1128.61865234375,-1.21978517551255,1.01080917569379,1.30115751174345
2820.0,-3481241.08089346,-1.03434067330949E7,-9194204.31097622,8558690.42872018,-6762843.9127747,-9200611.69587584,4328.73135564343,1904.53565704186,-5800.10043434459,-1.1739653228571,0.927635402123073,1.2620153947602,-2.8151606365406E9,1.22895700194763,-3.0E-16,-0.4131983621696,-2.13E-14,-0.67852540288516,0.150450433076276,1.62179045076425,0.0,-0.0011344542745502,0.0,7900943.08477128,6.0E-16,1126.19958496093,-1.1739653228571,0.927635402123073,1.2620153947602
2880.0,-3331333.26411111,-1.05327102082578E7,-9539756.75366656,8816327.77382132,-6646948.46676963,-9546369.21722042,4259.61857416657,1957.89005239864,-5725.53342644706,-1.13012227760809,0.852040070778067,1.22370274783656,-2.8151606365406E9,1.23333227136044,1.4E-15,-0.46010976894031,-2.46E-14,-0.673220579538572,0.0973387948784112,1.6646957924351,0.0,-0.0011344542745502,0.0,8226987.85598752,3.0E-16,1123.82934570312,-1.13012227760809,0.852040070778067,1.22370274783656
2940.0,-3181592.04282199,-1.07186645945916E7,-9880906.62733696,9069896.09238289,-6527983.63721253,-9887721.11773567,4193.07759934734,2006.91644690567,-5653.23672279286,-1.08823274463935,0.783246630184732,1.18635779071588,-2.81516063654214E9,1.23770754077325,2.0E-16,-0.507944328007484,-2.29E-14,-0.670219748590642,0.0440509652872578,1.70715738460088,0.0,-0.0011344542745502,0.0,8552527.38236086,1.0E-16,1121.52758789062,-1.08823274463935,0.783246630184732,1.18635779071588
3000.0,-3032149.49475261,-1.09015021949044E7,-1.02177882371973E7,9319546.19958913,-6406197.28789602,-1.0224801810623E7,4128.99241763647,2052.00179927942,-5583.14919713531,-1.04825412295787,0.720563273758396,1.15007645489061,-2.81516063654346E9,1.24208281018606,-1.5E-15,-0.556641505425863,-1.85E-14,-0.669485420756588,-0.0093158009635954,1.74941969202751,0.0,-0.0011344542745502,0.0,8877453.30739762,1.0E-16,1119.2978515625,-1.04825412295787,0.720563273758396,1.15007645489061
3060.0,-2883123.05589638,-1.10814389832547E7,-1.05505320738719E7,9565422.03539732,-6281815.26360317,-1.05577418899846E7,4067.25000391285,2093.49387492331,-5515.20500424661,-1.01013023339668,0.663373920658878,1.11492145772627,-2.81516063654214E9,1.24645807959887,1.0E-15,-0.606145727573453,-2.05E-14,-0.671008431317272,-0.0626659151201974,1.79172406419206,0.0,-0.0011344542745502,0.0,9201672.40900511,1.0E-16,1117.14050292968,-1.01013023339668,0.663373920658878,1.11492145772627
3120.0,-2734617.23553013,-1.125867586277E7,-1.08792645853712E7,9807660.86546712,-6155043.61048417,-1.0886667902867E7,4007.74099832315,2131.70553715211,-5449.33534678316,-0.973795718359763,0.611129931634482,1.08092956480012,-2.81516063654544E9,1.25083334901168,2.1E-15,-0.656405923713753,-1.86E-14,-0.674807792198762,-0.115903437371831,1.83431250886263,0.0,-0.0011344542745502,0.0,9525104.65240004,1.0E-16,1115.0537109375,-0.973795718359763,0.611129931634482,1.08092956480012
3180.0,-2586725.118222,-1.14333998298589E7,-1.12041080428931E7,1.00463935154434E7,-6026070.55341327,-1.12117022151688E7,3950.36015161412,2166.91856427352,-5385.46985178308,-0.939179401543426,0.563342589289697,1.04811739262839,-2.81516063654412E9,1.2552086184245,1.7E-15,-0.707375111280358,-1.77E-14,-0.680930997766346,-0.168930048814133,1.87743146920656,0.0,-0.0011344542745502,0.0,9847681.50410424,1.0E-16,1113.03564453125,-0.939179401543426,0.563342589289697,1.04811739262839
3240.0,-2439529.68022789,-1.16057850485536E7,-1.15251804794855E7,1.02817446264296E7,-5895068.25740106,-1.15329629504358E7,3895.00659426141,2199.38703819812,-5323.53763549275,-0.90620683525074,0.519576330985143,1.01648603774044,-2.81516063654445E9,1.2595838878373,1.5E-15,-0.759010020685424,-1.9E-14,-0.689454770483124,-0.221642949201715,1.92133562113825,0.0,-0.0011344542745502,0.0,1.01693444705337E7,1.0E-16,1111.083984375,-0.90620683525074,0.519576330985143,1.01648603774044
3300.0,-2293104.94421103,-1.17759938397005E7,-1.18425956848482E7,1.05138329224268E7,-5762194.3974344,-1.18505639848104E7,3841.5839725429,2229.34034872982,-5263.468119757,-0.874802214686988,0.479442697779628,0.986024763346647,-2.8151606365483E9,1.26395915725012,5.0E-16,-0.81127075637862,-1.72E-14,-0.700486207844625,-0.273932616610103,1.96629169126791,0.0,-0.0011344542745502,0.0,1.04900438298527E7,1.0E-16,1109.19653320312,-0.874802214686988,0.479442697779628,0.986024763346647
3360.0,-2147516.99313534,-1.1944177590256E7,-1.2156463242949E7,1.07427714828064E7,-5627593.5585435,-1.21646149848069E7,3790.00048513651,2256.98585503799,-5205.19165072216,-0.844889800278588,0.442594949109424,0.956713930053222,-2.81516063654698E9,1.26833442666293,2.3E-15,-0.864120490941348,-2.13E-14,-0.714164255873333,-0.325680364521982,2.01258226223927,0.0,-0.0011344542745502,0.0,1.08097375302304E7,1.0E-16,1107.37060546875,-0.844889800278588,0.442594949109424,0.956713930053222
3420.0,-2002824.86146258,-1.21104775881677E7,-1.24668886018656E7,1.09686680146614E7,-5491398.48549982,-1.24752214773176E7,3740.16884630585,2282.51124257278,-5148.6399605445,-0.816394958699216,0.408723286526504,0.928527320648668,-2.81516063654588E9,1.27270969607574,-8.0E-16,-0.917525189141856,-1.82E-14,-0.730661378200202,-0.376755632627497,2.06050947518055,0.0,-0.0011344542745502,0.0,1.112839023149E7,1.0E-16,1105.6044921875,-0.816394958699216,0.408723286526504,0.928527320648668
3480.0,-1859081.31939137,-1.2275025788339E7,-1.2773973167451E7,1.11916251212633E7,-5353731.19935734,-1.27824849434448E7,3692.00619584373,2306.08661021771,-5093.74650471186,-0.789244909327775,0.377550628190188,0.901433979503589,-2.81516063654764E9,1.27708496548855,-2.0E-15,-0.971453359065833,-1.72E-14,-0.750185201970452,-0.427012952127269,2.11039844859394,0.0,-0.0011344542745502,0.0,1.14459724704373E7,1.0E-16,1103.89526367187,-0.789244909327775,0.377550628190188,0.901433979503589
3540.0,-1716333.56379039,-1.24379455150342E7,-1.30778144141738E7,1.14117405639174E7,-5214703.99606588,-1.30865029295065E7,3645.43397132843,2327.86631900356,-5040.44670109199,-0.76336924399755,0.348828877142059,0.875399663348092,-2.81516063654445E9,1.28146023490136,-5.2E-15,-1.02587582765044,-1.72E-14,-0.772979787651449,-0.476288538457676,2.16260009539682,0.0,-0.0011344542745502,0.0,1.17624599329855E7,1.0E-16,1102.24072265625,-0.76336924399755,0.348828877142059,0.875399663348092
3600.0,-1574623.82767057,-1.25993521058643E7,-1.33785060078894E7,1.1629107515329E7,-5074420.3406069,-1.33873691699715E7,3600.37775463876,2347.99063037561,-4988.67809161054,-0.738700273066629,0.322335629481462,0.850387981060982,-2.81516063654632E9,1.28583550431417,-8.3E-15,-1.0807655381715,-1.28E-14,-0.799325971018532,-0.524396490349241,2.21749281730604,0.0,-0.0011344542745502,0.0,1.20778328186051E7,1.0E-16,1100.63916015625,-0.738700273066629,0.322335629481462,0.850387981060982
3660.0,-1433989.91846079,-1.2759353502205E7,-1.36761379364229E7,1.18438148032222E7,-4932975.66851751,-1.36851737182007E7,3556.76710185579,2366.5871588913,-4938.38044328151,-0.715173239196941,0.29787127258808,0.826361284740427,-2.81516063654544E9,1.29021077372699,-7.2E-15,-1.13609736745334,-1.33E-14,-0.829539942442453,-0.571124623468223,2.27548226894763,0.0,-0.0011344542745502,0.0,1.23920752846891E7,1.0E-16,1099.087890625,-0.715173239196941,0.29787127258808,0.826361284740427
3720.0,-1294465.69399829,-1.29180507905906E7,-1.397079664474E7,1.20559471434331E7,-4790458.10526234,-1.39800030817725E7,3514.53536348066,2383.77216136583,-4889.49580195948,-0.692726431096704,0.275256427976647,0.803281361998363,-2.8151606365439E9,1.29458604313979,-9.4E-15,-1.19184796078208,-8.1E-15,-0.863968846369809,-0.616230053210028,2.33699799842712,0.0,-0.0011344542745502,0.0,1.2705174960185E7,1.0E-16,1097.58520507812,-0.692726431096704,0.275256427976647,0.803281361998363
3780.0,-1156081.48396377,-1.30755386993028E7,-1.42625651722039E7,1.22655853620582E7,-4646949.11267158,-1.42719403598879E7,3473.61950018631,2399.65168189431,-4841.96850949476,-0.671301222322107,0.25432969787604,0.781109969536201,-2.81516063654335E9,1.29896131255261,-1.3E-15,-1.24799558270187,-1.94E-14,-0.902981707780067,-0.659434782448968,2.4024852918989,0.0,-0.0011344542745502,0.0,1.30171225193402E7,1.0E-16,1096.12890625,-0.671301222322107,0.25432969787604,0.781109969536201
3840.0,-1018864.46347413,-1.3231906054049E7,-1.45515232899873E7,1.24728066065159E7,-4502524.07056837,-1.45610653809244E7,3433.95989799016,2414.32256985626,-4795.74519281506,-0.650842054625177,0.234945678990737,0.75980924013538,-2.81516063654247E9,1.30333658196542,1.0E-15,-1.30451998205814,-1.97E-14,-0.946953476871643,-0.700421766382904,2.47239003140855,0.0,-0.0011344542745502,0.0,1.33279113076938E7,1.0E-16,1094.71704101562,-0.650842054625177,0.234945678990737,0.75980924013538
3900.0,-882838.984671959,-1.33872361963105E7,-1.48377476371667E7,1.26776845455726E7,-4357252.80074566,-1.48474548386668E7,3395.50018570286,2427.87338594047,-4750.77473172689,-0.631296380942464,0.216973211005061,0.739341988843722,-2.81516063654335E9,1.30771185137822,4.2E-15,-1.36140226982084,-2.36E-14,-0.99623958088047,-0.73883223335841,2.54713397055102,0.0,-0.0011344542745502,0.0,1.3637537013535E7,1.0E-16,1093.34814453125,-0.631296380942464,0.216973211005061,0.739341988843722
3960.0,-748026.871388102,-1.35416073676414E7,-1.51213118543918E7,1.28802895585386E7,-4211200.03960659,-1.5131182426105E7,3358.18705670966,2440.38520939705,-4707.00821084183,-0.612614579681214,0.200293831166774,0.719671939044496,-2.81516063654335E9,1.31208712079104,1.37E-14,-1.41862480837452,-3.28E-14,-1.05113839859169,-0.774265431792735,2.62707785709457,0.0,-0.0011344542745502,0.0,1.39459973789861E7,1.0E-16,1092.01977539062,-0.612614579681214,0.200293831166774,0.719671939044496
4020.0,-614447.68129868,-1.36950930629147E7,-1.54022867143099E7,1.3080688913937E7,-4064425.86503945,-1.54123189659817E7,3321.97009652584,2451.93235810777,-4664.39885991822,-0.594749849270251,0.184800409711354,0.700763885008849,-2.81516063654225E9,1.31646239020385,1.85E-14,-1.47617111110136,-3.8E-14,-1.11184005836635,-0.806282392215415,2.71247081523467,0.0,-0.0011344542745502,0.0,1.4253291945665E7,1.0E-16,1090.73071289062,-0.594749849270251,0.184800409711354,0.700763885008849
4080.0,-482118.939435027,-1.3847762355248E7,-1.5680740248156E7,1.32789469380253E7,-3916986.08244632,-1.56909325374993E7,3286.80161709505,2462.58303164591,-4622.90198601502,-0.577658089840376,0.170395943961333,0.682583804252625,-2.81516063654082E9,1.32083765961666,8.34E-14,-1.53402575120803,-1.024E-13,-1.17836259758916,-0.834415591625863,2.80338703575158,0.0,-0.0011344542745502,0.0,1.45594218305645E7,0.0,1089.47961425781,-0.577658089840376,0.170395943961333,0.682583804252625
4140.0,-351056.34641144,-1.39996801950969E7,-1.59567378681022E7,1.34751251735929E7,-3768932.57427243,-1.59670885987791E7,3252.63649843883,2472.39988625014,-4582.47490013736,-0.561297777257096,0.156992491670258,0.66509893038509,-2.81516063653994E9,1.32521292902947,3.1415926535897,-1.5494183747297,-3.14159265358972,-1.25048136243258,-0.858186313690931,2.89965566210269,0.0,-0.0011344542745502,0.0,1.48643895283744E7,0.0,1088.26428222656,-0.561297777257096,0.156992491670258,0.66509893038509
4200.0,-221273.96431088,-1.41509076857784E7,-1.62303424850996E7,1.36692825294864E7,-3620313.61688137,-1.62408501048077E7,3219.43203799235,2481.44054954561,-4543.07684047743,-0.545629833447698,0.144510226600871,0.648277795021053,-2.81516063654181E9,1.32958819844228,3.14159265358978,-1.49098950780257,3.14159265358977,-1.32766428320852,-0.87713065059624,3.0007965158395,0.0,-0.0011344542745502,0.0,1.51681987369708E7,0.0,1087.08386230468,-0.545629833447698,0.144510226600871,0.648277795021053
4260.0,-92784.3828068716,-1.43015023374805E7,-1.65016146220608E7,1.38614754213304E7,-3471174.16818046,-1.65122776207182E7,3187.14780775602,2489.75808188986,-4504.6688938933,-0.530617495967051,0.132876601458392,0.632090245626776,-2.81516063654225E9,1.33396346785509,-3.14159265358978,-1.43229301697671,3.14159265358976,-1.4090322603945,-0.890833208009866,3.1059809037282,0.0,-0.0011344542745502,0.0,1.54708542032327E7,0.0,1085.9365234375,-0.530617495967051,0.132876601458392,0.632090245626776
4320.0,34401.1322276596,-1.44515183016253E7,-1.67706125223159E7,1.40517579039107E7,-3321556.12901366,-1.67814294303394E7,3155.74551923998,2497.40139038583,-4467.2139168985,-0.51622618897123,0.122025605170548,0.616507444801816,-2.81516063654181E9,1.33833873726791,-3.14159265358979,-1.37334084734726,3.14159265358976,-1.49336613008,-0.89896478429431,-3.0691463252245,0.0,-0.0011344542745502,0.0,1.57723615867132E7,0.0,1084.82092285156,-0.51622618897123,0.122025605170548,0.616507444801816
4380.0,160272.505641725,-1.46010065872805E7,-1.7037392253344E7,1.42401817956852E7,-3171498.58099919,-1.70483616400149E7,3125.18889606764,2504.41560087412,-4430.6764571391,-0.502423397166917,0.111897103143618,0.601501855397788,-2.81516063654423E9,1.34271400668071,-3.14159265358978,-1.31414423087904,3.14159265358976,-1.57917482047388,-0.901317468987386,-2.95965701198954,0.0,-0.0011344542745502,0.0,1.60727273390159E7,0.0,1083.736328125,-0.502423397166917,0.111897103143618,0.601501855397788
4440.0,284820.733721542,-1.47500152611596E7,-1.73020078058318E7,1.44267967958757E7,-3021038.00318999,-1.7313128277745E7,3095.44355402426,2510.84239257805,-4395.02267609887,-0.489178543840177,0.102436250554855,0.587047214988615,-2.81516063654434E9,1.34708927609353,-3.14159265358979,-1.25471373862832,3.14159265358977,-1.66482213993458,-0.89782926142733,-2.85032437044128,0.0,-0.0011344542745502,0.0,1.63719585970009E7,0.0,1082.6806640625,-0.489178543840177,0.102436250554855,0.587047214988615
4500.0,408037.777172132,-1.48985896326079E7,-1.75645111881498E7,1.4611650594579E7,-2870208.46967161,-1.75757813877408E7,3066.47688828215,2516.72029951729,-4360.22027358406,-0.476462873710866,0.0935929699904247,0.573118502493061,-2.81516063654676E9,1.35146454550634,-3.14159265358979,-1.19505932851153,3.14159265358977,-1.74868810198479,-0.888591785372708,-2.74272006640185,0.0,-0.0011344542745502,0.0,1.66700630881822E7,0.0,1081.65380859375,-0.476462873710866,0.0935929699904247,0.573118502493061
4560.0,529916.465016125,-1.50467724248439E7,-1.78249525163666E7,1.47947889763197E7,-2719041.82998056,-1.78363711205123E7,3038.2579674973,2522.08498231757,-4326.23841438933,-0.464249341085538,0.0853214858267278,0.559691899175354,-2.81516063654676E9,1.35583981491915,-3.14159265358978,-1.13519038904739,3.14159265358976,-1.82932628599844,-0.873838949222488,-2.63824179638404,0.0,-0.0011344542745502,0.0,1.6967049046887E7,0.0,1080.65380859375,-0.464249341085538,0.0853214858267278,0.559691899175354
4620.0,650450.408224062,-1.5194603933608E7,-1.80833800999394E7,1.49762559174465E7,-2567567.87402108,-1.80949458186285E7,3010.75743445095,2526.96947361704,-4293.04765742731,-0.452512503573993,0.0775799087017423,0.546744745786865,-2.81516063654731E9,1.36021508433196,-3.14159265358978,-1.07511577945407,3.14159265358976,-1.90558044268327,-0.853919690650221,-2.53799630839391,0.0,-0.0011344542745502,0.0,1.72629251399232E7,0.0,1079.67980957031,-0.452512503573993,0.0775799087017423,0.546744745786865
4680.0,769633.922029277,-1.53421221742689E7,-1.83398405232352E7,1.5156093677755E7,-2415814.48297814,-1.83515520983044E7,2983.94741289816,2531.40439989605,-4260.61988750976,-0.441228421478112,0.070329864249447,0.534255497238891,-2.8151606365494E9,1.36459035374478,-3.14159265358978,-1.01484386644386,3.14159265358976,-1.97664027200522,-0.829261763810232,-2.44274323875555,0.0,-0.0011344542745502,0.0,1.75577004006568E7,0.0,1078.73095703125,-0.441228421478112,0.070329864249447,0.534255497238891
4740.0,887461.955998183,-1.54893630183367E7,-1.85943787230456E7,1.53343428866988E7,-2263807.76756479,-1.86062349269774E7,2957.8014202828,2535.41818222963,-4228.92824989465,-0.430374562845255,0.0635361609904061,0.522203675896664,-2.81516063655029E9,1.36896562315758,-3.14159265358978,-0.954382558022162,3.14159265358976,-2.04203779788872,-0.800334398103007,-2.35289833479484,0.0,-0.0011344542745502,0.0,1.78513841705365E7,0.0,1077.80639648437,-0.430374562845255,0.0635361609904061,0.522203675896664
4800.0,1003930.03103673,-1.56363603202516E7,-1.88470380622621E7,1.5511042624532E7,-2111572.19480054,-1.88590376970408E7,2932.29428598164,2539.03721817457,-4197.94708765507,-0.419929714093153,0.057166492898887,0.510569824343402,-2.81516063654863E9,1.37334089257039,-3.14159265358978,-0.893739334566595,3.14159265358976,-2.10160114533156,-0.767615896981401,-2.2685792515246,0.0,-0.0011344542745502,0.0,1.81439860472172E7,0.0,1076.90502929687,-0.419929714093153,0.057166492898887,0.510569824343402
4860.0,1119034.18260823,-1.57831460352366E7,-1.90978603998814E7,1.56862304987025E7,-1959130.70439313,-1.91100022959048E7,2907.40207474745,2542.28604675131,-4167.65188188153,-0.409873896052176,0.0511911727136405,0.499335458269367,-2.81516063654973E9,1.37771616198321,-3.14159265358978,-0.832921277434114,3.14159265358976,-2.15538733835401,-0.731569320370649,-2.18967229716057,0.0,-0.0011344542745502,0.0,1.84355158385391E7,0.0,1076.02587890625,-0.409873896052176,0.0511911727136405,0.499335458269367
4920.0,1232770.90951424,-1.59297503289315E7,-1.93468861575117E7,1.58599427158014E7,-1806504.81568438,-1.9359169172554E7,2883.10201503193,2545.18749825926,-4138.01919469427,-0.400188285228349,0.0455828925362519,0.488483019985387,-2.81516063654995E9,1.38209143139601,-3.14159265358978,-0.771935095318848,3.14159265358976,-2.20361225388832,-0.692626738018352,-2.11590198492263,0.0,-0.0011344542745502,0.0,1.87259835217039E7,0.0,1075.16845703125,-0.400188285228349,0.0455828925362519,0.488483019985387
4980.0,1345137.12766735,-1.60762016794627E7,-1.95941543825443E7,1.60322141493488E7,-1653714.72602312,-1.96065774007684E7,2859.37243188182,2547.76283046978,-4109.02661501643,-0.390855140062483,0.0403165086769636,0.477995832935807,-2.8151606365494E9,1.38646670080883,-3.14159265358978,-0.710787148561544,3.14159265358976,-2.24658896637065,-0.651180866939776,-2.04689214805841,0.0,-0.0011344542745502,0.0,1.9015399207071E7,0.0,1074.33178710937,-0.390855140062483,0.0403165086769636,0.477995832935807
5040.0,1456130.12834774,-1.62225269725467E7,-1.98397028081563E7,1.62030784036852E7,-1500779.40134056,-1.98522647391726E7,2836.19268411547,2550.03185256943,-4080.65270703931,-0.381857731943683,0.035368848071078,0.467858057486277,-2.81516063654797E9,1.39084197022164,-3.14159265358978,-0.649483471591479,3.14159265358976,-2.28467924015958,-0.607582233806865,-1.9822138516068,0.0,-0.0011344542745502,0.0,1.93037731060618E7,0.0,1073.51489257812,-0.381857731943683,0.035368848071078,0.467858057486277
5100.0,1565747.54048709,-1.63687515901704E7,-2.00835679103029E7,1.63725678742128E7,-1347716.65962557,-2.00962676882713E7,2813.54310550238,2552.01303807569,-4052.87696129706,-0.373180280726733,0.0307185339064199,0.458054648182622,-2.81516063654687E9,1.39521723963445,-3.14159265358978,-0.588029793664053,3.14159265358976,-2.31825853200428,-0.562140012690713,-1.92141972804323,0.0,-0.0011344542745502,0.0,1.95911155027202E7,0.0,1072.71728515625,-0.373180280726733,0.0307185339064199,0.458054648182622
5160.0,1673987.2965765,-1.65148994933467E7,-2.03257849618514E7,1.65407138042228E7,-1194543.24792836,-2.03386215446252E7,2791.40494968281,2553.72362781402,-4025.67974825828,-0.364807894500385,0.0263458283798578,0.448571312614131,-2.81516063654665E9,1.39959250904726,-3.14159265358978,-0.526431558041523,3.14159265358976,-2.34769260544742,-0.515125027540052,-1.86406662276149,0.0,-0.0011344542745502,0.0,1.98774367285293E7,0.0,1071.9384765625,-0.364807894500385,0.0263458283798578,0.448571312614131
5220.0,1780847.60183967,-1.66609932993995E7,-2.05663880840071E7,1.67075463385227E7,-1041274.91345912,-2.05793604523153E7,2769.7603385801,2555.17972392754,-3999.04227433542,-0.356726513355733,0.0222324907438149,0.439394471964963,-2.81516063654698E9,1.40396777846008,-3.14159265358978,-0.464693939750071,3.14159265358976,-2.3733231120001,-0.46677383046921,-1.80972918059064,0.0,-0.0011344542745502,0.0,2.01627471401308E7,0.0,1071.17749023437,-0.356726513355733,0.0222324907438149,0.439394471964963
5280.0,1886326.90634537,-1.68070543541933E7,-2.08054102951709E7,1.6873094574068E7,-887926.469293206,-2.08185174518383E7,2748.59221407293,2556.39637578719,-3972.94654020931,-0.348922856909305,0.0183616490164957,0.430511223298402,-2.81516063654797E9,1.40834304787288,-3.14159265358978,-0.402821862033833,3.14159265358975,-2.39545958543049,-0.417293144035657,-1.75800691092877,0.0,-0.0011344542745502,0.0,2.04470570996324E7,0.0,1070.43347167968,-0.348922856909305,0.0183616490164957,0.430511223298402
5340.0,1990423.87977283,-1.69531027996883E7,-2.10428835573667E7,1.70373866077864E7,-734511.855145033,-2.10561245265679E7,2727.88429270971,2557.38765857779,-3947.37530136414,-0.341384375343465,0.0147176839161741,0.421909303588347,-2.81516063654907E9,1.4127183172857,-3.14159265358978,-0.340820011615093,3.14159265358976,-2.41437573862104,-0.366864244292735,-1.70852682351256,0.0,-0.0011344542745502,0.0,2.07303769572246E7,0.0,1069.70654296875,-0.341384375343465,0.0147176839161741,0.421909303588347
5400.0,2093137.38857321,-1.70991576371698E7,-2.12788388203643E7,1.72004495817701E7,-581044.19362905,-2.12922126469116E7,2707.62102326051,2558.16674525486,-3922.31203072846,-0.334099203736219,0.0112861237436935,0.413577055488996,-2.81516063655017E9,1.41709358669851,-3.14159265358978,-0.278692852859639,3.14159265358975,-2.43030846834896,-0.315647061593346,-1.66094320813902,0.0,-0.0011344542745502,0.0,2.10127170358587E7,0.0,1068.99560546875,-0.334099203736219,0.0112861237436935,0.413577055488996
5460.0,2194466.47529309,-1.72452367864702E7,-2.15133060636254E7,1.73623097260032E7,-427535.842386412,-2.15268118122875E7,2687.78754691618,2558.745972494,-3897.74088331835,-0.327056119463063,0.0080535490812524,0.405503394815841,-2.81516063654951E9,1.42146885611132,-3.14159265358978,-0.216444640937186,3.14159265358976,-2.44345843333663,-0.263783905085811,-1.61493566850742,0.0,-0.0011344542745502,0.0,2.12940876177672E7,0.0,1068.30029296875,-0.327056119463063,0.0080535490812524,0.405503394815841
5520.0,2294410.33985369,-1.73913571414776E7,-2.17463143361857E7,1.75229923987745E7,-273998.442420812,-2.17599510910361E7,2668.36965995626,2559.13690119136,-3873.6466627814,-0.320244502464733,0.0050075063021371,0.397677779697784,-2.81516063654731E9,1.42584412552413,-3.14159265358978,-0.154079434058448,3.14159265358976,-2.45399143332753,-0.211402794675471,-1.57020615446978,0.0,-0.0011344542745502,0.0,2.15744989326278E7,0.0,1067.61999511718,-0.320244502464733,0.0050075063021371,0.397677779697784
5580.0,2392968.32260155,-1.75375346221994E7,-2.19778917945861E7,1.76825221249211E7,-120442.962955106,-2.199165865838E7,2649.35377871979,2559.35037201641,-3850.0147897427,-0.313654298186086,0.0021364289975294,0.390090181350354,-2.81516063654852E9,1.43021939493695,-3.14159265358978,-0.0916011048631366,3.14159265358976,-2.4620400822079,-0.15862042808609,-1.52647546802663,0.0,-0.0011344542745502,0.0,2.18539611471994E7,0.0,1066.95446777343,-0.313654298186086,0.0021364289975294,0.390090181350354
5640.0,2490139.88895963,-1.76837842236286E7,-2.22080657389588E7,1.7840922632035E7,33120.256908191,-2.22219618325359E7,2630.7269067243,2559.39655646768,-3826.83127185721,-0.307275983002845,-5.704334752563E-4,0.382731056413157,-2.8151606365483E9,1.43459466434975,-3.14159265358978,-0.0290133510263906,3.14159265358976,-2.46770545284786,-0.105544833317698,-1.48347953005159,0.0,-0.0011344542745502,0.0,2.21324843562719E7,0.0,1066.30261230468,-0.307275983002845,-5.704334752563E-4,0.382731056413157
5700.0,2585924.61553043,-1.78301200616389E7,-2.24368626473655E7,1.79982168847579E7,186681.469465089,-2.24508871090784E7,2612.47660378878,2559.28500383714,-3804.08267547643,-0.301100531964195,-0.0031230810320659,0.375591320790028,-2.81516063654995E9,1.43896993376255,-3.14159265358978,0.0336802948547761,3.14159265358975,-2.47105849512433,-0.052277767037864,-1.44096556759638,0.0,-0.0011344542745502,0.0,2.24100785747915E7,0.0,1065.66467285156,-0.301100531964195,-0.0031230810320659,0.375591320790028
5760.0,2680322.17751553,-1.79765554161192E7,-2.26643082084835E7,1.81544271172799E7,340231.48239266,-2.26784601936503E7,2594.5909570268,2559.02468444861,-3781.75609884122,-0.295119388690151,-0.0055308221211394,0.368662324927541,-2.81516063655172E9,1.44334520317537,-3.14159265358979,0.0964764560389198,3.14159265358975,-2.47214110918531,0.0010830770316613,-1.39868829868223,0.0,-0.0011344542745502,0.0,2.26867537310384E7,0.0,1065.03979492187,-0.295119388690151,-0.0055308221211394,0.368662324927541
5820.0,2773332.33732945,-1.81231027715388E7,-2.2890427352729E7,1.83095748641513E7,493761.625222414,-2.2904706033108E7,2577.05855358484,2558.62402949974,-3759.83914671644,-0.28932443727322,-0.0078023277670029,0.361935830466081,-2.81516063655017E9,1.44772047258818,-3.14159265358978,0.159371903030292,3.14159265358975,-2.47096680755222,0.0544419853105206,-1.35640613964906,0.0,-0.0011344542745502,0.0,2.29625196607439E7,0.0,1064.42761230468,-0.28932443727322,-0.0078023277670029,0.361935830466081
5880.0,2864954.93429602,-1.8269773855121E7,-2.31152442818992E7,1.84636809895074E7,647263.718109821,-2.31296488451858E7,2559.86845500996,2558.09096780504,-3738.31990638691,-0.283707976043981,-0.0099456809038238,0.355403988197412,-2.81516063655073E9,1.45209574200099,-3.14159265358978,0.222363545534824,3.14159265358975,-2.46752093294661,0.107703203410437,-1.31387743030524,0.0,-0.0011344542745502,0.0,2.32373861020493E7,0.0,1063.82788085937,-0.283707976043981,-0.0099456809038238,0.355403988197412
5940.0,2955189.87532859,-1.8416579672789E7,-2.33387824974163E7,1.86167657148016E7,800730.042722231,-2.33533121467599E7,2543.0101731389,2557.43295970884,-3717.18692493845,-0.278262693069761,-0.0119684214499514,0.349059317263123,-2.81516063655095E9,1.4564710114138,-3.14159265358978,0.285448424939236,3.14159265358975,-2.46176042210472,0.160768913907022,-1.27085665866556,0.0,-0.0011344542745502,0.0,2.35113626912172E7,0.0,1063.23986816406,-0.278262693069761,-0.0119684214499514,0.349059317263123
6000.0,3044037.12650653,-1.85635305430354E7,-2.35610648272445E7,1.87688486451361E7,954153.315082806,-2.35757187807851E7,2526.47364740838,2556.65702841128,-3696.42918775138,-0.27298164326474,-0.0138775875282739,0.342894685529573,-2.81516063654985E9,1.46084628082662,-3.14159265358978,0.348623707274088,3.14159265358975,-2.45361312616224,0.213537149684919,-1.22709066733596,0.0,-0.0011344542745502,0.0,2.37844589590157E7,0.0,1062.66357421875,-0.27298164326474,-0.0138775875282739,0.342894685529573
6060.0,3131496.70546271,-1.87106361288532E7,-2.37821134515525E7,1.89199487942696E7,1107526.66022196,-2.3796890941976E7,2510.24922349323,2555.76978892758,-3676.03609813772,-0.267858226998304,-0.0156797531952232,0.336903291076573,-2.81516063654918E9,1.46522155023942,-3.14159265358978,0.411886676624943,3.14159265358976,-2.44297672183091,0.265899579097514,-1.18231483765136,0.0,-0.0011344542745502,0.0,2.40566843277039E7,0.0,1062.0986328125,-0.267858226998304,-0.0156797531952232,0.336903291076573
6120.0,3217568.67451021,-1.88579054678592E7,-2.40019499271885E7,1.90700846083828E7,1260843.58850042,-2.40168502012989E7,2494.32763318571,2554.77747488002,-3655.99745805733,-0.262886170096537,-0.0173810630040911,0.331078644739014,-2.81516063654907E9,1.46959681965224,-3.14159265358978,0.475234728958734,3.14159265358976,-2.4297172814431,0.317739098502347,-1.13624927826429,0.0,-0.0011344542745502,0.0,2.43280481085553E7,0.0,1061.54455566406,-0.262886170096537,-0.0173810630040911,0.331078644739014
6180.0,3302253.134444,-1.90053470007277E7,-2.42205952110292E7,1.92192739886703E7,1414097.97347926,-2.42356175293383E7,2478.6999754355,2553.68596330381,-3636.30344985131,-0.258059505139224,-0.0189872636952654,0.325414553642941,-2.81516063654973E9,1.47397208906505,-3.14159265358978,0.538665366335224,3.14159265358976,-2.4136676224264,0.36892716817331,-1.08859509777598,0.0,-0.0011344542745502,0.0,2.45985594998615E7,0.0,1061.00073242187,-0.258059505139224,-0.0189872636952654,0.325414553642941
6240.0,3385550.2189529,-1.91529685980454E7,-2.44380696822628E7,1.93675343128293E7,1567284.03122301,-2.44532133185957E7,2463.35769847524,2552.50079763094,-3616.94461893486,-0.253372553961806,-0.020503733276542,0.319905105679936,-2.81516063655017E9,1.47834735847786,-3.14159265358978,0.60217619147582,3.14159265358975,-2.39462563882064,0.419320831307225,-1.0390309254582,0.0,-0.0011344542745502,0.0,2.48682275853647E7,0.0,1060.46740722656,-0.253372553961806,-0.020503733276542,0.319905105679936
6300.0,3467460.0895895,-1.93007775856887E7,-2.46543931636618E7,1.95148824555053E7,1720396.30093075,-2.46696574047774E7,2448.29258296183,2551.22720900166,-3597.91185739488,-0.248819911278236,-0.021935507730421,0.314544654866189,-2.81516063655017E9,1.48272262789067,-3.14159265358978,0.665764902664303,3.14159265358975,-2.3723529433424,0.468759366458233,-0.987209973374479,0.0,-0.0011344542745502,0.0,2.5137061333073E7,0.0,1059.94409179687,-0.248819911278236,-0.021935507730421,0.314544654866189
6360.0,3547982.93124978,-1.94487807688205E7,-2.48695849418982E7,1.96613348077562E7,1873429.62679921,-2.4884969087124E7,2433.49672606885,2549.87013603927,-3579.19638844074,-0.244396429346785,-0.0232873055618578,0.309327807535174,-2.81516063655084E9,1.48709789730349,-3.14159265358978,0.729429288956077,3.14159265358975,-2.3465743360392,0.517060547061413,-0.932758124451637,0.0,-0.0011344542745502,0.0,2.54050695944168E7,0.0,1059.43029785156,-0.244396429346785,-0.0232873055618578,0.309327807535174
6420.0,3627118.94811393,-1.95969844545906E7,-2.50836637869511E7,1.9806907295588E7,2026379.14102946,-2.50991671478322E7,2418.96252646947,2548.43424321191,-3560.78975165972,-0.240097203606515,-0.0245635503790196,0.304249409315373,-2.81516063655155E9,1.49147316671629,-3.14159265358978,0.79316722567436,3.14159265358975,-2.31697888451389,0.564016526667687,-0.875273803671904,0.0,-0.0011344542745502,0.0,2.5672261103709E7,0.0,1058.92578125,-0.240097203606515,-0.0245635503790196,0.304249409315373
6480.0,3704868.36000907,-1.97453944736254E7,-2.52966479706525E7,1.99516153976157E7,2179240.24789557,-2.53122698706135E7,2404.68267015372,2546.92393789424,-3542.68378903143,-0.235917559217408,-0.0257683916808713,0.299304532847056,-2.81516063655045E9,1.4958484361291,-3.14159265358978,0.856976670173482,3.14159265358975,-2.28322376723577,0.609389448057244,-0.814330759551804,0.0,-0.0011344542745502,0.0,2.59386444778754E7,0.0,1058.43041992187,-0.235917559217408,-0.0257683916808713,0.299304532847056
6540.0,3781231.39915862,-1.9894016200379E7,-2.55085552844172E7,2.00954741618961E7,2332008.60880077,-2.55242950584367E7,2390.65011702789,2545.34338623159,-3524.87063165805,-0.231853038441989,-0.0269057240086698,0.294488466194519,-2.81516063655133E9,1.50022370554192,-3.14159265358978,0.920855657850972,3.14159265358975,-2.2449424949385,0.652907005855486,-0.749485349699223,0.0,-0.0011344542745502,0.0,2.62042282164257E7,0.0,1057.94409179687,-0.231853038441989,-0.0269057240086698,0.294488466194519
6600.0,3856208.30728051,-2.00428545724183E7,-2.57194030561968E7,2.02384982219798E7,2484680.12825174,-2.57352600504939E7,2376.85808824718,2543.69652790061,-3507.34268717008,-0.22789938881082,-0.0279792046034317,0.289796701912665,-2.815160636551E9,1.50459897495472,-3.14159265358978,0.984802298391556,3.14159265358975,-2.20175964134219,0.694258395773165,-0.680290443266553,0.0,-0.0011344542745502,0.0,2.64690207016372E7,0.0,1057.46606445312,-0.22789938881082,-0.0279792046034317,0.289796701912665
6660.0,3929799.33300535,-2.01919141087073E7,-2.5929208166698E7,2.03807018122226E7,2637250.9406877,-2.59451817384301E7,2363.30005423626,2541.98708985197,-3490.09262776948,-0.224052552018452,-0.0289922696979836,0.285224926729049,-2.81516063655062E9,1.50897424436754,-3.14159265358978,1.04881477222746,3.14159265358975,-2.15331464996076,0.733091375976587,-0.606318491076136,0.0,-0.0011344542745502,0.0,2.6733030198927E7,0.0,1056.99645996093,-0.224052552018452,-0.0289922696979836,0.285224926729049
6720.0,4002004.72958836,-2.03411989269494E7,-2.6137987064903E7,2.05220987823993E7,2789717.39810544,-2.61540765818747E7,2349.96972335541,2540.21859911354,-3473.1133788742,-0.22030865350023,-0.0299481495601163,0.280769011804799,-2.81516063655034E9,1.51334951378035,-3.14159265358978,1.11289132720062,3.14159265358975,-2.09929735222716,0.769011546284772,-0.527196384765836,0.0,-0.0011344542745502,0.0,2.69962648573918E7,0.0,1056.53503417968,-0.22030865350023,-0.0299481495601163,0.280769011804799
6780.0,4072824.75288557,-2.0490712760048E7,-2.63457557829252E7,2.06627026116546E7,2942076.05842619,-2.63619606233073E7,2336.86103117279,2538.39439472594,-3456.39810833071,-0.216663992644048,-0.0308498823925161,0.276425003539919,-2.81516063655056E9,1.51772478319316,-3.14159265358979,1.17703027541345,3.14159265358974,-2.03949703770143,0.801585372415401,-0.44265393362641,0.0,-0.0011344542745502,0.0,2.7258732710493E7,0.0,1056.08154296875,-0.216663992644048,-0.0308498823925161,0.276425003539919
6840.0,4142259.65957276,-2.06404589717346E7,-2.65525299502347E7,2.08025264218282E7,3094323.67455423,-2.65688495022936E7,2323.96813030603,2536.51763887575,-3439.94021616263,-0.213115033594347,-0.0317003271853771,0.272189114890538,-2.81516063654962E9,1.52210005260597,-3.14159265358978,1.24122999025582,3.14159265358974,-1.97386458034572,0.830348813780872,-0.352585452536242,0.0,-0.0011344542745502,0.0,2.75204416768725E7,0.0,1055.63549804687,-0.213115033594347,-0.0317003271853771,0.272189114890538
6900.0,4210309.70558819,-2.07904405714162E7,-2.6758324807285E7,2.09415829901864E7,3246457.18408096,-2.67747584691214E7,2311.2853807988,2534.59132728695,-3423.73332482569,-0.209658396608837,-0.0325021756088171,0.268057717167583,-2.81516063654985E9,1.52647532201879,-3.14159265358978,1.30548890359694,3.14159265358974,-1.90258263684823,0.854823402547583,-0.257119467664264,0.0,-0.0011344542745502,0.0,2.77813995612809E7,0.0,1055.19714355468,-0.209658396608837,-0.0325021756088171,0.268057717167583
6960.0,4276975.14477517,-2.09406602282862E7,-2.69631552185692E7,2.10798847615919E7,3398473.69959163,-2.69797023978656E7,2298.80734100033,2532.61829892552,-3407.77126994113,-0.206290849931182,-0.0332579630242999,0.264027332288213,-2.81516063654935E9,1.53085059143159,-3.14159265358978,1.36980550313136,3.14159265358975,-1.82613239175228,0.874540913864491,-0.156685006434751,0.0,-0.0011344542745502,0.0,2.80416140556047E7,0.0,1054.76586914062,-0.206290849931182,-0.0332579630242999,0.264027332288213
7020.0,4342256.22770897,-2.1091120284743E7,-2.71670356851345E7,2.12174438601398E7,3550370.49953487,-2.71836957989122E7,2286.52875891795,2530.60124506805,-3392.04809148109,-0.203009302145565,-0.0339700786871328,0.260094625453064,-2.81516063655023E9,1.53522586084441,-3.14159265358977,1.43417832986945,3.14159265358976,-1.74533847359749,0.889076049137279,-0.0520560885530356,0.0,-0.0011344542745502,0.0,2.83010927399785E7,0.0,1054.341796875,-0.203009302145565,-0.0339700786871328,0.260094625453064
7080.0,4406153.20069414,-2.12418227691557E7,-2.73699803565818E7,2.13542721002898E7,3702145.01961867,-2.73867528309653E7,2274.44456401465,2528.54271778075,-3376.55802538115,-0.199810794981467,-0.0346407752056623,0.256256398224028,-2.81516063655078E9,1.53960113025722,-3.14159265358971,1.49860597576319,-3.14159265358976,-1.66137042708382,0.898083867622239,0.0556472036236942,0.0,-0.0011344542745502,0.0,2.85598430839729E7,0.0,1053.92456054687,-0.199810794981467,-0.0346407752056623,0.256256398224028
7140.0,4468666.30491271,-2.13927694080136E7,-2.75720030425733E7,2.1490380997517E7,3853794.84469826,-2.75888873125633E7,2262.5498594257,2526.44513785174,-3361.29549555693,-0.196692496539253,-0.0352721773169765,0.252509581978801,-2.81516063654962E9,1.54397639967003,-3.14159265358919,1.56308708145878,-3.14159265358923,-1.57568435781018,0.901335792481655,0.165017465019203,0.0,-0.0011344542745502,0.0,2.88178724478442E7,0.0,1053.51416015625,-0.196692496539253,-0.0352721773169765,0.252509581978801
7200.0,4529795.77571234,-2.1543961637496E7,-2.77731172238742E7,2.16257817785094E7,4005317.70112465,-2.77901127331281E7,2250.83991456965,2524.31080221587,-3346.25510630247,-0.193651694909217,-0.0358662900336608,0.248851231719929,-2.81516063654924E9,1.54835166908284,-5.97E-14,1.51397231942158,-1.033E-13,-1.48990413621988,0.898746338870923,0.274479137258261,0.0,-0.0011344542745502,0.0,2.90751880838393E7,0.0,1053.1103515625,-0.193651694909217,-0.0358662900336608,0.248851231719929
7260.0,4589541.84202381,-2.1695400614494E7,-2.79733360629489E7,2.1760485390932E7,4156711.4495243,-2.79904422635687E7,2239.31015813118,2522.14189090844,-3331.43163505021,-0.19068579215869,-0.0364250062113935,0.245278520217424,-2.8151606365483E9,1.55272693849566,-1.5E-15,1.44938818793717,-4.89E-14,-1.40566308920142,0.890383707546701,0.382447184688863,0.0,-0.0011344542745502,0.0,2.93317971375464E7,0.0,1052.71264648437,-0.19068579215869,-0.0364250062113935,0.245278520217424
7320.0,4647904.7258924,-2.18470872271145E7,-2.81726724141339E7,2.18945025127817E7,4307974.07798275,-2.81898887664611E7,2227.95617139412,2519.94047358096,-3316.82002547268,-0.187792298663595,-0.036950113582863,0.241788732465345,-2.8151606365477E9,1.55710220790846,-1.2E-15,1.38475440327943,-4.78E-14,-1.32444337783263,0.876461306769318,0.487488083953508,0.0,-0.0011344542745502,0.0,2.95877066492833E7,0.0,1052.32141113281,-0.187792298663595,-0.036950113582863,0.241788732465345
