time,gePosition_m_X,gePosition_m_Y,gePosition_m_Z,eiPosition_m_X,eiPosition_m_Y,eiPosition_m_Z,eiVelocity_m_s_X,eiVelocity_m_s_Y,eiVelocity_m_s_Z,eiAccel_m_s2_X,eiAccel_m_s2_Y,eiAccel_m_s2_Z,semiMajorAxis_m,gast_rad,eulerAngle_rad_Roll,eulerAngle_rad_Pitch,eulerAngle_rad_Yaw,eulerAngleWrtEi_rad_Roll,eulerAngleWrtEi_rad_Pitch,eulerAngleWrtEi_rad_Yaw,bodyAngularRateWrtEi_rad_s_Roll,bodyAngularRateWrtEi_rad_s_Pitch,bodyAngularRateWrtEi_rad_s_Yaw,altitudeMsl_m,airDensity_kg_m3,ambientTemperature_dgK,eiGravitation_m_s2_X,eiGravitation_m_s2_Y,eiGravitation_m_s2_Z
0.0,-1436381.4663574744,4185811.709981752,5163944.671561651,-4315967.74,960356.1999999998,5167269.529999999,129.09103699999832,-7491.513854999997,1452.5156539999987,5.469414083491855,-1.2170122767063871,-6.548227058940051,6759053.075789562,1.0233194459853856,5.666859310090004E-17,-0.20245819323134254,-4.604323189448128E-17,-2.471593905564226,-0.03718896475784017,-1.428993135204368,4.658681209898652E-20,-0.0011222300308759384,4.0657581468206416E-20,434989.54081172694,1.6159166507157113E-12,978.0522572877376,5.469414083491855,-1.2170122767063871,-6.548227058940051
60.0,-1794950.0356045624,3943126.029863295,5239239.620398924,-4298383.754970491,509016.72554642963,5242568.014416208,456.87345327461253,-7547.421734026874,1056.4130595804832,5.452579241989231,-0.645697124722836,-6.650294426845274,6759053.0758232735,1.027694715234372,-2.2748253385560767E-6,-0.2024367838140533,-9.844876412076836E-5,-2.4720660780620873,0.015546617880643255,-1.3871181068588256,-6.889618801697994E-7,-0.0011222532656526936,-3.2320057446815924E-6,433093.86499763327,1.7268595275371565E-12,985.1050726243584,5.452579241989231,-0.645697124722836,-6.650294426845274
120.0,-2147547.1726273266,3685627.214099747,5290617.599709991,-4261177.841658559,55353.96857218364,5293934.335279837,782.9101130916994,-7568.915714045659,655.0733767057422,5.411226050441414,-0.07029343713486753,-6.72271293263895,6759053.075823521,1.0320699844833425,-2.4281789163597155E-5,-0.20236987052577576,-3.9172253055844245E-4,-2.4703691815854576,0.06813689222514224,-1.3450234227497082,-1.5312656127557457E-6,-0.0011222708974033353,-6.47309511102507E-6,430905.28080499155,1.8594904120836148E-12,992.8730189417888,5.411226050441414,-0.07029343713486753,-6.72271293263895
180.0,-2492684.2530276547,3414408.904473429,5317817.999323865,-4204498.849718085,-398561.36303361796,5321107.919295422,1105.7316026619326,-7555.8248402663685,250.28944868039562,5.345427379299259,0.5067145689512037,-6.765038349794058,6759053.075823375,1.0364452537322815,-8.887695812600737E-5,-0.2022535792006418,-8.755368660409131E-4,-2.466480399365988,0.12048890062644152,-1.302476945144327,-2.5267258111742224E-6,-0.0011222824805083187,-9.722554638435963E-6,428429.8795798789,2.0164174182940344E-12,1001.3073022223605,5.345427379299259,0.5067145689512037,-6.765038349794058
240.0,-2828892.493711135,3130615.6419104007,5320688.440232866,-4128583.6023501256,-850652.7947560886,5323936.492629889,1423.8758900978182,-7508.1281438348915,-156.12277423374633,5.255356685345754,1.082812965028663,-6.776945299829227,6759053.075823336,1.0408205229812044,-2.1894266524163922E-4,-0.20208426994057316,-0.0015440559267346882,-2.4603504337529793,0.17250619532449915,-1.2592423434059088,-3.6751221561609965E-6,-0.0011222875114846277,-1.2979664594940008E-5,425676.59611281985,2.200311878739229E-12,1010.3226925669845,5.255356685345754,1.082812965028663,-6.776945299829227
300.0,-3154729.043683541,2835438.4188789004,5299185.944994884,-4033756.271418726,-1298847.133027278,5302377.251173588,1735.8944057456954,-7425.956170029428,-562.3314767243204,5.1412894764017105,1.6554666784909697,-6.758230921022537,6759053.0758232195,1.0451957922300796,-4.372813421429706E-4,-0.20185857251969794,-0.002389918988208341,-2.451903161531462,0.22408688243015557,-1.2150757785130935,-4.976198894479931E-6,-0.0011222854295502638,-1.6243698438424487E-5,422657.2230500181,2.413852159669838E-12,1019.8018848102258,5.1412894764017105,1.6554666784909697,-6.758230921022537
360.0,-3468783.0808932907,2530110.0527316895,5253377.667424054,-3920427.385261585,-1741083.5887643504,5256497.589806521,2040.358202709488,-7309.591977158352,-966.4964341684301,5.003604512481629,2.2221285704971,-6.708818318911367,6759053.07582358,1.049571061478955,-7.665074814699653E-4,-0.20157341895051423,-0.003404274561518548,-2.4410350170118864,0.2751215448005522,-1.1697227155552192,-6.4296642766876485E-6,-0.0011222756172597733,-1.951392228543642E-5,419386.38670468755,2.6597030965916433E-12,1029.6061068664617,5.003604512481629,2.2221285704971,-6.708818318911367
420.0,-3769681.892703357,2215900.3907892485,5183441.169167946,-3789092.4648853755,-2175322.944189713,5186475.378263291,2335.8641804288113,-7159.471575181336,-1366.7766675377536,4.8427846988003,2.780249035012622,-6.628759745328037,6759053.075823615,1.0539463307277828,-0.0012289380869857597,-0.20122607242781454,-0.00457682195770769,-2.427614221716642,0.325490995823265,-1.1229149292884726,-8.035189935644585E-6,-0.0011222574012124099,-2.2789594389278494E-5,415881.48338095116,2.9405310411356365E-12,1039.58913673356,4.8427846988003,2.780249035012622,-6.628759745328037
480.0,-4056096.916093835,1894111.358940891,5089664.231749835,-3640330.285344971,-2599556.72837607,5092598.772171569,2621.0413514224783,-6976.183772684783,-1761.3382794591041,4.659417623602756,3.327286120853391,-6.518239447810258,6759053.075823706,1.0583215999766105,-0.0018464820323930852,-0.20081415192165472,-0.005895860113031247,-2.4114800392179236,0.3750638223928352,-1.0743678329022093,-9.792410207756416E-6,-0.0011222300528330122,-2.6069964629157406E-5,412162.57582332945,3.2590351628478026E-12,1049.6107194015108,4.659417623602756,3.327286120853391,-6.518239447810258
540.0,-4326749.712242957,1566071.8666134488,4972444.19383738,-3474800.760384821,-3011816.365079227,4975265.549022457,2894.5571284318034,-6760.469401016867,-2148.3624498012077,4.454195692124639,3.860716168751125,-6.377576127034612,6759053.075823948,1.0626968692254064,-0.0026405288121273455,-0.2003356517663407,-0.007348343431837982,-2.392442322337849,0.42369368692306364,-1.0237783544465069,-1.1700921399139461E-5,-0.0011221927892271749,-2.9354274012150586E-5,408252.2499356737,3.6179653739709687E-12,1059.5461553837595,4.454195692124639,3.860716168751125,-6.377576127034612
600.0,-4580417.848724329,1233132.5821292377,4832286.804913606,-3293242.4498751797,-3410182.2545709996,4834981.960246849,3155.12360624822,-6513.219885188488,-2526.0535653127504,4.227915807160067,4.378044944715185,-6.207224936577686,6759053.075824003,1.0670721384741706,-0.003631837236300453,-0.19978895567913346,-0.008919944364637217,-2.370281747405046,0.4712163790192603,-0.970823718302686,-1.3760280999112051E-5,-0.0011221447741111218,-3.264175418977354E-5,404175.43248612556,4.020100211800708E-12,1069.2908271143858,4.227915807160067,4.378044944715185,-6.207224936577686
660.0,-4815940.661233863,896660.5937161301,4669804.588172555,-3096469.691207981,-3792792.7494011596,4672361.092219523,3401.5038095361874,-6235.475132611078,-2892.6474538190887,3.9814785468373612,4.876819239412578,-6.007778956974816,6759053.075824243,1.0714474077229348,-0.004840424675096456,-0.19917284475028207,-0.010595122392972355,-2.344751306407108,0.5174466431745891,-0.9151616702598597,-1.5970006843628418E-5,-0.0011220851188175622,-3.593162699092573E-5,399959.17111687764,4.468169423614911E-12,1078.7603252908957,3.9814785468373612,4.876819239412578,-6.007778956974816
720.0,-5032224.865543037,558033.9727479112,4485714.707352367,-2885369.357626817,-4157852.9823433626,4488120.730904462,3632.517875028004,-5928.420712920306,-3246.4196893620483,3.7158867913569487,5.354638891085104,-5.779970074853818,6759053.075824369,1.075822676973096,-0.006285457518245187,-0.19848649906039706,-0.0123571990576894,-2.3155798588953855,0.5621748673736839,-0.8564329202651758,-1.832957623147531E-5,-0.0011220128833783845,-3.922310397301769E-5,395632.3786086317,4.9647180223190846E-12,1087.8878064198584,3.7158867913569487,5.354638891085104,-5.779970074853818
780.0,-5228249.989311368,218636.25709564888,4280836.334359571,-2660897.248448725,-4503643.503258881,4283080.726997367,3847.0491336348027,-5593.384305067107,-3585.6939305088986,3.432243752701406,5.809169176850473,-5.524669198001836,6759053.075824521,1.0801979462217968,-0.007985143557937488,-0.1977294927146872,-0.014188438638701449,-2.2824788261059963,0.6051638086912062,-0.7942668614590348,-2.0838424996265898E-5,-0.001121927077685199,-4.2515385993068375E-5,391225.5440045159,5.5119165308110595E-12,1096.620239724185,3.432243752701406,5.809169176850473,-5.524669198001836
840.0,-5403073.5924815135,-120149.12600941342,4056087.516926939,-2424074.118283496,-4828528.680290548,4058159.8608115693,4044.0500553543807,-5231.831391547083,-3908.850249945695,3.131750364745578,6.238153504312908,-5.242885738696773,6759053.075824612,1.0845732154704657,-0.009956627045503747,-0.19690178221661872,-0.016070134068588423,-2.245153409042957,0.646145666583383,-0.7282919267860469,-2.349594653747771E-5,-0.0011218266627286253,-4.58076628005717E-5,386770.4138654251,6.111325822569531E-12,1104.9147187029548,3.131750364745578,6.238153504312908,-5.242885738696773
900.0,-5555836.244334543,-456944.47707122413,3812481.5481790313,-2175981.3546573287,-5130964.819720501,3814372.2087870543,4222.548017435671,-4845.360184117435,-4214.333409491366,2.8157019958155565,6.639426322484077,-4.935766300606213,6759053.075824591,1.0889484847191346,-0.012215887196412237,-0.19600368825326586,-0.017982697646290055,-2.2033199508931585,0.6848200005558988,-0.6581521860009558,-2.6301490813977413E-5,-0.0011217105519174939,-4.9099112653934675E-5,382299.64759453596,6.7636265489671494E-12,1112.73544570408,2.8157019958155565,6.639426322484077,-4.935766300606213
960.0,-5685766.224813573,-790383.4592603691,3551122.842842654,-1917756.31588578,-5409507.958041412,3552823.0163672506,4381.650854150196,-4435.695770590422,-4500.661030914391,2.4854844515789547,7.010926158360433,-4.604592509092579,6759053.075824884,1.0933237539677718,-0.014777640932424055,-0.19503587110912826,-0.019905756105490054,-2.156731084948381,0.7208532236531229,-0.5835318091608641,-2.9254363303697705E-5,-0.0011215776124784995,-5.2388901962278494E-5,377846.45141976146,7.46832476461615E-12,1120.05156910771,2.4854844515789547,7.010926158360433,-4.604592509092579
1020.0,-5792183.917588675,-1119116.7279075414,3273202.327920199,-1650587.343592477,-5662821.279340294,3274704.0850709914,4520.552144801064,-4004.683478275869,-4766.43160950219,2.1425692431856036,7.350708673413314,-4.250777930925204,6759053.075825182,1.0976990232163775,-0.017655250657935335,-0.1939993000744319,-0.021818249586858046,-2.105209852715532,0.7538806599818475,-0.5041885682711718,-3.235382393332481E-5,-0.0011214266669374742,-5.567618495438574E-5,373444.1962371663,8.223448125280742E-12,1126.8358061002393,2.1425692431856036,7.350708673413314,-4.250777930925204
1080.0,-5874505.862478246,-1441817.5300251942,2979992.358917747,-1375708.4669140824,-5889682.111027391,2981288.6848630114,4638.536195333023,-3554.281456335688,-5010.332314318393,1.788508103773884,7.656959623032134,-3.875864037187674,6759053.0758251455,1.1020742924649671,-0.020860637844841424,-0.19289521736194848,-0.023698534057326408,-2.0486926941774355,0.78351236333733,-0.41999626778749444,-3.5599085982059345E-5,-0.0011212564946829731,-5.8960103376568446E-5,369126.02507862484,9.025251001520866E-12,1133.063677839632,1.788508103773884,7.656959623032134,-3.875864037187674
1140.0,-5932248.435323712,-1757187.248226188,2672841.176158007,-1094393.8181337202,-6088988.451294843,2673926.006366631,4734.982668169574,-3086.552486634076,-5231.146516583734,1.4249267457389745,7.928007591948612,-3.4815151725695017,6759053.075825376,1.1064495617135248,-0.024404203185615404,-0.19172509718136937,-0.025524486722663626,-1.9872787740574054,0.8093439247420496,-0.330993558008389,-3.898931496372112E-5,-0.0011210658336128507,-6.223978622122317E-5,364924.45644561975,9.867951382876641E-12,1138.7131596413287,1.4249267457389745,7.928007591948612,-3.4815151725695017
1200.0,-5965031.124248329,-2063960.862442983,2353166.9192815344,-807951.7822164786,-6259764.982495639,2354035.171037849,4809.3708147475,-2603.655040551338,-5427.760985729928,1.053517861417834,8.162336370179663,-3.0695125051777814,6759053.07582537,1.110824830962067,-0.028294754030214603,-0.19049060075170038,-0.027273613977580727,-1.9212794755112144,0.8309731630045879,-0.23743295417463461,-4.2523627491639465E-5,-0.001120853381864369,-6.551434948779908E-5,360870.9901258344,1.0743526465208935E-11,1143.7645603933431,1.053517861417834,8.162336370179663,-3.0695125051777814
1260.0,-5972579.372444578,-2360912.3020656244,2022451.2217024236,-517718.90543990734,-6401168.525936159,2023098.8210849492,4861.283265710384,-2107.8336075650336,-5599.172691487059,0.6760333809277316,8.358596827364831,-2.641746943366578,6759053.075825455,1.115200100210593,-0.0325394397734928,-0.1891935281491831,-0.02892316144087647,-1.851257739173379,0.8480227085946114,-0.13981973158186708,-4.62010901309945E-5,-0.001120617799628573,-6.878289597789658E-5,356995.7223644317,1.1641595888161661E-11,1148.2004604184003,0.6760333809277316,8.358596827364831,-2.641746943366578
1320.0,-5954726.959222097,-2646859.66051792,1682232.4104983963,-225053.59098407417,-6512492.895374517,1682656.3146335992,4890.4093348936685,-1601.4083300773189,-5744.495149959572,0.2942760126406121,8.515618138866989,-2.2002110197386933,6759053.075825593,1.1195753694590873,-0.03714369579930834,-0.18783576798843435,-0.030450225619748614,-1.778043978365943,0.8601670059901648,-0.0389274207029817,-5.0020718243420345E-5,-0.0011203577110490356,-7.204451512619055E-5,353326.97735855,1.254941921684468E-11,1152.005507240912,0.2942760126406121,8.515618138866989,-2.2002110197386933
1380.0,-5911417.893039679,-2920670.2439312586,1334098.3409257801,68670.38807605655,-6593173.10885876,1334296.5553501472,4896.547795127492,-1086.7639878409746,-5862.964252090255,-0.08990989604900404,8.632418214879241,-1.7469897571745954,6759053.07582562,1.123950638707566,-0.042111196514555777,-0.186419246015371,-0.031831866744155474,-1.7027160852279224,0.8671604346729751,0.06422258908058216,-5.398147482889313E-5,-0.0011200717062052803,-7.529828286880621E-5,349890.96198785363,1.3452050985188325E-11,1155.16654125846,-0.08990989604900404,8.632418214879241,-1.7469897571745954
1440.0,-5842707.792616304,-3181265.4254602366,979678.898408384,362070.52548962866,-6642788.921402816,979650.4893962538,4879.6090865150145,-566.338384260493,-5953.943514267237,-0.4746481276198736,8.70821318430739,-1.284250547279482,6759053.075825819,1.1283259079560126,-0.04744381793012875,-0.18494587375095425,-0.03304522230333432,-1.6265375360426046,0.8688617456965656,0.16842333450710162,-5.808226937006797E-5,-0.0011197583431809474,-7.854326155075464E-5,346711.4504496965,1.4332691869035292E-11,1157.6734417441257,-0.4746481276198736,8.70821318430739,-1.284250547279482
1500.0,-5748764.734978426,-3427625.276943129,620638.2043982835,653762.333111014,-6661067.644401987,620383.3061389992,4839.616921215405,-42.61019565231072,-6016.928693130203,-0.8580409306241393,8.742425788520466,-0.8142320876917165,6759053.075825897,1.1327011772044275,-0.05314161015909013,-0.18341749836109777,-0.03406762080311256,-1.5508591716966282,0.8652496962597973,0.2723808815326215,-6.232195668440455E-5,-0.0011194161502166477,-8.17784998740002E-5,343809.5050450311,1.517321318604306E-11,1159.519657076576,-0.8580409306241393,8.742425788520466,-0.8142320876917165
1560.0,-5629869.552427895,-3658792.9500637706,258666.56588713932,942366.1695549749,-6647886.221612742,258186.3824228504,4776.7092528649955,481.91364692918137,-6051.551709908482,-1.238179848859339,8.73469254631425,-0.3392324409489694,6759053.075825732,1.1370764464528427,-0.05920278011718994,-0.18183585493996574,-0.03487669524558906,-1.4770025540828187,0.8564261953542748,0.3748313506362527,-6.669933578957127E-5,-0.001119043627947022,-8.500303288764058E-5,341203.2387527216,1.5954838900983507E-11,1160.702387214768,-1.238179848859339,8.73469254631425,-0.3392324409489694
1620.0,-5486415.563886444,-3873878.7799267797,-104527.78849663783,1226514.1072666084,-6603272.5359414695,-105230.98663179463,4691.138583573445,1004.710965636358,-6057.5838338680505,-1.6131569578476792,8.68486956065888,0.13840370629292406,6759053.075825935,1.1414517157012258,-0.06562368461969215,-0.18020252237859294,-0.03545049580695701,-1.4061496951797268,0.8426061719613124,0.4746515723362507,-7.121314878774361E-5,-0.0011186392517214905,-8.82158820216431E-5,338907.62444518105,1.665895447969495E-11,1161.2225250385727,-1.6131569578476792,8.68486956065888,0.13840370629292406
1680.0,-5318907.7298603775,-4072064.085025053,-467227.1399971844,1504856.797583565,-6527405.926172295,-468150.0244651345,4583.271586889617,1523.2576484650817,-6034.938079642655,-1.9810764125628244,8.59303684996954,0.6162984893299032,6759053.075825982,1.1458269849495775,-0.0723988339800871,-0.17851888394674217,-0.03576760116730488,-1.3392615260759109,0.8240966122025087,0.5709410102498682,-7.586207977454961E-5,-0.0011182014740080517,-9.141605516550738E-5,336934.35465457506,1.726799266714015E-11,1161.084432919892,-1.9810764125628244,8.59303684996954,0.6162984893299032
1740.0,-5127961.224332151,-4252604.6389684575,-827712.8305054838,1776070.2922503762,-6420616.898073933,-828851.029176331,4453.588031176209,2035.0411749045977,-5983.670779333634,-2.340066201172736,8.459501101628298,1.0920549077622579,6759053.075825708,1.1502022541979289,-0.07952090612984354,-0.17678609364916872,-0.03580722790883145,-1.27703712052325,0.8012694414035423,0.6630629416399668,-8.064475377853629E-5,-0.0011177287268789903,-9.460254679314348E-5,335291.75472418714,1.776633139187786E-11,1160.295628540457,-2.340066201172736,8.459501101628298,1.0920549077622579
1800.0,-4914299.421176521,-4414833.791037847,-1184273.882115604,2038862.779105085,-6283386.019996876,-1185621.998368104,4302.678994385251,2537.574257302656,-5903.982297208084,-2.688289991897478,8.284796763125136,1.563271341774878,6759053.075825774,1.154577523446217,-0.08698077119753746,-0.1750050493219226,-0.035549337375206276,-1.2199130041963935,0.7745334188054561,0.750645568777849,-8.555973573710356E-5,-0.0011172194245772159,-9.777433813516705E-5,333984.750995614,1.8141130738802786E-11,1158.8664528803201,-2.688289991897478,8.284796763125136,1.563271341774878
1860.0,-4678751.29717474,-4558165.21462926,-1535215.6332772914,2291981.1893256,-6116341.99905212,-1536767.270518928,4131.244368188009,3028.408496158151,-5796.2168625256945,-3.0239589541568614,8.069685406171038,2.027556408309047,6759053.075825877,1.1589527926945367,-0.0947675264062624,-0.17317637331245053,-0.034974739349038,-1.1680925441803378,0.7443091672021439,0.8335530711161246,-9.060552951495968E-5,-0.0011166719661616215,-1.009303973997293E-4,333014.8944377243,1.838303624422901E-11,1156.8097879021884,-3.0239589541568614,8.069685406171038,2.027556408309047
1920.0,-4422248.258289343,-4682095.264950713,-1878868.3381395654,2534217.6337159863,-5920258.940174604,-1880616.1294442725,3940.08965667013,3505.147944325528,-5660.861504372262,-3.3453434312129176,7.815153321126435,2.4825440134138614,6759053.075825811,1.163328061942793,-0.10286854107978428,-0.1713004014474307,-0.03406519187957763,-1.1215919132988987,0.7110096741696517,0.9118401082107563,-9.578057697119041E-5,-0.0011160847382297656,-1.0406968004289128E-4,332380.43885239394,1.8486685382859065E-11,1154.1408803210145,-3.3453434312129176,7.815153321126435,2.4825440134138614
1980.0,-4145820.400524634,-4786204.929879755,-2213595.6749745044,2764415.6260491204,-5696052.796736507,-2215531.317703043,3730.122082238369,3965.4624732565158,-5498.544081228699,-3.650784339672475,7.52240732266203,2.9259084496943415,6759053.075825955,1.1677033311910492,-0.11126951148208257,-0.1693771808249493,-0.03280349657202322,-1.0802905362847377,0.6750268867812618,0.9857018709712008,-1.0108325708111259E-4,-0.0011154561177155792,-1.071911290894467E-4,332076.47153592325,1.8450972171952888E-11,1150.8773114985001,-3.650784339672475,7.52240732266203,2.9259084496943415
2040.0,-3850592.2213435,-4870161.360692216,-2537803.109410449,2981476.0524644237,-5444777.027807621,-2539917.4046459477,3502.346018861834,4407.100833994907,-5310.030407229724,-3.9387041716125064,7.192868772230971,3.3553793829607077,6759053.075825964,1.1720786004407024,-0.11995452516124469,-0.16740647679458542,-0.031173588633940548,-1.043977759225694,0.636723836196795,1.0554279443913022,-1.0651188511907398E-4,-0.0011147844747596977,-1.1029367550496487E-4,332095.0930791554,1.8279048898432956E-11,1147.0391336934226,-3.9387041716125064,7.192868772230971,3.3553793829607077
2100.0,-3537777.802154612,-4933718.97240386,-2849946.0586012877,3184362.8473496046,-5167617.483574654,-2852228.955200793,3257.857780156022,4827.903306730953,-5096.220486496341,-4.20761747778354,6.8281658481494505,3.7687565701037604,6759053.075825942,1.176453869688895,-0.1289061344187422,-0.16538778928865824,-0.029160620972744418,-1.0123915213526542,0.5964311500461603,1.1213642072169268,-1.120647119083849E-4,-0.0011140681756494012,-1.1337623861973899E-4,332425.6418939625,1.797807053734219E-11,1142.6491719486376,-4.20761747778354,6.8281658481494505,3.7687565701037604
2160.0,-3208675.4869599133,-4976720.106523356,-3148537.8034253595,3372108.3380020014,-4865886.546727678,-3150978.446457836,2997.8397969723,5225.813835326927,-4858.1438763956485,-4.456140715342356,6.430124119309049,4.163924151009479,6759053.07582595,1.180829138937088,-0.13810543847491102,-0.16332037847260308,-0.02675104165600984,-0.9852478700731012,0.5544466950440899,1.1838839319829033,-1.1773992314452128E-4,-0.0011133055858254157,-1.1643772660512379E-4,333054.95808446495,1.7558712514340664E-11,1137.733470981546,-4.456140715342356,6.430124119309049,4.163924151009479
2220.0,-2864662.0862557366,-4999095.252508876,-3432157.0973379742,3543818.222650478,-4541016.563726779,-3434743.8806503047,2723.554225942071,5598.8915473305005,-4596.954209915343,-4.683001350775428,6.000755503176239,4.5388643610006785,6759053.075825956,1.1852044081852489,-0.14753217388052015,-0.16120329947206447,-0.023932664058526516,-0.9622619866457811,0.5110372402543896,1.243367422013907,-1.2353563879776688E-4,-0.0011124950729517293,-1.1947703700268932E-4,333967.6804807108,1.703451247893807E-11,1132.321848882018,-4.683001350775428,6.000755503176239,4.5388643610006785
2280.0,-2507186.639491671,-5000862.82739289,-3699455.4225837872,3698676.149097298,-4194552.605666945,-3702176.0452092965,2436.3360367171076,5945.321565544275,-4313.922916371593,-4.887046117996409,5.542245712228514,4.891670516840225,6759053.075825874,1.1895796774333782,-0.15716481267114663,-0.15903544573168568,-0.020694729076136748,-0.9431622106379721,0.46644128135537277,1.3001887005783224,-1.294499126012753E-4,-0.0011116350100445166,-1.2249305730639113E-4,335146.5700249261,1.6421099178702566E-11,1126.4485041383036,-4.887046117996409,5.542245712228514,4.891670516840225
2340.0,-2137763.7728931266,-4982128.516574149,-3949163.847085662,3835947.864277562,-3828144.603897106,-3952005.3731848425,2137.5856313188824,6263.425024132197,-4010.432188218954,-5.067248342821745,5.0569403147591885,5.22055913861203,6759053.075825669,1.1939549466814758,-0.16698066774851303,-0.1568156003580023,-0.017027958840320937,-0.9276987278368759,0.42087242012797293,1.3547075898291665,-1.3548073163054624E-4,-0.0011107237786564343,-1.254846655978262E-4,336572.85227277,1.5735375288231897E-11,1120.152607788167,-5.067248342821745,5.0569403147591885,5.22055913861203
2400.0,-1757966.6927723654,-4943084.1821255665,-4180099.4384320197,3954984.9083908782,-3443538.9105306114,-4183048.360432702,1828.7610539609518,6551.6682103974545,-3687.96724965065,-5.222714257919825,4.547329555562612,5.523881081631894,6759053.075825676,1.1983302159295892,-0.17695600493370667,-0.15454249461150663,-0.012924601443227714,-0.9156484284692944,0.3745229060698352,1.4072656733610858,-1.4162601598013342E-4,-0.0011097597721113266,-1.284507312345382E-4,338226.57153991616,1.499471660519286E-11,1113.4787953302366,-5.222714257919825,4.547329555562612,5.523881081631894
2460.0,-1369419.8572877962,-4884006.348302378,-4391171.194939916,4055227.830889859,-3042569.3384434967,-4394213.49952434,1511.3698538380756,6808.670762621434,-3348.1079898151143,-5.352688246598681,4.01603209893495,5.800131566661667,6759053.07582578,1.2027054851776549,-0.18706616111658375,-0.1522148725337012,-0.008378466281400987,-0.906817156743229,0.32756710654678095,1.458184919645666,-1.478836185432748E-4,-0.0011087413987842642,-1.3139011559100994E-4,340086.9491871793,1.4216239094117737E-11,1106.4774503450903,-5.352688246598681,4.01603209893495,5.800131566661667
2520.0,-973791.371998543,-4805254.277149981,-4581385.457732043,4136208.909461855,-2627147.739233535,-4584506.694301377,1186.960666620436,7033.212864530591,-2992.5200297045853,-5.456556969108616,3.465777870310178,6.047959012778678,6759053.075825699,1.207080754425705,-0.19728566789700372,-0.1498315605420728,-0.003384949733084558,-0.9010402729607759,0.2801647826052216,1.5077680398606714,-1.5425132489992678E-4,-0.0011076670854221304,-1.3430167285200697E-4,342132.7386893353,1.3416170383262109E-11,1099.2046430310568,-5.456556969108616,3.465777870310178,6.047959012778678
2580.0,-572785.1564430088,-4707267.6501710415,-4749850.772065874,4197554.357158296,-2199254.1808534074,-4753036.123298793,857.1145826932415,7224.241387872005,-2622.945296988154,-5.533852341151533,2.8993901834167386,6.266172594915825,6759053.075825727,1.211456023673723,-0.20758838008114394,-0.14739154069156574,0.0020589489939736843,-0.8981821872546971,0.23246411968709532,1.556299910813611,-1.607268533185074E-4,-0.001106535280498753,-1.37184250857562E-4,344342.5704510787,1.2609346404007037E-11,1091.72155838804,-5.533852341151533,2.8993901834167386,6.266172594915825
2640.0,-168132.9303543516,-4590563.874867253,-4895782.1707363445,4238986.006953382,-1760926.7892022843,-4899016.5248474935,523.4363715092675,7380.8749460197005,-2241.1921871786276,-5.5842533506231025,2.3197673468783826,6.453748466912175,6759053.075825745,1.2158312929217412,-0.21794760837197286,-0.14489402619180541,0.00795462187180443,-0.8981353149059841,0.184604506620166,1.6040495957371077,-1.6730785487639873E-4,-0.0011053444575984937,-1.400366919988477E-4,346695.2798058132,1.1808839721779415E-11,1084.0932392271927,-5.5842533506231025,2.3197673468783826,6.453748466912175
2700.0,238413.93102636363,-4455735.037591013,-5018504.857169042,4260322.467190505,-1314251.319832588,-5021772.881465566,187.54563177257089,7502.407833291579,-1849.125392492018,-5.607586714903498,1.7298639475987017,6.609834610463012,6759053.07582579,1.2202065621697118,-0.22833625555126688,-0.14233853769638086,0.014301855811147105,-0.9008187450818667,0.1367190812356734,1.6512726441511245,-1.7399191370401208E-4,-0.0011040931188222285,-1.428578341638595E-4,349170.2122322238,1.1025716036141098E-11,1076.386512159184,-5.607586714903498,1.7298639475987017,6.609834610463012
2760.0,645092.6227445786,-4303444.5264898045,-5117457.27075777,4261479.745545306,-861350.5270930213,-5120743.486087717,-148.93206344807024,7588.31283650692,-1448.6554815367347,-5.603826396891536,1.132672008061522,6.733754290172457,6759053.075825583,1.2245818314176822,-0.23872695542599023,-0.13972497882653764,0.021098845916168705,-0.9061767987220721,0.08893707335109201,1.698213454909174,-1.8077654735686093E-4,-0.0011027797982087128,-1.4564651173174526E-4,351747.50052796776,1.0268910519701219E-11,1068.6671007003265,-5.603826396891536,1.132672008061522,6.733754290172457
2820.0,1050137.16743226,-4134423.3503730725,-5192193.522009586,4242471.343237855,-404373.3984829863,-5195482.377694681,-484.37395912672196,7638.242917049507,-1041.7283135690338,-5.573092013102123,0.531202210944468,6.825008114549734,6759053.07582538,1.228957100665621,-0.24909221376804916,-0.13705370938397393,0.02834221784651961,-0.9141775666697692,0.04138598012502613,1.7451075534786016,-1.8765920731985558E-4,-0.001101403065164593,-1.484015566143686E-4,354408.3094634519,9.54521546257684E-12,1060.9961771227677,-5.573092013102123,0.531202210944468,6.825008114549734
2880.0,1451786.6551892485,-3949466.1810557884,-5242385.190070155,4203407.82520956,54515.678245918716,-5245661.138917408,-817.1687830869292,7652.031773107368,-630.3143704847515,-5.515646181202842,-0.07153462262914968,6.88327472181729,6759053.07582527,1.2333323699135281,-0.25940455044216787,-0.13432561471905943,0.03602705876105797,-0.9248114564755809,-0.005806392205207683,1.792183673803126,-1.9463727964758056E-4,-0.0010999615278955916,-1.5112179934345942E-4,357135.0442780832,8.859372078919583E-12,1053.4269139026908,-5.515646181202842,-0.07153462262914968,6.88327472181729
2940.0,1848293.4182832732,-3749427.1481234953,-5267822.480144452,4144495.8757965714,513147.748615868,-5271070.053135858,-1145.7252213165696,7629.69330265157,-216.39808803924586,-5.431890867079687,-0.6725456250172537,6.908410127410943,6759053.075825344,1.2377076391614352,-0.2696366418849414,-0.13154216977265817,0.04414695619770227,-0.9380897277368336,-0.05250999084590689,1.8396655533593893,-2.0170808574397544E-4,-0.0010984538368311015,-1.538060702015398E-4,359911.5202564347,8.214257760426418E-12,1046.001821272328,-5.431890867079687,-0.6725456250172537,6.908410127410943
3000.0,2237931.094498059,-3535215.4161051977,-5268414.743138425,4066036.8530285936,969360.0604944613,-5271618.623405809,-1468.4801458481768,7571.41999791219,198.03273493251956,-5.322362802663966,-1.2688733808501782,6.900445786699412,6759053.075825167,1.2420829084093103,-0.2797614630588651,-0.1287054963889775,0.05269404413741773,-0.954042955313465,-0.09859066145358122,1.8877733520564912,-2.08868883284429E-4,-0.0010968786880345865,-1.564532003946233E-4,362723.091508916,7.611152341848703E-12,1038.751612140973,-5.322362802663966,-1.2688733808501782,6.900445786699412
3060.0,2619002.53494969,-3307790.5747360815,-5244190.364464401,3968424.8580243015,1421006.705760868,-5247335.460166852,-1783.9065418266987,7477.580311466531,610.9973741936691,-5.18772805514867,-1.8576126845703027,6.859585441422848,6759053.075825248,1.246458177657154,-0.2897524279866649,-0.12581841260439955,0.061659055412094606,-0.9727193229348307,-0.14390836428488796,1.9367245949308511,-2.161168672828251E-4,-0.0010952348265914655,-1.5906202326441108E-4,365556.737963582,7.050054816382146E-12,1031.6959377524638,-5.18772805514867,-1.8576126845703027,6.859585441422848
3120.0,2989847.5145378415,-3068157.8733434696,-5195296.033325562,3852144.339008286,1865969.0742785155,-5198367.549059853,-2090.521085460332,7348.715042431419,1020.5323940902464,-5.028775835743997,-2.435926425693887,6.786200831394054,6759053.075825245,1.2508334469049975,-0.29958352793784054,-0.12288447275017961,0.07103137955247389,-0.9941826137584542,-0.18831546382435546,1.9867345179136626,-2.2344917130560915E-4,-0.0010935210499660043,-1.616313755375952E-4,368401.1104391919,6.530012398686574E-12,1024.8457360376478,-5.028775835743997,-2.435926425693887,6.786200831394054
3180.0,3348850.2058433946,-2817363.330405813,-5121995.407875029,3717767.252209688,2302166.0630213004,-5124978.914264506,-2386.891330014715,7185.532798570442,1424.701572484174,-4.846411641701921,-3.0010604892832133,6.680826363943531,6759053.075825327,1.2552087161527934,-0.3092294663344083,-0.11990799736408178,0.08079912513340558,-1.0185097283405646,-0.23165511184879173,2.038015668040411,-2.3086286883449458E-4,-0.0010917362113189693,-1.641600986095838E-4,371246.5344984411,6.049424102520807E-12,1018.2064461404811,-4.846411641701921,-3.0010604892832133,6.680826363943531
3240.0,3694446.380178653,-2556488.749034459,-5024667.19539114,3565949.804301626,2727563.9867395065,-5027548.696515793,-2671.6424627551064,6988.904596291581,1821.6054770967519,-4.641649828966732,-3.5503575785819916,6.544152842295747,6759053.075825296,1.2595839854005895,-0.31866578943400375,-0.11689409207870258,0.09094918566055907,-1.0457875252483861,-0.2737597663027221,2.0907765779618654,-2.383549747788361E-4,-0.00108987922277714,-1.6664703985987605E-4,374084.9745626063,5.60629225068737E-12,1011.7812112083158,-4.641649828966732,-3.5503575785819916,6.544152842295747
3300.0,4025130.302591327,-2286646.6685258974,-4903802.669996651,3397428.8030906124,3140186.1404257757,-4906568.668345931,-2943.4636016411014,6759.857665499918,2209.3906400003325,-4.4156057145083,-4.081269886706733,6.377020360475773,6759053.075825251,1.2639592546483536,-0.3278690118549788,-0.1138486548411939,0.10146730805563758,-1.076108749089436,-0.3144499163059254,2.145219305111523,-2.4592244713819716E-4,-0.0010879490586455085,-1.6909105399601812E-4,376909.9604995128,5.198411811065508E-12,1005.5734115603789,-4.4156057145083,-4.081269886706733,6.377020360475773
3360.0,4339461.290852631,-2008975.2812614779,-4760002.653444897,3213017.6448577144,3538121.967979159,-4762640.212095253,-3201.1136065281216,6499.568530055048,2586.2582835866497,-4.169487307261435,-4.591370564255099,6.180410476476999,6759053.075825074,1.268334523896086,-0.33681673602359524,-0.11077837102058004,0.11233816284479857,-1.1095667927548853,-0.3535331173205385,2.201535607233187,-2.53562188815095E-4,-0.001085944758553891,-1.7149100442296993E-4,379716.47956035146,4.823501602640904E-12,999.5882425156948,-4.169487307261435,-4.591370564255099,6.180410476476999
3420.0,4636069.911780846,-1724633.3431148643,-4593973.987095245,3013601.968090789,3919535.795793712,-4596470.788835938,-3443.426385517696,6209.355437181608,2950.47255811268,-3.904586764734188,-5.078363949255611,5.955437777320775,6759053.075824968,1.2727097931452471,-0.3454877646541674,-0.10769069615835333,0.12354541521637347,-1.1462490477430909,-0.39080347909471214,2.259901531450014,-2.6127104957730335E-4,-0.0010838654305281542,-1.7384576463450223E-4,382500.83713853353,4.479289140129132E-12,993.8333707257216,-3.904586764734188,-5.078363949255611,5.955437777320775
3480.0,4913663.791625706,-1434795.1041461925,-4406525.525385937,2800135.004335835,4282675.094448468,-4408869.928539189,-3669.31568282537,5890.6702106277635,3300.3682577458335,-3.6222716689309626,-5.540094544668733,5.703340949425808,6759053.075824939,1.2770850623929477,-0.3538622054130064,-0.10459382632758416,0.1350717962062169,-1.1862286465716416,-0.42604178962734035,2.320470242181382,-2.6904582816844017E-4,-0.0010817102539777252,-1.761542196230568E-4,385260.4903419729,4.163562498538699E-12,988.3188782260652,-3.6222716689309626,-5.540094544668733,5.703340949425808
3540.0,5171033.020528977,-1140645.2849808263,-4198563.682894686,2573632.6575482436,4625878.236178515,-4200744.773599478,-3877.7793400193773,5545.089602717318,3634.357988780002,-3.3239762104325115,-5.974554746310625,5.425473465527637,6759053.075824931,1.2814603316406326,-0.3619215669677488,-0.10149665626329922,0.14689917337997357,-1.229554517181092,-0.4590164951983264,2.383363026935511,-2.7688327456511073E-4,-0.0010794784825897824,-1.784152673044438E-4,387993.8588095238,3.874200587251062E-12,983.056747471531,-3.3239762104325115,-5.974554746310625,5.425473465527637
3600.0,5407055.134458881,-843374.122367933,-3971087.5684588235,2335168.343654656,4947581.720301544,-3973095.209211256,-4067.9030276362355,5174.306219773516,3950.9387702581835,-3.0111923634875,-6.379891340333113,5.123293995439244,6759053.075824857,1.2858356008883016,-0.36964884568920486,-0.09840872562681419,0.1590086205064019,-1.2762398745652002,-0.48948577962694234,2.4486586221832196,-2.847800923781401E-4,-0.0010771694471214009,-1.8062781995344243E-4,390700.11755431583,3.6091900549706736E-12,978.0601077042353,-3.0111923634875,-6.379891340333113,5.123293995439244
3660.0,5620699.661110971,-544172.5058560754,-3725183.74082127,2085867.6220747025,5246326.84319805,-3727008.6150882207,-4238.863448948558,4780.119093797128,4248.69805351604,-2.6854611280210166,-6.754410804022251,4.798356642433375,6759053.075824763,1.2902108701359387,-0.3770286023445335,-0.09534015395217275,0.17138048585110177,-1.3262495860853372,-0.5172009810502365,2.516381310703988,-2.927329413948004E-4,-0.0010747825580809166,-1.8279080564644764E-4,393378.9768789109,3.366634128931267E-12,973.342402351302,-2.6854611280210166,-6.754410804022251,4.798356642433375
3720.0,5811032.219384649,-244227.22551139304,-3462020.6208985443,1826902.6507087573,5520765.793748785,-3463654.2736452324,-4389.931021986381,4364.423970861216,4526.319153070292,-2.3483639067537063,-7.096583456513333,4.452301100196054,6759053.07582463,1.29458613938356,-0.38404702820471825,-0.09230156499614575,0.1839944588623608,-1.37948725955423,-0.5419115340197467,2.5864886525498574,-3.007384402584306E-4,-0.0010723173082893675,-1.8490316970700733E-4,396030.45457480283,3.1447565416210195E-12,968.9165778134408,-2.3483639067537063,-7.096583456513333,4.452301100196054
3780.0,5977218.164920105,55283.65127526283,-3182842.5960578397,1559486.4954172845,5769667.1592693,-3184277.470053421,-4520.472049758107,3929.203383552181,4782.586086737968,-2.001514077382433,-7.405046516929663,4.086842817384104,6759053.075824434,1.2989614086311496,-0.390692000077553,-0.08930400137405066,0.19682963516414273,-1.4357833740045254,-0.5633715113057137,2.658860180918694,-3.0879316928111974E-4,-0.0010697732753139552,-1.8696387615010907E-4,398654.64569333516,2.941902320051111E-12,964.7943477856907,-2.001514077382433,-7.405046516929663,4.086842817384104
3840.0,6118525.776890912,353195.2577991325,-2888963.85176215,1284867.3243161915,5991920.830912873,-2890193.3195507247,-4629.9503919613935,3476.5165710569354,5016.38782783741,-1.6465488112019808,-7.678606136401416,3.7037632480714056,6759053.07582434,1.3033366778787392,-0.3969531238762223,-0.08635883050508239,0.2098645799062678,-1.4948862049030374,-0.581347653595937,2.7332888245695144,-3.168936733845214E-4,-0.0010671501237648382,-1.8897190912095895E-4,401251.4951478634,2.756536419243479E-12,960.9855559051099,-1.6465488112019808,-7.678606136401416,3.7037632480714056
3900.0,6234328.983746902,648360.2467210242,-2581761.9656393966,1004322.5163283522,6186542.30120359,-2582780.35708643,-4717.928654292084,3008.4893062924543,5226.721976740472,-1.285121180841764,-7.916238477372716,3.3049002570292436,6759053.075824085,1.307711947126297,-0.402821766435778,-0.08347764301572562,0.22307738964950677,-1.5564575368793383,-0.5956285235901035,2.8094770583983633,-3.250364651633258E-4,-0.0010644476074473943,-1.9092627432391955E-4,403820.578284957,2.5872407654664545E-12,957.4976404776294,-1.285121180841764,-7.916238477372716,3.3049002570292436
3960.0,6324109.627882972,939652.9371712719,-2262671.298476898,719152.7123932765,6352676.349791356,-2263473.923823023,-4784.0689137637055,2527.30368490689,5412.69786289247,-0.9188925911355992,-8.11708991860599,2.892138739083542,6759053.075824007,1.312087216373823,-0.40829107539666365,-0.08067214485517248,0.23644575307774052,-1.6200750316100045,-0.6060341375155146,2.887039657207806,-3.332180280652134E-4,-0.0010616655713622612,-1.9282600043723773E-4,406360.89434435125,2.4327100745742008E-12,954.3351947009967,-0.9188925911355992,-8.11708991860599,2.892138739083542
4020.0,6387459.271258487,1225973.2798908805,-1933176.215875098,430675.8365760715,6489600.116665907,-1933759.384250505,-4828.133000232177,2035.1879261764693,5573.53909167472,-0.549525558700189,-8.280476467413173,2.4674015019514393,6759053.075823877,1.3164624856213492,-0.4133559870850606,-0.07795404446226646,0.2499470109201124,-1.6852424924468372,-0.6124251744093056,2.9655143006372,-3.414348196806401E-4,-0.0010588039535456956,-1.9467014050919367E-4,408870.67741470423,2.291746719840322E-12,951.4996109192421,-0.549525558700189,-8.280476467413173,2.4674015019514393
4080.0,6424080.545809313,1506250.6317974662,-1594804.1733504909,140221.11306410833,6596725.564921009,-1595165.2067233517,-4849.982355613924,1534.4062308805585,5708.5855531572715,-0.17867685770841576,-8.405882461979658,2.0326404521750847,6759053.075823887,1.3208377548688435,-0.4180132224327426,-0.07533493638642094,0.26355821554050635,-1.7514081377342765,-0.6147107222009239,3.0443801466967217,-3.496832751351587E-4,-0.001055862786743436,-1.9645777333124326E-4,411347.2290942196,2.1632548796883176E-12,948.9887956042614,-0.17867685770841576,-8.405882461979658,2.0326404521750847
4140.0,6433788.05407998,1779447.3330448053,-1249118.6965896531,-150876.89627660107,6673601.337715789,-1249255.939141492,-4849.577493100573,1027.2487362676386,5817.294911874505,0.1920089582700564,-8.492958646334406,1.5898281142229338,6759053.075823682,1.325213024116306,-0.4222612710919993,-0.07282618281253164,0.2772561906978172,-1.8179895545386733,-0.612853562023143,3.123083050361013,-3.5795981057651377E-4,-0.0010528421999114936,-1.981880047837682E-4,413786.7765865654,2.0462341662388683E-12,946.7969412983059,0.1920089582700564,-8.492958646334406,1.5898281142229338
4200.0,6416508.826861167,2044562.0812218674,-897712.287361142,-441284.2104644821,6719914.016339017,-897625.1103004534,-4826.97707905422,516.0216033183922,5899.243598288233,0.5609056555253242,-8.541519698701793,1.1409495036750026,6759053.075823838,1.3295882933637686,-0.42610036401848345,-0.07043879446143328,0.2910175920021241,-1.8844026270581575,-0.6068722484251741,-3.0821205816273918,-3.662608267481291E-4,-0.0010497424195378832,-1.9985996915009163E-4,416184.35941432905,1.939772905382527E-12,944.9143415744516,0.5609056555253242,-8.541519698701793,1.1409495036750026
4260.0,6372282.345757895,2300633.098789662,-542199.2843206321,-729673.282126751,6735488.788250376,-541888.086163505,-4782.336660239822,3.037266757031268,5954.127323590865,0.9264110441093658,-8.551541290813004,0.6879943667801102,6759053.075823893,1.3339635626111994,-0.42953243490661847,-0.06818331234271513,0.304818968588118,-1.9500908507103538,-0.5968396769656331,-3.005393042189857,-3.745827126402276E-4,-0.0010465637707797826,-2.0147283039447937E-4,418533.7473252822,1.8430412017895423E-12,943.3272344066083,0.9264110441093658,-8.551541290813004,0.6879943667801102
4320.0,6301260.139551547,2546741.091177147,-184208.70662908335,-1014728.7637760623,6720289.535664485,-183674.90899203453,-4715.907058667397,-509.3951262683894,5981.761140000525,1.2869523356007118,-8.523156751418444,0.23294979067993912,6759053.07582388,1.3383388318585985,-0.4325610709733429,-0.06606969182110997,0.3186368264960035,-2.014551357888683,-0.5828783421074906,-2.9304009603131487,-3.829218492093648E-4,-0.0010433066784114233,-2.030257833998407E-4,420827.3913172963,1.7552846435063751E-12,942.0177470792405,1.2869523356007118,-8.523156751418444,0.23294979067993912
4380.0,6203704.963961367,2782011.994150704,174622.8930274314,-1295153.1683474183,6674418.3566679135,175376.85406171952,-4628.032455609622,-1018.9790671550028,5982.079068731428,1.6409911488637414,-8.456653401914656,-0.22220681867154385,6759053.075824094,1.3427141011059978,-0.4351914536959349,-0.06410719042406199,0.3324476941966813,-2.0773547249529885,-0.5651529478678726,-2.857554106747459,-3.912746131566884E-4,-0.0010399716675780445,-2.0451805516109688E-4,423056.4090249157,1.6758864449790103E-12,940.972141815787,1.6409911488637414,-8.456653401914656,-0.22220681867154385
4440.0,6079989.5749838445,3005619.5101206596,532658.5407483414,-1569672.4059689867,6598114.5320413,533629.2276171459,-4519.1481853867635,-1523.4398086756828,5955.133317449662,1.987028182071989,-8.3524686258413,-0.6755144003426699,6759053.0758241955,1.347089370353365,-0.43743029022246965,-0.06230426076307748,0.3462281906189553,-2.1381569435850727,-0.5438613317204916,-2.7871785914619345,-3.996373807548352E-4,-0.0010365593643525124,-2.0594890593012442E-4,425210.60501469707,1.604402444187544E-12,940.1874533951457,1.987028182071989,-8.3524686258413,-0.6755144003426699
4500.0,5930595.106413145,3216787.433959251,888267.8950790464,-1837041.1801410117,6491752.95192276,889450.8859887067,-4389.778258308781,-2020.533245386359,5901.093108281103,2.323607572610916,-8.211185727175218,-1.1250345591001965,6759053.075824286,1.3514646396007006,-0.43928573625314593,-0.06066844987567826,0.3599550959429073,-2.1967034017481755,-0.5192247481858147,-2.7195127627825104,-4.080065317132327E-4,-0.0010330704960913146,-2.0731763030846674E-4,427278.52584625484,1.5404317403155733E-12,939.6577813145252,2.323607572610916,-8.211185727175218,-1.1250345591001965
4560.0,5756109.062426596,3414791.7696803594,1239834.2192736196,-2096048.2276201253,6355842.01720533,1241224.1296099485,-4240.532630787761,-2508.05454040479,5820.243136387866,2.6493209690436896,-8.033529625045803,-1.568857562782477,6759053.075824229,1.3558399088480522,-0.4407673113018303,-0.059206306204614846,0.3736054253126861,-2.252825932678507,-0.4914784502004804,-2.6547100555627674,-4.163784530710269E-4,-0.0010295058915878678,-2.0862355828408358E-4,429247.54907343164,1.4836045638653903E-12,939.3729071240507,2.6493209690436896,-8.033529625045803,-1.568857562782477
4620.0,5557222.936302299,3598962.63996885,1585761.25057398,-2345521.3873418123,6191021.031157181,1587351.7583602776,-4072.1042391241153,-2983.8464899829196,5712.981677817247,2.9628113411140977,-7.820362424823756,-2.0051080401092354,6759053.075824405,1.360215178095356,-0.441885807312603,-0.05792329533434538,0.38715650549959346,-2.306434721474042,-0.46086327006967576,-2.5928469977191,-4.247495431068635E-4,-0.0010258664810211386,-2.0986605620860836E-4,431104.00471905834,1.4335824532724483E-12,939.3183205085672,2.9628113411140977,-7.820362424823756,-2.0051080401092354
4680.0,5334729.4664271725,3768685.9910522494,1924479.9459969576,-2584332.4846572364,5998057.097198895,1926263.8212746456,-3885.2658118776453,-3445.80761945785,5579.818363804698,3.2627765548084073,-7.572678897676109,-2.4319504056631276,6759053.075824359,1.3645904473426438,-0.4426531916866298,-0.056823725484216166,0.40058605441900225,-2.3575070757637606,-0.4276186189213328,-2.5339343678619755,-4.3311621525435806E-4,-0.0010221532956987997,-2.1104452771179144E-4,432833.32715479494,1.3900535232003685E-12,939.47458270639,3.2627765548084073,-7.572678897676109,-2.4319504056631276
4740.0,5089519.5407818295,3923405.0957915788,2254455.0851008166,-2811402.0180059043,5777841.539103819,2256424.2230970436,-3680.866474099064,-3891.900005854378,5421.371637047372,3.5479727398261245,-7.291601892750835,-2.8475940408942395,6759053.075824054,1.3689657165913447,-0.44308250580699454,-0.055910683642091334,0.41387226327642274,-2.4060748848040303,-0.3919770616647812,-2.477929679164609,-4.4147490201211156E-4,-0.0010183674675946345,-2.1215841455001454E-4,434420.2347724692,1.352707610701575E-12,939.8137194363663,3.5479727398261245,-7.291601892750835,-2.8475940408942395
4800.0,4822578.7610391,4062621.85818163,2574191.711081193,-3025703.635893196,5531385.860133093,2576337.1690176884,-3459.828155064213,-4320.156823623725,5238.365903684676,3.817217476453953,-6.978377698276209,-3.250298261253556,6759053.075823739,1.373340985838585,-0.4431877602179246,-0.05518598307190281,0.42699388098658086,-2.4522121844970948,-0.354160423227343,-2.4247495718096794,-4.4982205883698043E-4,-0.0010145102286806724,-2.1320719738597433E-4,435848.93435446994,1.32129830740479E-12,940.3080378875134,3.817217476453953,-6.978377698276209,-3.250298261253556
4860.0,4534983.677493397,4185897.922460792,2882241.3923148657,-3226268.3926917952,5259817.257802238,2884553.429702747,-3223.1418095602803,-4728.6896107493,5031.628392904211,4.069392827839286,-6.634371360154371,-3.638377099977662,6759053.075823743,1.3777162550858253,-0.4429838276016291,-0.05465012279825565,0.43993030039574127,-2.4960237740936573,-0.31437725335371164,-2.3742811683759064,-4.5815416800922736E-4,-0.0010105829100552645,-2.1419039649692E-4,437103.3466412708,1.2962131319769972E-12,941.0163137098566,4.069392827839286,-6.634371360154371,-3.638377099977662
4920.0,4227897.705814346,4292855.590357701,3177208.2871297947,-3412188.772344091,4964373.711132729,3179676.4093858646,-2971.8634612588394,-5115.6952527390895,4802.085734264945,4.30344824205761,-6.26106195918776,-4.0102039386535395,6759053.075823771,1.3820915243330338,-0.4424863347147351,-0.05430225951498144,0.4526616457241011,-2.537635402430081,-0.2728214143655501,-2.326391874821661,-4.6646774245835183E-4,-0.0010065869408690488,-2.1510757240906318E-4,438167.34926234983,1.277870280792972E-12,941.9985528950327,4.30344824205761,-6.26106195918776,-4.0102039386535395
4980.0,3902566.736804917,4383178.549715382,3457754.9951317245,-3582622.469511366,4646398.657391973,3460368.0003430243,-2707.1100753090986,-5479.462681879642,4550.760261055758,4.518403346209721,-5.860037841008589,-4.364216013528065,6759053.075823786,1.3864667935802266,-0.44171155441431004,-0.054140192210067564,0.46516886055268236,-2.577185710261357,-0.22967154255223252,-2.2809374414146606,-4.747593295382578E-4,-0.0010025238470514808,-2.1595832645605775E-4,439025.0329392478,1.2666578325907016E-12,943.3036693291094,4.518403346209721,-5.860037841008589,-4.364216013528065
5040.0,3560314.4502635654,4456612.417799741,3722608.178864783,-3736795.918104593,4307335.275497591,3725354.2075196463,-2430.0552660277804,-5818.379288569127,4278.766046320208,4.7133506521135144,-5.432991786165258,-4.698918824625805,6759053.075823852,1.3908420628273876,-0.44067629886574683,-0.05416035965161589,0.47743379559925453,-2.6148198912728726,-0.18509115136025922,-2.2377683224189266,-4.8302551474081827E-4,-9.983952498413596E-4,-2.167423012597225E-4,439660.9666882938,1.263001830414731E-12,944.9761869275347,4.7133506521135144,-5.432991786165258,-4.698918824625805
5100.0,3202537.34419005,4512965.102385896,3970563.9399343547,-3874007.5574521204,3948720.3934797877,3973430.527429984,-2141.924844480261,-6130.9370406082835,3987.3046766305333,4.887458190018502,-4.981716101735921,-5.01289047214184,6759053.075823899,1.3952173320745327,-0.4393978149557149,-0.05435785072306633,0.4894392954688014,-2.650684904027175,-0.13922917814292396,-2.1967345042566784,-4.912629253368271E-4,-9.942028641253778E-4,-2.174591811315142E-4,440060.46764372924,1.2674058823558082E-12,947.0588969426404,4.887458190018502,-4.981716101735921,-5.01289047214184
5160.0,2830699.490744134,4552106.983515438,4200492.933982627,-3993630.8266182016,3572178.037678662,4203467.065711129,-1843.9922098670013,-6415.73830504491,3677.6607673206317,5.039972083220084,-4.508097610373723,-5.304785941333199,6759053.075823988,1.399592601321678,-0.4378936828507317,-0.054726427449103644,0.5011692835233046,-2.6849260073158705,-0.0922208151308623,-2.1576890323676925,-4.994682339337041E-4,-9.899484965894575E-4,-2.18108692393499E-4,440209.87108072237,1.2804856920575643E-12,949.594528192278,5.039972083220084,-4.508097610373723,-5.304785941333199
5220.0,2446327.03063987,4573970.918571495,4411345.209094174,-4095116.877602339,3179412.6417248216,4414413.37790108,-1537.5735879716776,-6671.50136557188,3351.197221725422,5.17021907253056,-4.014112507898658,-5.5733413532805445,6759053.075823945,1.4039678705687753,-0.4361817185388842,-0.05525856041031233,0.5126088439972469,-2.7176843787376868,-0.04418850285262181,-2.12049048054271,-5.07638161939676E-4,-9.856340436884081E-4,-2.1869060361793508E-4,440096.7962432358,1.3030032903819803E-12,952.6268961839821,5.17021907253056,-4.014112507898658,-5.5733413532805445
5280.0,2051002.4180389848,4578552.073042868,4602154.7523325775,-4177996.998328337,2772201.9338259865,4605303.018134107,-1224.0231195164354,-6897.065626624058,3009.3502360623906,5.277608995331153,-3.5018210565226138,-5.81737819449247,6759053.075823957,1.4083431398158728,-0.43427988106904736,-0.05594547611441424,0.5237443004751232,-2.7490955915608937,0.004757002931988846,-2.0850045924150398,-5.15769482924223E-4,-9.812614894399452E-4,-2.1920472578486095E-4,439710.4036603163,1.335902102216302E-12,956.2014923587328,5.277608995331153,-3.5018210565226138,-5.81737819449247
5340.0,1646358.4284996616,4565907.579067634,4772043.729186911,-4241884.736499511,2352389.521474657,4775257.78052452,-904.7278011189376,-7091.396493239998,2653.624050956968,5.3616372194367585,-2.973362077574924,-6.035807533420511,6759053.075823996,1.4127184090629386,-0.4322061850737328,-0.05677721576369596,0.5345632898725021,-2.779288754146379,0.05451555288020144,-2.0511052970864805,-5.238590258653444E-4,-9.768329030496671E-4,-2.1965091235741553E-4,439041.63976687915,1.3803419322245444E-12,960.3652219770015,5.3616372194367585,-2.973362077574924,-6.035807533420511
5400.0,1234071.9431671335,4536156.023556038,4920226.400754765,-4286477.715559285,1921877.193414408,4923491.618058002,-581.1022816730259,-7253.589913515967,2285.5854502874786,5.421887027311018,-2.4309472052624206,-6.227634226611208,6759053.075824127,1.4170936783099726,-0.4299786190136513,-0.05774270474683011,0.5450548310885567,-2.808386150355713,0.10499655547902383,-2.018675268679402,-5.319036782742695E-4,-9.723504363743905E-4,-2.2002905927489833E-4,438083.4648197321,1.4377308401965782E-12,965.1648209023508,5.421887027311018,-2.4309472052624206,-6.227634226611208
5460.0,815857.5231461327,4489476.767420813,5046012.703529297,-4311559.134176348,1482616.9595639135,5049314.223850441,-254.58351738601107,-7382.876568120879,1906.858008031941,5.458031941329488,-1.8768548616004366,-6.3919611114993495,6759053.075824106,1.4214689475570224,-0.42761506944223554,-0.05882983208212555,0.5552093875407141,-2.836503253209916,0.15611798374980163,-1.9876061683996995,-5.399003891890224E-4,-9.678163212314645E-4,-2.2033910486396845E-4,436831.06031589257,1.5097484965398716E-12,970.6434095101006,5.458031941329488,-1.8768548616004366,-6.3919611114993495
5520.0,393460.7888888699,4426109.097192169,5148811.476704985,-4316998.940888409,1036602.8506001921,5152134.259681634,73.37471058816152,-7478.625688935954,1519.1160841580433,5.4698379758820606,-1.3134239122499456,-6.527993176817894,6759053.075823978,1.4258442168040246,-0.42513325141934755,-0.060025538958133395,0.5650189228566009,-2.8637490149510603,0.2078054514599129,-1.9577986803329863,-5.478461720284523E-4,-9.632328665624463E-4,-2.205810296685767E-4,435282.0123683869,1.5983535721047786E-12,976.8348001184846,5.4698379758820606,-1.3134239122499456,-6.527993176817894
5580.0,-31348.37953246109,4346351.210078021,5228133.322001093,-4302754.675801915,585862.5000525602,5231462.216795709,401.3074109811668,-7540.348486477452,1124.0785713265916,5.457165797184559,-0.7430469636394059,-6.635041695339073,6759053.0758238835,1.430219486051027,-0.4225506450782884,-0.06131591543283775,0.5744769490582362,-2.8902263637741945,0.2599913651169812,-1.9291624299457917,-5.557381072992402E-4,-9.586024554599316E-4,-2.207548561996457E-4,433436.46777666936,1.7057674998270493E-12,983.7557165550049,5.457165797184559,-0.7430469636394059,-6.635041695339073
5640.0,-456782.8042410772,4250559.033364162,5283593.081138474,-4268871.971580278,132448.53304878346,5286912.894096886,727.744123475008,-7567.701163431749,723.5023952863551,5.419972766824223,-0.16816326348257282,-6.712528297251625,6759053.075823932,1.4345947552979816,-0.41988443819086424,-0.06268630430181735,0.5835785666484536,-2.9160328609179453,0.3126141526632682,-1.9016158575050857,-5.635733451485759E-4,-9.539275420665189E-4,-2.2086064860575062E-4,431297.2598390536,1.834430520558392E-12,991.3970565136963,5.419972766824223,-0.16816326348257282,-6.712528297251625
5700.0,-881045.1151290983,4139144.8789353063,5314911.916320025,-4215484.706371931,-321570.21271778387,5318207.4790841695,1051.21477818615,-7560.487489439002,319.1757733351732,5.358314840370262,0.4087488303355019,-6.759988956019849,6759053.075823644,1.4389700245449362,-0.4171514744480415,-0.0641214110971497,0.5923204960907277,-2.9412614923927647,0.3656175662903226,-1.8750861074121283,-5.713491077562577E-4,-9.492106483555691E-4,-2.208985122663593E-4,428870.00129148335,1.9869343113690078E-12,999.7164603614342,5.358314840370262,0.4087488303355019,-6.759988956019849
5760.0,-1302334.9794518424,4012575.933655293,5321918.979383696,-4142814.801853751,-774117.6066788724,5325175.217187612,1370.2556639007164,-7518.66091027415,-87.08876289649827,5.272348287920234,0.9851798435199131,-6.777077852152926,6759053.075823699,1.443345293791875,-0.4143682070618585,-0.06560541914303636,0.6007011002504359,-2.966001588586051,0.41895005460734314,-1.8495089887878777,-5.790626915601446E-4,-9.444543608034266E-4,-2.208685933094465E-4,426163.14212540933,2.165946497734233E-12,1008.6350673771651,5.272348287920234,0.9851798435199131,-6.777077852152926
5820.0,-1718856.4341770136,3871372.5863747676,5304552.655735003,-4051171.6602064474,-1223119.2569543906,5307754.655607069,1683.4154932788829,-7442.326162861031,-493.461571820347,5.162331199332995,1.5585976676087998,-6.763571074065273,6759053.075824021,1.447720563038782,-0.4115506571885559,-0.06712210857526933,0.608720397452866,-2.990339883905929,0.47256419810679295,-1.8248290628843367,-5.86711469309965E-4,-9.396613269633482E-4,-2.2077107805561314E-4,423187.99042988353,2.374149657232992E-12,1018.0406696114369,5.162331199332995,1.5585976676087998,-6.763571074065273
5880.0,-2128825.2982120365,3716106.592450871,5262861.369756717,-3940951.2346156607,-1666511.6232459864,5265994.448345845,1989.2615508985668,-7331.740366193431,-898.1033222737148,5.028624733194431,2.1264565501856683,-6.719370109231762,6759053.075824087,1.4520958322856732,-0.4087143765941217,-0.06865497822483595,0.6163800648946254,-3.0143617496388013,0.5264162011339003,-1.800999919937129,-5.94292891944712E-4,-9.348342519513226E-4,-2.2060619239109292E-4,419958.69483192574,2.6142139042734124E-12,1027.7973692844455,5.028624733194431,2.1264565501856683,-6.719370109231762
5940.0,-2530476.6399444286,3547399.0768687516,5197003.939147623,-3812634.728815785,-2102251.178692734,5200053.709886314,2286.385907452995,-7187.313557284397,-1299.1726157854632,4.871694065394819,2.686206605054899,-6.64450507328196,6759053.0758242365,1.4564711015325642,-0.4058744139309832,-0.07018736926307093,0.6236834322311439,-3.0381526592395915,0.5804654331203987,-1.7779847238341535,-6.018044902901088E-4,-9.299758948541718E-4,-2.20374201072192E-4,416492.18756634294,2.8888065224769878E-12,1037.759276662041,4.871694065394819,2.686206605054899,-6.64450507328196
6000.0,-2922072.2737922794,3365918.3773565674,5107249.466586866,-3666786.922275765,-2528323.5864513298,5110201.905900136,2573.41168068983,-7009.608640796336,-1694.8337933028738,4.692108990654929,3.235303845774166,-6.539137619661423,6759053.075824412,1.4608463707794237,-0.40304528395628564,-0.07170258952072597,0.6306354652453342,-3.061799980710661,0.6346740114681924,-1.7557571309590037,-6.092438765727605E-4,-9.250890650706683E-4,-2.2007540696406658E-4,412808.0876995054,3.200622277422242E-12,1047.7843030534368,4.692108990654929,3.235303845774166,-6.539137619661423
6060.0,-3301908.257699931,3172377.7292871987,4993976.758269475,-3504054.118875288,-2942752.854881832,4996818.270535563,2848.999320821952,-6799.340721091229,-2083.2649053824875,4.490544128532317,3.77122073629755,-6.403563468163173,6759053.07582466,1.4652216400262512,-0.40024093901448127,-0.07318403741956725,0.6372427395840206,-3.0853952425188846,0.6890064179377486,-1.7343027360394074,-6.166087457485875E-4,-9.20176618596132E-4,-2.197101502168315E-4,408928.56455848686,3.5524056255912836E-12,1057.744564607534,4.490544128532317,3.77122073629755,-6.403563468163173
6120.0,-3668322.361755136,2967532.794669577,4857673.260234386,-3325161.7183453054,-3343610.433361673,4860390.741201188,3111.852895197799,-6557.375786120274,-2462.665821036068,4.267778684458783,4.291457241885966,-6.238214487132251,6759053.075824857,1.4695969092745076,-0.39747474212446526,-0.0746153244753226,0.6435134046387365,-3.1090370992474905,0.7434291394217049,-1.7136212738588674,-6.238968766439256E-4,-9.152414542611722E-4,-2.1927880738225634E-4,404878.16198429686,3.946936842126304E-12,1067.5317890646631,4.267778684458783,4.291457241885966,-6.238214487132251
