time,gePosition_m_X,gePosition_m_Y,gePosition_m_Z,eiPosition_m_X,eiPosition_m_Y,eiPosition_m_Z,eiVelocity_m_s_X,eiVelocity_m_s_Y,eiVelocity_m_s_Z,eiAccel_m_s2_X,eiAccel_m_s2_Y,eiAccel_m_s2_Z,semiMajorAxis_m,gast_rad,eulerAngle_rad_Roll,eulerAngle_rad_Pitch,eulerAngle_rad_Yaw,eulerAngleWrtEi_rad_Roll,eulerAngleWrtEi_rad_Pitch,eulerAngleWrtEi_rad_Yaw,bodyAngularRateWrtEi_rad_s_Roll,bodyAngularRateWrtEi_rad_s_Pitch,bodyAngularRateWrtEi_rad_s_Yaw,altitudeMsl_m,airDensity_kg_m3,ambientTemperature_dgK,eiGravitation_m_s2_X,eiGravitation_m_s2_Y,eiGravitation_m_s2_Z
0.0,0.0222699278965592,0.232418889179826,-0.182200541719794,-8.3819032E-9,5.820766E-10,-7.4505806E-9,6.55973E-11,1.346052E-10,8.50378E-11,-3.4918486E-9,-3.293612E-9,-1.0599486E-9,-2.132728696E-7,1.10454482E-7,0.0,3.2313423E-9,1.0E-16,-4.4357771E-9,4.7578317E-9,-4.795619E-9,0.0,3.08759E-11,0.0,-1.77753545384621,-1.782E-12,-14.8203623389063,-3.4918486E-9,-3.293612E-9,-1.0599486E-9
60.0,0.0173560939729214,0.241297164931893,-0.175657429732382,-1.02445483E-8,-1.501000952E-6,2.12341547E-7,-3.7123868E-9,-2.19406502E-8,2.6500402E-9,-1.9893553E-9,4.7247568E-9,-3.1548346E-9,3.35155054927E-5,1.11041667E-7,5.0061794E-9,3.8280323E-9,-1.2314804E-9,-1.7563648E-9,2.1112327E-9,-3.1530791E-9,-1.0318238E-9,3.2661293E-9,2.0060674E-9,-1.83059997967212,-1.7272E-12,-1.10012757531251,-1.9893553E-9,4.7247568E-9,-3.1548346E-9
120.0,0.0126036121509969,0.248889179434627,-0.168268423527479,1.080334187E-7,-3.0173105188E-6,4.768371582E-7,-1.325589E-10,-2.31075319E-8,6.5608674E-9,-4.422258E-10,-2.8612961E-9,2.6391822E-9,3.37520614266E-5,1.016288529E-7,2.5708918E-9,5.85316E-10,2.5418881E-9,2.3663631E-9,-2.2645227E-9,2.704172E-9,1.2796172E-9,8.984525E-10,3.0960665E-9,-1.86773961322615,-1.8587E-12,-1.12820176312505,-4.422258E-10,-2.8612961E-9,2.6391822E-9
180.0,0.0080327750183642,0.255158862099051,-0.160063696093857,2.440065145E-7,-4.5149936341E-6,5.913898349E-7,2.319211E-10,-2.20106813E-8,1.1041834E-9,6.990817E-10,1.0544048E-9,-2.049783E-10,3.35974618793E-5,1.022160481E-7,-1.1519536E-9,-6.56596E-10,-3.1243781E-9,1.2461978E-9,-7.315057E-10,-4.952504E-9,-3.2510511E-9,2.4822178E-9,2.5565903E-9,-1.88826177769806,-2.0149E-12,-1.16083742843796,6.990817E-10,1.0544048E-9,-2.049783E-10
240.0,0.0036621056497097,0.260076675564051,-0.151077116839588,4.828907549E-7,-5.9901503846E-6,5.578622222E-7,4.8839865E-9,-1.30830813E-8,4.4794888E-9,4.6515529E-9,4.97853E-9,-1.688019E-10,3.35592776537E-5,1.02803233E-7,6.2580697E-9,2.097527E-10,-4.0878978E-9,7.3153741E-9,4.458081E-9,3.2456688E-9,-4.8441338E-9,-2.4860671E-9,-3.320397E-10,-1.89176411688095,-2.1986E-12,-1.19714385578106,4.6515529E-9,4.97853E-9,-1.688019E-10
300.0,-4.919092170894E-4,0.263619936071336,-0.141346347518265,7.4878335E-7,-7.4259005487E-6,4.973262548E-7,7.4480795E-9,-1.79043127E-8,4.3623913E-9,3.5942271E-9,1.5175021E-9,1.0259829E-9,3.3451244235E-5,1.033904189E-7,7.3205504E-9,2.9639172E-9,-1.0893826E-9,7.4433939E-9,-2.8202935E-9,-1.7161161E-9,-3.7553673E-9,-4.5671957E-9,3.7036877E-9,-1.87814269901719,-2.4127E-12,-1.23565181109393,3.5942271E-9,1.5175021E-9,1.0259829E-9
360.0,-0.0044145043939352,0.265773139428347,-0.130912702530622,1.0221265256E-6,-8.8359229267E-6,5.681067705E-7,4.0049599E-9,-1.82844815E-8,-2.1177584E-9,-2.4876057E-9,-4.879008E-10,-1.0830856E-9,3.38107347488E-5,1.039776139E-7,6.6166431E-9,-3.762854E-10,4.3633546E-9,6.0268848E-9,-5.4391797E-9,-4.741127E-9,-2.764825E-10,-4.3786261E-9,3.9299424E-9,-1.84759598312667,-2.6601E-12,-1.27450836437492,-2.4876057E-9,-4.879008E-10,-1.0830856E-9
420.0,-0.0080932192504406,0.266527452040464,-0.119821491651237,1.3271346688E-6,-1.01691111922E-5,4.637986422E-7,4.8949005E-9,-1.44091246E-8,-3.2521257E-9,1.1918546E-9,4.9968452E-9,-4.6641295E-9,3.38386744261E-5,1.04564799E-7,1.12389045E-8,3.388769E-9,1.5602475E-9,1.46760057E-8,3.1969548E-9,-1.0652921E-9,-4.7358256E-9,-2.593774E-9,-3.949693E-10,-1.8006243975251,-2.9435E-12,-1.31210838718789,1.1918546E-9,4.9968452E-9,-4.6641295E-9
480.0,-0.0115173552185297,0.265881587052718,-0.108121057040989,1.6638077796E-6,-1.14501453936E-5,2.412125468E-7,1.3387762E-9,-1.00808393E-8,-2.2189397E-9,-3.6124712E-9,-8.441527E-10,-2.1794486E-9,3.39057296515E-5,1.05151984E-7,2.01495317E-8,3.2336672E-9,-5.869129E-10,1.7051546E-8,-3.8260006E-9,2.5093452E-9,2.5009626E-9,5.87692E-11,-2.11153E-11,-1.7380241396022,-3.266E-12,-1.34643392031194,-3.6124712E-9,-8.441527E-10,-2.1794486E-9
540.0,-0.0146784372627735,0.263841202948242,-0.0958628440275788,2.0111910999E-6,-1.26711092889E-5,6.89178705E-8,1.9631443E-9,-1.71448846E-8,-2.451088E-10,-2.1363959E-9,1.2571677E-9,-2.9523397E-9,3.41814011335E-5,1.057391799E-7,2.29322274E-8,3.4964365E-9,2.29939E-9,2.60658912E-8,1.0564974E-9,4.040976E-9,1.0302132E-9,2.7960906E-9,4.2925643E-9,-1.66087695391616,-3.6305E-12,-1.37632997156197,-2.1363959E-9,1.2571677E-9,-2.9523397E-9
600.0,-0.0175699451938272,0.260419216006994,-0.0831015361472964,2.367887646E-6,-1.38129107654E-5,-1.462176442E-7,5.3441909E-9,-1.45637387E-8,1.3528734E-9,2.8262113E-9,-4.7085145E-9,-3.4064334E-9,3.42391431332E-5,1.06326377E-7,2.84862499E-8,-2.1023785E-9,2.6403727E-9,2.81378276E-8,-1.7853773E-9,-2.0827899E-9,4.094424E-10,4.7818862E-9,1.7777731E-9,-1.57053494511638,-4.0402E-12,-1.40033499937499,2.8262113E-9,-4.7085145E-9,-3.4064334E-9
660.0,-0.0201873863115907,0.255635833600536,-0.0698944581672549,2.6780180633E-6,-1.48806720972E-5,-3.892928362E-7,7.0758688E-9,-1.11867848E-8,-2.0481821E-9,3.1471137E-9,5.917684E-10,-3.0064582E-9,3.44775617123E-5,1.069135609E-7,4.42712047E-8,7.5298617E-9,-1.142497E-10,3.53441401E-8,-6.8723122E-9,-6.97408E-11,1.56515E-10,-4.8725333E-9,1.6563923E-9,-1.46859985706396,-4.498E-12,-1.41740908499992,3.1471137E-9,5.917684E-10,-3.0064582E-9
720.0,-0.0225274944677949,0.249525281484239,-0.0563014466315508,3.0118972063E-6,-1.5938654542E-5,-6.23986125E-7,4.8212314E-9,-1.11404006E-8,1.3369572E-9,-1.3741639E-9,-1.0838033E-9,4.8753774E-9,3.45883890986E-5,1.075007459E-7,4.67658781E-8,2.4757594E-9,-4.457745E-9,4.73213677E-8,-2.2200141E-9,2.40904E-11,-2.512396E-10,2.8928399E-9,3.1400306E-9,-1.35689762415132,-5.0068E-12,-1.42713498624994,-1.3741639E-9,-1.0838033E-9,4.8753774E-9
780.0,-0.0245917160063982,0.242107784200925,-0.0423845741897821,3.3448450267E-6,-1.68904662132E-5,-8.018687367E-7,-2.5420377E-9,-1.36906237E-8,-1.2209966E-9,-2.7200708E-9,3.1470124E-9,-1.9740298E-9,3.4773722291E-5,1.08087943E-7,6.3851562E-8,6.8411679E-9,-6.1470615E-9,5.53845827E-8,-4.9376893E-9,1.327282E-9,-1.3779551E-9,-2.9121287E-9,-4.5704036E-9,-1.23744826152688,-5.569E-12,-1.42895461593798,-2.7200708E-9,3.1470124E-9,-1.9740298E-9
840.0,-0.0263801701366901,0.233431189204566,-0.0282080620527267,3.6437995732E-6,-1.77742913365E-5,-9.792856872E-7,-2.8680915E-9,-1.33159119E-8,-3.59978E-9,-4.7653144E-9,-4.3198805E-9,-1.2768018E-9,3.48696485162E-5,1.086751269E-7,6.98683321E-8,7.12923E-9,-2.289319E-9,7.06058509E-8,-4.5199111E-9,-3.2408207E-9,-3.8301977E-9,-3.3264767E-9,-2.2851103E-9,-1.11243121238658,-6.1865E-12,-1.42317192499991,-4.7653144E-9,-4.3198805E-9,-1.2768018E-9
900.0,-0.0278959823772311,0.223543494415935,-0.0138376769609749,3.9399601519E-6,-1.85947865248E-5,-1.1078082025E-6,5.0795279E-9,-1.26647137E-8,3.0195224E-9,4.1640549E-9,-2.4960887E-9,6.344631E-10,3.48491594195E-5,9.92623119E-8,8.4119732E-8,4.0251715E-9,-1.06278566E-8,8.6223698E-8,-1.05135627E-8,-3.9696904E-9,1.7420273E-9,5.631744E-10,-8.25781E-10,-0.984146784234326,-6.86E-12,-1.4095738312501,4.1640549E-9,-2.4960887E-9,6.344631E-10
960.0,-0.0291442442685366,0.212498838896863,6.593433208764E-4,4.1690655053E-6,-1.94599851966E-5,-1.1539086699E-6,-2.901288E-10,-9.7279553E-9,7.0785973E-9,-1.599592E-9,1.6217827E-9,-8.776784E-10,3.51257622242E-5,9.98495089E-8,1.036162029E-7,7.8098933E-9,-1.44733308E-8,1.055601979E-7,-1.60054551E-8,-8.721933E-10,4.6442357E-9,-2.3759811E-9,-1.0259572E-9,-0.854974299785681,-7.589E-12,-1.38910471812505,-1.599592E-9,1.6217827E-9,-8.776784E-10
1020.0,-0.0301315411925316,0.200357555877417,0.0152145582251251,4.3739564717E-6,-2.03894451261E-5,-1.2167729437E-6,-2.0272637E-9,-1.4635134E-8,6.0736056E-9,-3.2059941E-9,-3.4373553E-9,9.559908E-10,3.54172661901E-5,1.004366932E-7,1.208494589E-7,7.7687825E-9,-1.37319991E-8,1.201226509E-7,-1.51448908E-8,-2.0455473E-9,4.1363932E-9,-3.3214521E-9,-3.7313612E-9,-0.72732816246571,-8.3717E-12,-1.36280229843806,-3.2059941E-9,-3.4373553E-9,9.559908E-10
1080.0,-0.0308659393340349,0.187186351045966,0.0297589120455086,4.5178458095E-6,-2.11903825402E-5,-1.2251548469E-6,-4.9503797E-9,-1.55282578E-8,3.5724952E-9,-3.793315E-9,-3.062639E-9,-2.7813458E-9,3.53753566742E-5,1.010238779E-7,1.373783135E-7,6.1076233E-9,-1.24861189E-8,1.398609317E-7,-2.17660336E-8,-3.1740515E-9,-5.681803E-10,-3.493887E-9,1.998013E-10,-0.603612028295174,-9.204E-12,-1.33109755062492,-3.793315E-9,-3.062639E-9,-2.7813458E-9
1140.0,-0.0313573945313692,0.173057091189548,0.0442228247411549,4.637055099E-6,-2.21636146307E-5,-1.1730007827E-6,-2.3665052E-9,-8.1790859E-9,1.02600097E-8,4.2430619E-9,-1.9861019E-9,2.6001672E-9,3.56249511242E-5,1.016110749E-7,1.639813916E-7,7.0265508E-9,-2.35817154E-8,1.59431548E-7,-2.69231276E-8,-4.1366257E-9,-3.039288E-10,-4.1554274E-9,-1.034301E-10,-0.486171831027605,-1.00797E-11,-1.29562942250004,4.2430619E-9,-1.9861019E-9,2.6001672E-9
1200.0,-0.0316167064011097,0.158047224860638,0.058536674361676,4.6907225624E-6,-2.30148434639E-5,-1.0076910257E-6,-1.1050361E-9,-1.23191057E-8,7.7825462E-9,-1.4335582E-9,-2.240732E-10,-4.7929261E-9,3.56175005436E-5,1.021982592E-7,1.880939E-7,1.17324923E-8,-2.06780107E-8,1.71895653E-7,-2.9444975E-8,9.79496E-11,4.0458042E-9,3.3920225E-9,4.4749904E-9,-0.377250698918942,-1.09902E-11,-1.25741226624996,-1.4335582E-9,-2.240732E-10,-4.7929261E-9
1260.0,-0.0316564766690135,0.142238896805793,0.072630921844393,4.6973000281E-6,-2.40206718445E-5,-7.869675756E-7,-4.7321009E-9,-2.04099706E-8,6.2073013E-9,-9.405688E-10,2.5836986E-9,3.3937759E-9,3.56966629624E-5,1.027854439E-7,2.0919517E-7,1.028705E-8,-2.82123457E-8,1.977818451E-7,-2.98064021E-8,-5.4003334E-9,1.5476286E-9,-2.1913904E-9,3.0379101E-9,-0.278943183773663,-1.19243E-11,-1.2179966112501,-9.405688E-10,2.5836986E-9,3.3937759E-9
1320.0,-0.0314900958910584,0.125718759838492,0.0864366870373487,4.6760833357E-6,-2.51121819019E-5,-5.241017789E-7,-8.5456122E-9,-2.03310719E-8,9.9089448E-9,-2.6498722E-9,1.0746923E-9,-2.370788E-10,3.58363613486E-5,1.0337264E-7,2.327523378E-7,1.12872366E-8,-3.97356925E-8,2.203210721E-7,-3.24735348E-8,-1.03741218E-8,1.2169517E-9,-2.2815693E-9,4.6748079E-9,-0.193153658299707,-1.28683E-11,-1.178696861562,-2.6498722E-9,1.0746923E-9,-2.370788E-10
1380.0,-0.031131993047893,0.108577408827841,0.0998860828112811,4.6289787861E-6,-2.62772664428E-5,-1.690350473E-7,-2.7321221E-9,-1.92380867E-8,1.16469892E-8,-3.95602E-9,-4.9440096E-9,-2.8051228E-9,3.58521938324E-5,1.03959825E-7,2.632544908E-7,1.04580338E-8,-4.50781587E-8,2.41609321E-7,-4.69003436E-8,-1.56146748E-8,2.0168201E-9,1.7115162E-9,-1.5383364E-9,-0.121556762896944,-1.3806E-11,-1.14083178687497,-3.95602E-9,-4.9440096E-9,-2.8051228E-9
1440.0,-0.030597603879869,0.0909089497290552,0.11291238386184,4.5666238293E-6,-2.76025384665E-5,2.318993211E-7,-4.147296E-10,-2.26469865E-8,9.3723429E-9,-2.3802783E-9,-4.3782222E-9,-2.7050437E-9,3.60561534762E-5,1.045470102E-7,2.967931586E-7,1.92958631E-8,-4.68123666E-8,2.679655442E-7,-4.4102009E-8,-2.79594178E-8,2.856764E-9,-1.6541018E-9,3.4608645E-9,-0.0655623485217802,-1.47194E-11,-1.10585513499996,-2.3802783E-9,-4.3782222E-9,-2.7050437E-9
1500.0,-0.0299029983580112,0.0728106559254229,0.125450558960438,4.5015476644E-6,-2.90814787149E-5,6.721820682E-7,-7.266863E-10,-2.40845992E-8,1.28993634E-8,6.294583E-10,1.4032988E-9,-2.2985087E-9,3.61269339919E-5,1.05134206E-7,3.335607761E-7,1.49384856E-8,-5.64957694E-8,3.004096443E-7,-5.12368694E-8,-3.33719077E-8,2.5916494E-9,-3.8502371E-9,-1.2788463E-9,-0.0262856420013122,-1.5589E-11,-1.07458120125011,6.294583E-10,1.4032988E-9,-2.2985087E-9
1560.0,-0.0290648648515344,0.0543822469189763,0.137437525700079,4.4517219067E-6,-3.06908041239E-5,1.124892151E-6,-9.9234967E-9,-2.91120728E-8,1.15278453E-8,-1.1293622E-9,3.6050647E-9,9.521905E-10,3.59881669283E-5,1.05721391E-7,3.705508855E-7,2.24481248E-8,-7.11912165E-8,3.310643171E-7,-5.72642838E-8,-4.2248168E-8,2.05427E-11,3.6236879E-9,3.2776202E-9,-0.0045226204092614,-1.63948E-11,-1.0481010712499,-1.1293622E-9,3.6050647E-9,9.521905E-10
1620.0,-0.0281004179269075,0.0357251823879778,0.148812508297851,4.4240150601E-6,-3.25934961438E-5,1.5903933672E-6,-7.6988727E-9,-3.00849479E-8,1.09703251E-8,-2.1345001E-9,-7.433378E-10,3.7029611E-9,3.61884012818E-5,1.063085762E-7,4.146546346E-7,2.06793264E-8,-8.07880557E-8,3.522149619E-7,-7.11500064E-8,-5.49523956E-8,3.8855959E-9,-7.570369E-10,-3.8482673E-9,-7.317073759623E-4,-1.71169E-11,-1.02698667875006,-2.1345001E-9,-7.433378E-10,3.7029611E-9
1680.0,-0.0270269867032766,0.0169425597414374,0.159517386055086,4.4330954552E-6,-3.46712768078E-5,2.0342995413E-6,-2.8448994E-9,-3.27879661E-8,1.50785127E-8,2.5875608E-9,-5.65414E-11,6.579111E-10,3.62629070878E-5,9.68957721E-8,4.562593334E-7,2.28609374E-8,-8.66732941E-8,3.85300313E-7,-7.90242775E-8,-6.49106151E-8,2.8709544E-9,1.4599939E-9,-3.6485822E-9,-0.0150229057762772,-1.77367E-11,-1.01151434562507,2.5875608E-9,-5.65414E-11,6.579111E-10
1740.0,-0.0258621536195278,-0.001861771568656,0.169496974325739,4.5348424464E-6,-3.68589535356E-5,2.4470500648E-6,2.0181687E-9,-4.63990091E-8,1.52886059E-8,1.2045582E-9,-1.7163959E-9,2.2168771E-9,3.59835103154E-5,9.7482957E-8,4.933684854E-7,2.29525042E-8,-1.023322209E-7,4.244315488E-7,-8.62470089E-8,-7.919234E-8,5.6016971E-9,-1.2932124E-9,2.8711854E-9,-0.0471531189978123,-1.8238E-11,-1.00185681156199,1.2045582E-9,-1.7163959E-9,2.2168771E-9
1800.0,-0.0246235057711601,-0.0205840533599257,0.178699331125244,4.7141220421E-6,-3.93381342292E-5,2.782093361E-6,4.7766662E-9,-4.86065801E-8,8.3418854E-9,1.9366451E-9,-3.2131346E-9,-1.804934E-9,3.60272824764E-5,9.8070154E-8,5.461804151E-7,1.87401286E-8,-1.164892449E-7,4.656242361E-7,-9.21185377E-8,-8.99005691E-8,6.428118E-10,-6.024809E-10,4.6923004E-9,-0.0965291399043053,-1.86075E-11,-0.997804932500003,1.9366451E-9,-3.2131346E-9,-1.804934E-9
1860.0,-0.0233287988230586,-0.039120283909142,0.187076142057776,5.0133094192E-6,-4.20864671469E-5,3.0649825931E-6,4.2055035E-9,-4.82268661E-8,4.0454324E-9,4.203462E-9,3.7424392E-9,1.6512298E-9,3.61269339919E-5,9.86573381E-8,5.9198562E-7,2.2516831E-8,-1.294300169E-7,5.06269763E-7,-9.95138496E-8,-1.063610522E-7,-3.5017866E-9,1.9311766E-9,7.830035E-10,-0.162218511512037,-1.88361E-11,-0.998927920312099,4.203462E-9,3.7424392E-9,1.6512298E-9
1920.0,-0.0219948953017592,-0.0573680652305484,0.194582816911861,5.4291449487E-6,-4.49912622571E-5,3.1981617212E-6,4.6579771E-9,-4.96288521E-8,8.2172846E-9,1.2668662E-9,-1.209826E-9,-3.4634353E-9,3.60682606697E-5,9.9244535E-8,6.50172456E-7,2.00496806E-8,-1.431731787E-7,5.49459398E-7,-1.161080759E-7,-1.180481577E-7,1.6098115E-9,4.6942841E-9,9.8782E-11,-0.242967106518336,-1.89188E-11,-1.00389507062505,1.2668662E-9,-1.209826E-9,-3.4634353E-9
1980.0,-0.0206389031372964,-0.075226116925478,0.201178895775229,5.9851445258E-6,-4.81987372041E-5,3.1809322536E-6,9.4069037E-9,-5.44027898E-8,1.718945E-9,-2.662879E-10,-2.7408324E-9,2.460481E-10,3.6203302443E-5,9.983172E-8,7.070670827E-7,1.837306E-8,-1.661814483E-7,5.90156457E-7,-1.190881236E-7,-1.358336712E-7,4.3566311E-9,-3.9363007E-9,1.58269E-9,-0.337223416834604,-1.88552E-11,-1.01233693750009,-2.662879E-10,-2.7408324E-9,2.460481E-10
2040.0,-0.0192838259972632,-0.0925899967551231,0.206828231923282,6.7381188273E-6,-5.15161082149E-5,2.9732473195E-6,9.3350536E-9,-6.63212631E-8,-7.348717E-10,1.6805672E-9,-2.3034739E-9,-3.030193E-9,3.62116843462E-5,1.004189041E-7,7.602771588E-7,1.27678328E-8,-1.833149506E-7,6.44650453E-7,-1.2973979E-7,-1.547091331E-7,3.0539961E-9,4.4094836E-9,4.1657206E-9,-0.443170014885254,-1.86497E-11,-1.02287802875003,1.6805672E-9,-2.3034739E-9,-3.030193E-9
2100.0,-0.0179317127913237,-0.10937487706542,0.211499220691621,7.7108852565E-6,-5.50942495465E-5,2.5588087738E-6,1.88651939E-8,-6.55500116E-8,-8.0499376E-9,-2.1419124E-9,1.7858328E-9,-1.830411E-10,3.62079590559E-5,1.010060999E-7,8.321593243E-7,1.30933224E-8,-2.017317918E-7,7.023520729E-7,-1.458280086E-7,-1.634441849E-7,5.9527786E-9,-1.9021575E-9,-3.23277E-9,-0.558759724488482,-1.83109E-11,-1.03442180000002,-2.1419124E-9,1.7858328E-9,-1.830411E-10
2160.0,-0.0166042698547244,-0.125481698662043,0.21516497572884,8.9099630713E-6,-5.87776303291E-5,1.9441358745E-6,1.66451173E-8,-6.41985025E-8,-1.32376954E-8,-4.5772923E-9,6.356942E-10,-1.0981251E-9,3.62116843462E-5,1.01593286E-7,8.91987486E-7,9.4374491E-9,-2.234299676E-7,7.608359809E-7,-1.542131276E-7,-1.846163611E-7,1.2387224E-9,-4.5058682E-9,-1.7045869E-9,-0.681757656275295,-1.78509E-11,-1.04533761375001,-4.5772923E-9,6.356942E-10,-1.0981251E-9
2220.0,-0.0153154670260847,-0.1408213051036,0.217803412117064,1.03274360299E-5,-6.25774264336E-5,1.0449439287E-6,2.11866791E-8,-6.98273652E-8,-1.85036697E-8,8.608607E-10,-3.2205056E-9,-1.0980905E-9,3.62154096365E-5,1.021804701E-7,9.663615291E-7,6.844334E-9,-2.450985817E-7,8.215194272E-7,-1.741137994E-7,-2.01603944E-7,-2.9681553E-9,-5.034072E-9,-2.3521664E-9,-0.809786303783767,-1.72847E-11,-1.05486010437494,8.608607E-10,-3.2205056E-9,-1.0980905E-9
2280.0,-0.014078501611948,-0.155308738350868,0.21939746895805,1.19786709547E-5,-6.64722174406E-5,-2.081505954E-7,3.07977643E-8,-7.51433618E-8,-1.76723916E-8,-1.9138442E-9,-2.2604176E-9,3.0543736E-9,3.61576676369E-5,1.02767667E-7,1.0373631861E-6,-1.3267987E-9,-2.759037633E-7,8.941253348E-7,-1.913730824E-7,-2.177336218E-7,1.3859247E-9,-5.1138428E-9,3.7120052E-9,-0.940374028403311,-1.66294E-11,-1.06150562562493,-1.9138442E-9,-2.2604176E-9,3.0543736E-9
2340.0,-0.0129052922129631,-0.168863938190043,0.2199353328906,1.38846226037E-5,-7.0400070399E-5,-1.7350539565E-6,3.38282007E-8,-7.39155439E-8,-2.61543391E-8,2.9147849E-9,-4.7773412E-9,1.275513E-9,3.59388068318E-5,1.03354852E-7,1.1079361175E-6,-2.0579247E-9,-3.037746817E-7,9.645942851E-7,-2.079476329E-7,-2.3521745E-7,2.2880829E-9,3.6362792E-9,5.3660272E-9,-1.07100514689228,-1.59034E-11,-1.064311155312,2.9147849E-9,-4.7773412E-9,1.275513E-9
2400.0,-0.011807139031589,-0.181412046775222,0.219410208053887,1.60858035088E-5,-7.43931159377E-5,-3.6559067667E-6,3.66960649E-8,-6.9181624E-8,-3.06740731E-8,-1.9847475E-9,4.4340371E-9,-1.7504727E-9,3.59592959285E-5,1.039420359E-7,1.1939395867E-6,-4.1803831E-9,-3.306777189E-7,1.0433061429E-6,-2.23522858E-7,-2.577046259E-7,-2.3415429E-9,-3.904779E-10,1.4792726E-9,-1.19917018647538,-1.51251E-11,-1.06270857625009,-1.9847475E-9,4.4340371E-9,-1.7504727E-9
2460.0,-0.0107934868428856,-0.192884035408497,0.217820665799081,1.86027027667E-5,-7.83260911703E-5,-5.9297308326E-6,4.46630111E-8,-7.22866389E-8,-4.27271516E-8,-3.3046499E-9,1.077483E-9,3.2147867E-9,3.60710546374E-5,1.045292319E-7,1.2722980583E-6,-1.37469627E-8,-3.672728077E-7,1.1246209937E-6,-2.456653288E-7,-2.737133331E-7,5.3499822E-9,1.214163E-9,9.131295E-10,-1.32241626875475,-1.43125E-11,-1.05611898593793,-3.3046499E-9,1.077483E-9,3.2147867E-9
2520.0,-0.0098729878664017,-0.203216838650405,0.215170543640852,2.14106403291E-5,-8.21501016617E-5,-8.5402280092E-6,4.73648925E-8,-6.96991265E-8,-3.98913471E-8,-7.947349E-10,-2.811289E-10,-2.9058373E-9,3.59760597348E-5,9.51164281E-8,1.3546415552E-6,-2.44363312E-8,-3.972363873E-7,1.2189891557E-6,-2.756364089E-7,-2.944562381E-7,3.1482782E-9,-3.123152E-9,2.5217936E-9,-1.43839499331079,-1.34825E-11,-1.04425833718801,-7.947349E-10,-2.811289E-10,-2.9058373E-9
2580.0,-0.0090528046712279,-0.212353875860572,0.211468842811882,2.44304537773E-5,-8.58209095895E-5,-1.15791335702E-5,4.95857648E-8,-6.83830876E-8,-5.32277227E-8,1.2469545E-9,-3.3704608E-9,-5.045087E-9,3.60039994121E-5,9.5703613E-8,1.4458027936E-6,-3.42915759E-8,-4.314131038E-7,1.3066856893E-6,-2.991082856E-7,-3.167587661E-7,-1.2283484E-9,-4.9540519E-9,5.1531139E-9,-1.5449079220416,-1.26502E-11,-1.02734297718803,1.2469545E-9,-3.3704608E-9,-5.045087E-9
2640.0,-0.008339094609255,-0.220245477743447,0.206729848869145,2.77711078525E-5,-8.93392134458E-5,-1.50259584188E-5,5.84664122E-8,-6.24322638E-8,-5.969423E-8,7.161089E-10,3.1854794E-9,2.9578482E-9,3.60272824764E-5,9.62907991E-8,1.536506335E-6,-5.02016103E-8,-4.71825711E-7,1.4131215956E-6,-3.251548395E-7,-3.338501029E-7,-1.287844E-10,4.194942E-9,-2.350512E-9,-1.6399482281995,-1.1829E-11,-1.00575979343785,7.161089E-10,3.1854794E-9,2.9578482E-9
2700.0,-0.0077362689189613,-0.226848968304694,0.200973033905029,3.14312055707E-5,-9.25760250539E-5,-1.88462436199E-5,5.98884071E-8,-5.96719474E-8,-6.32028332E-8,4.9927786E-9,2.4828539E-9,-5.922054E-10,3.60887497663E-5,9.68779941E-8,1.6295521597E-6,-6.16122879E-8,-5.054334255E-7,1.5075776304E-6,-3.618701151E-7,-3.652175919E-7,4.0311343E-9,2.825823E-9,-1.1511922E-9,-1.72173810383538,-1.10296E-11,-0.980187058750062,4.9927786E-9,2.4828539E-9,-5.922054E-10
2760.0,-0.0072477617068216,-0.23212883900851,0.194222916848958,3.52896749973E-5,-9.55052673817E-5,-2.30213627219E-5,6.49878302E-8,-4.94528649E-8,-7.52620508E-8,-3.0242706E-9,2.0376671E-9,-2.991145E-10,3.59117984772E-5,9.7465179E-8,1.7287613773E-6,-7.50010415E-8,-5.47387543E-7,1.6210815286E-6,-3.993507654E-7,-3.896459941E-7,-1.2310056E-9,-5.2748E-10,-2.4145457E-9,-1.78876084566582,-1.0261E-11,-0.951429573437963,-3.0242706E-9,2.0376671E-9,-2.991145E-10
2820.0,-0.0068754509557039,-0.236057261005044,0.186508914455771,3.94135713577E-5,-9.80758923106E-5,-2.7566216886E-5,6.77615049E-8,-4.55156624E-8,-7.95280357E-8,3.179963E-9,-8.279899E-10,-4.6722528E-9,3.57264652848E-5,9.8052364E-8,1.8399156794E-6,-9.06639687E-8,-5.933932519E-7,1.7345287259E-6,-4.350504765E-7,-4.124868311E-7,1.5363093E-9,2.7043279E-9,2.6913385E-9,-1.83978716982529,-9.5294E-12,-0.920815067499916,3.179963E-9,-8.279899E-10,-4.6722528E-9
2880.0,-0.0066200201399624,-0.238613933790475,0.177865174598992,4.37600538135E-5,-1.002105345833E-4,-3.25031578541E-5,7.16875093E-8,-3.59259502E-8,-8.00790758E-8,1.2732153E-9,2.7623043E-9,-1.9341222E-9,3.56025993824E-5,9.86395601E-8,1.9428860803E-6,-1.033468733E-7,-6.406537538E-7,1.8554746019E-6,-4.755161007E-7,-4.375083931E-7,-2.808406E-10,1.1293387E-9,2.9969888E-9,-1.87389599351445,-8.8392E-12,-0.889004068749955,1.2732153E-9,2.7623043E-9,-1.9341222E-9
2940.0,-0.0064808439929038,-0.239786281250417,0.168330575339496,4.82741743326E-5,-1.018731854856E-4,-3.77986580133E-5,7.45749276E-8,-3.16513251E-8,-9.14648126E-8,-2.8585321E-9,-4.8337411E-9,2.4795677E-9,3.5660341382E-5,9.9226745E-8,2.0541111656E-6,-1.282026817E-7,-6.867505817E-7,1.9834573967E-6,-5.238626953E-7,-4.619369232E-7,6.389715E-10,3.3978663E-9,-2.6673181E-9,-1.89048911206191,-8.1928E-12,-0.857919940938018,-2.8585321E-9,-4.8337411E-9,2.4795677E-9
3000.0,-0.0064559439197183,-0.239569558762014,0.157948413863778,5.29838725924E-5,-1.030273269862E-4,-4.33828681707E-5,7.88609213E-8,-2.30993464E-8,-9.86252076E-8,2.7160585E-9,1.0139909E-9,3.1999239E-9,3.54750081897E-5,9.98139309E-8,2.1685527645E-6,-1.534780442E-7,-7.457077617E-7,2.1131970328E-6,-5.747626734E-7,-4.85337093E-7,1.5534407E-9,-1.794143E-9,4.5296155E-9,-1.8892994147609,-7.591E-12,-0.828099774062139,2.7160585E-9,1.0139909E-9,3.1999239E-9
3060.0,-0.0065421988256276,-0.237966766115278,0.146766077727079,5.78411854804E-5,-1.036012545228E-4,-4.92762774229E-5,7.95241704E-8,-7.3614501E-9,-1.04604851E-7,-4.8098396E-9,4.7476592E-9,-1.5132784E-9,3.55616211891E-5,1.004011261E-7,2.2802287045E-6,-1.712240391E-7,-7.904001672E-7,2.2581780411E-6,-6.282898377E-7,-5.122844151E-7,-3.424025E-10,4.2982777E-9,3.4211204E-9,-1.87039339059265,-7.0333E-12,-0.800766351562061,-4.8098396E-9,4.7476592E-9,-1.5132784E-9
3120.0,-0.0067353988997638,-0.234988609794527,0.134835021570325,6.27459958196E-5,-1.035430468619E-4,-5.53922727704E-5,8.46439434E-8,-1.4833859E-9,-1.053659844E-7,-4.2259787E-9,-4.1167261E-9,-1.4728014E-9,3.55690717697E-5,1.00988311E-7,2.4004005112E-6,-1.971925109E-7,-8.504020975E-7,2.4011835443E-6,-6.90282615E-7,-5.281069881E-7,2.0850215E-9,4.72473E-10,2.8439097E-9,-1.83416755433427,-6.5182E-12,-0.77657841312498,-4.2259787E-9,-4.1167261E-9,-1.4728014E-9
3180.0,-0.0070300297811627,-0.230653455015272,0.122210279107094,6.7719258368E-5,-1.028249971569E-4,-6.17597252131E-5,8.98639883E-8,1.08766471E-8,-1.12754833E-7,1.7198527E-9,-5.16974E-10,-4.0094328E-9,3.56649979949E-5,1.01575496E-7,2.5224796011E-6,-2.309239917E-7,-9.043327632E-7,2.5422370571E-6,-7.59267495E-7,-5.490653567E-7,5.909204E-9,-4.4185173E-9,1.6393629E-9,-1.78133894701023,-6.0437E-12,-0.756993801405997,1.7198527E-9,-5.16974E-10,-4.0094328E-9
3240.0,-0.0074198432266712,-0.224987406749278,0.108950451016426,7.27190636098E-5,-1.014228910208E-4,-6.8249180913E-5,8.03470357E-8,2.15877662E-8,-1.080270522E-7,-1.0280665E-9,-1.2096129E-9,-2.3477051E-9,3.56566160917E-5,1.021626919E-7,2.6527107602E-6,-2.568592837E-7,-9.657429324E-7,2.689183481E-6,-8.375674171E-7,-5.668309582E-7,8.1450604E-9,-1.4626881E-9,-1.3451591E-9,-1.71293051971588,-5.6075E-12,-0.741860079062008,-1.0280665E-9,-1.2096129E-9,-2.3477051E-9
3300.0,-0.0078973798081279,-0.21802355023101,0.0951170725747943,7.76508823037E-5,-9.93120484054E-5,-7.4902549386E-5,8.5650754E-8,3.54384611E-8,-1.134417289E-7,4.5004249E-9,-3.0781901E-9,-5.128085E-10,3.56212258339E-5,9.27498771E-8,2.7856971695E-6,-2.871186226E-7,-1.0316018839E-6,2.845686611E-6,-9.162737186E-7,-5.77622723E-7,5.7505924E-9,-1.685857E-9,2.7450301E-9,-1.63025074166944,-5.2071E-12,-0.731764221250046,4.5004249E-9,-3.0781901E-9,-5.128085E-10
3360.0,-0.0084544196724892,-0.209802387980744,0.0807747170329094,8.25081951916E-5,-9.64761711657E-5,-8.15764069557E-5,8.12979124E-8,5.27370503E-8,-1.107132448E-7,-2.7598297E-9,4.474777E-9,3.5016727E-9,3.54321673512E-5,9.33370621E-8,2.913848241E-6,-3.263943592E-7,-1.1024856656E-6,3.0034441341E-6,-1.0000528493E-6,-5.877045339E-7,5.6287011E-9,3.9514829E-9,2.7733119E-9,-1.53486861468991,-4.8397E-12,-0.726943026875006,-2.7598297E-9,4.474777E-9,3.5016727E-9
3420.0,-0.0090845357626677,-0.200378126930445,0.0659902701154351,8.72788950801E-5,-9.28952358663E-5,-8.82670283318E-5,7.86517376E-8,5.87569957E-8,-1.167609298E-7,4.6994071E-9,-5.221761E-10,2.6741542E-9,3.53362411261E-5,9.39242579E-8,3.0598601728E-6,-3.691993759E-7,-1.1636349408E-6,3.1524910111E-6,-1.0891704169E-6,-5.924332211E-7,4.6291485E-9,-5.4427656E-9,-2.3868463E-9,-1.42858390789479,-4.503E-12,-0.727603391093794,4.6994071E-9,-5.221761E-10,2.6741542E-9
3480.0,-0.0097725847736001,-0.18979151500389,0.050832818262279,9.18172299862E-5,-8.85473564267E-5,-9.49697569013E-5,7.33721208E-8,7.52206688E-8,-1.08967015E-7,-1.1171597E-9,4.8913416E-9,5.858007E-10,3.53017821908E-5,9.45114431E-8,3.1913798402E-6,-4.095084574E-7,-1.2361410451E-6,3.3036061842E-6,-1.1854905911E-6,-5.841693107E-7,-4.493314E-10,-6.893166E-10,6.1495194E-9,-1.31339336110977,-4.1944E-12,-0.733856145000004,-1.1171597E-9,4.8913416E-9,5.858007E-10
3540.0,-0.0105112725868821,-0.178109396947548,0.0353734092786908,9.62568446994E-5,-8.34967941046E-5,-1.015299931169E-4,7.36499715E-8,8.8228262E-8,-1.112580321E-7,3.710761E-10,-3.4684984E-9,4.500853E-9,3.52971255779E-5,9.5098639E-8,3.3370547902E-6,-4.526273634E-7,-1.3176287486E-6,3.452736935E-6,-1.2924053064E-6,-5.580890923E-7,7.1432243E-9,-2.5346057E-9,-2.7197063E-9,-1.19145330338506,-3.9118E-12,-0.744766201874995,3.710761E-10,-3.4684984E-9,4.500853E-9
3600.0,-0.0112898368388414,-0.165397694217972,0.0196845158934593,1.003667712212E-4,-7.77272507548E-5,-1.078718341887E-4,6.60120349E-8,9.4416464E-8,-1.065468496E-7,3.4130823E-9,5.498899E-10,4.6062647E-9,3.52328643203E-5,9.56858239E-8,3.4832354248E-6,-4.989281796E-7,-1.3919296047E-6,3.6026855681E-6,-1.395534548E-6,-5.281133491E-7,4.1104083E-9,-1.6479987E-9,-8.22822E-11,-1.0650391705567,-3.653E-12,-0.760265835156247,3.4130823E-9,5.498899E-10,4.6062647E-9
3660.0,-0.0120971472933888,-0.151728198747151,0.0038395691663027,1.041700597852E-4,-7.1250833571E-5,-1.141061075032E-4,6.31862349E-8,1.128064469E-7,-1.00588295E-7,-2.0657862E-9,4.2329775E-9,-2.3710092E-9,3.51537019014E-5,9.62730091E-8,3.6406688182E-6,-5.38902976E-7,-1.4673759229E-6,3.72852729E-6,-1.5059106745E-6,-4.743551352E-7,7.1119858E-9,1.3808909E-9,2.9898323E-9,-0.936502660508268,-3.4159E-12,-0.779667962499957,-2.0657862E-9,4.2329775E-9,-2.3710092E-9
3720.0,-0.0129218185320497,-0.137177980097476,-0.0120868813246489,1.07625965029E-4,-6.40638172626E-5,-1.199883408844E-4,5.51272024E-8,1.201769919E-7,-1.000598786E-7,-3.3448897E-9,-3.2841747E-9,-1.171934E-10,3.49963083863E-5,9.6860205E-8,3.7906061457E-6,-5.888135679E-7,-1.5534871675E-6,3.8558513531E-6,-1.6178548609E-6,-4.042400912E-7,2.7665733E-9,-3.9552369E-9,5.4419225E-9,-0.808227984583937,-3.1988E-12,-0.802294260312465,-3.3448897E-9,-3.2841747E-9,-1.171934E-10
3780.0,-0.0137523077428341,-0.121828530944185,-0.0280200117267668,1.107228454202E-4,-5.6266784668E-5,-1.255027018487E-4,5.03969204E-8,1.301473276E-7,-9.19635568E-8,-2.7272593E-9,-2.8781644E-9,2.7107712E-9,3.4804455936E-5,9.74473899E-8,3.9498361303E-6,-6.460558725E-7,-1.635962647E-6,3.971741537E-6,-1.7371638041E-6,-3.08589386E-7,7.6544523E-9,1.9210652E-9,6.2379629E-9,-0.682586933020502,-2.9999E-12,-0.827173206093789,-2.7272593E-9,-2.8781644E-9,2.7107712E-9
3840.0,-0.0145769389346242,-0.105766012333333,-0.0438849702477455,1.13420188427E-4,-4.78457659483E-5,-1.306519843638E-4,4.65606718E-8,1.455669008E-7,-8.47403498E-8,1.082096E-9,-3.4185268E-9,2.0387536E-9,3.47122550011E-5,9.80345751E-8,4.1142539928E-6,-7.03214703E-7,-1.7300315771E-6,4.0702437369E-6,-1.851428129E-6,-1.942861974E-7,8.3205089E-9,-1.3257109E-9,4.3620562E-9,-0.561894591199234,-2.8177E-12,-0.853433347812484,1.082096E-9,-3.4185268E-9,2.0387536E-9
3900.0,-0.0153841357678175,-0.0890800420893356,-0.0596070718020201,1.156718935817E-4,-3.88529151678E-5,-1.35388225317E-4,3.96430551E-8,1.494022399E-7,-8.03975126E-8,7.12671E-10,-2.4610243E-9,3.0953471E-9,3.4486874938E-5,9.8621771E-8,4.2706781972E-6,-7.596603812E-7,-1.8223386199E-6,4.1453611599E-6,-1.965988611E-6,-4.51162201E-8,1.2772983E-9,-3.9418765E-9,-1.1801379E-9,-0.448366442811675,-2.6508E-12,-0.880289207500027,7.12671E-10,-2.4610243E-9,3.0953471E-9
3960.0,-0.016162452287972,-0.0718635232187808,-0.075112225022167,1.174565404654E-4,-2.93161720037E-5,-1.396718434989E-4,3.31519914E-8,1.634189175E-7,-7.4154741E-8,9.983711E-10,-1.2430625E-9,1.0544898E-9,3.44142317772E-5,9.92089559E-8,4.4367342381E-6,-8.194334224E-7,-1.9216555297E-6,4.219174514E-6,-2.082505043E-6,1.242295999E-7,3.0082243E-9,-6.0825457E-9,-1.3599881E-9,-0.344077576941345,-2.4978E-12,-0.906809694531262,9.983711E-10,-1.2430625E-9,1.0544898E-9
4020.0,-0.0169006660580635,-0.0542125878855586,-0.0903272540308535,1.187078887597E-4,-1.9334256649E-5,-1.434220466763E-4,2.31239028E-8,1.713390247E-7,-6.74845069E-8,-1.4440096E-9,-2.4526283E-9,-1.8010726E-9,3.42838466167E-5,9.97961409E-8,4.6087352091E-6,-8.840782853E-7,-2.0188033683E-6,4.276623885E-6,-2.1797897435E-6,3.130741391E-7,9.9708289E-9,2.1902055E-9,2.8755054E-9,-0.250924899301026,-2.3578E-12,-0.931907634687491,-1.4440096E-9,-2.4526283E-9,-1.8010726E-9
4080.0,-0.0175879057496786,-0.0362253331113607,-0.105180282844231,1.194546930492E-4,-8.9826062322E-6,-1.466241665185E-4,1.59889169E-8,1.73690978E-7,-5.03296178E-8,-2.4415719E-9,2.0958328E-9,-2.0135738E-9,3.43369320035E-5,9.03833368E-8,4.7876016127E-6,-9.590222791E-7,-2.1162415342E-6,4.3188518348E-6,-2.2778584228E-6,5.311972129E-7,8.6001853E-9,9.090127E-10,6.050834E-10,-0.17059312434867,-2.2294E-12,-0.955052056249997,-2.4415719E-9,2.0958328E-9,-2.0135738E-9
4140.0,-0.0182138048112392,-0.0180015629157424,-0.119600966805592,1.196592056658E-4,1.6251578927E-6,-1.492199953645E-4,3.5297489E-9,1.819421414E-7,-4.7382855E-8,1.5754269E-9,-3.5686583E-9,-4.051566E-9,3.41031700373E-5,9.0970522E-8,4.9629770096E-6,-1.022051282E-6,-2.2278274722E-6,4.366805666E-6,-2.3637529254E-6,7.603733492E-7,5.3123843E-9,2.02725E-10,9.34574E-10,-0.104525229078718,-2.112E-12,-0.975580672656292,1.5754269E-9,-3.5686583E-9,-4.051566E-9
4200.0,-0.0187681205570698,3.571689594537E-4,-0.133520891657099,1.193163334392E-4,1.2612901628E-5,-1.511687878519E-4,-2.1773303E-9,1.853433105E-7,-3.03534762E-8,4.3169036E-9,-1.2210926E-9,-3.4952938E-9,3.42577695847E-5,9.1557719E-8,5.1458106129E-6,-1.0924097347E-6,-2.339272534E-6,4.3993751673E-6,-2.4414418472E-6,1.0098442074E-6,6.5081085E-9,2.977262E-10,2.9982067E-9,-0.0538974308874458,-2.0044E-12,-0.992823957343717,4.3169036E-9,-1.2210926E-9,-3.4952938E-9
4260.0,-0.0192416943609715,0.0187492505647242,-0.146873842459172,1.183996209875E-4,2.3802742362E-5,-1.52452965267E-4,-1.59925548E-8,1.89650188E-7,-2.18860805E-8,-4.2691048E-9,8.697203E-10,3.4064594E-9,3.43257561326E-5,9.21449028E-8,5.3297919411E-6,-1.1690482594E-6,-2.4498149551E-6,4.4471069589E-6,-2.5043033727E-6,1.2681275861E-6,8.5762831E-9,1.5190729E-9,5.9598902E-9,-0.0196001146105118,-1.9061E-12,-1.00681100015629,-4.2691048E-9,8.697203E-10,3.4064594E-9
4320.0,-0.0196258714422584,0.0370723707601428,-0.159596116980538,1.169290626422E-4,3.5054050386E-5,-1.530734880362E-4,-2.78705556E-8,1.867808805E-7,-1.01181286E-8,4.238877E-9,1.4542039E-9,-4.879873E-10,3.43108549714E-5,9.2732088E-8,5.5121348047E-6,-1.246557651E-6,-2.5656004434E-6,4.497554738E-6,-2.5472586459E-6,1.5298304241E-6,7.8977959E-9,-5.7085579E-9,-9.855495E-10,-0.0022234294447117,-1.8163E-12,-1.0171039942187,4.238877E-9,1.4542039E-9,-4.879873E-10
4380.0,-0.0199123732745647,0.0552244749851525,-0.171626763418317,1.149121671915E-4,4.65037301183E-5,-1.530057925265E-4,-3.50519258E-8,1.838719754E-7,5.738912E-10,9.763341E-10,1.9296102E-9,-1.1326524E-9,3.4530647099E-5,9.3319285E-8,5.7043171227E-6,-1.3273623434E-6,-2.6952062541E-6,4.5719023678E-6,-2.5861017645E-6,1.7917227177E-6,1.08492751E-8,-8.601143E-10,1.3888245E-9,-0.0020484657725319,-1.7345E-12,-1.0240129651562,9.763341E-10,1.9296102E-9,-1.1326524E-9
4440.0,-0.0200944691896439,0.0731048188172281,-0.182907861541025,1.123319379985E-4,5.77829778194E-5,-1.522237434983E-4,-4.72382453E-8,1.837540822E-7,1.41508281E-8,-2.230107E-9,-4.164896E-9,5.40788E-10,3.46340239048E-5,9.39064688E-8,5.8934877644E-6,-1.4087989776E-6,-2.8176678616E-6,4.6560390619E-6,-2.6035388191E-6,2.0604763691E-6,3.806917E-9,-3.3096126E-9,2.3432044E-9,-0.0190448565408587,-1.6603E-12,-1.02763449062502,-2.230107E-9,-4.164896E-9,5.40788E-10
4500.0,-0.0201657479628921,0.0906136990524828,-0.193384803365916,1.092117745429E-4,6.89094886184E-5,-1.507377019152E-4,-5.4332304E-8,1.824118954E-7,2.46418494E-8,-2.7660021E-9,-2.8520457E-9,-7.0093E-10,3.47392633557E-5,9.44936542E-8,6.0853500939E-6,-1.4937754576E-6,-2.9432718411E-6,4.7613625771E-6,-2.6155146975E-6,2.3219696503E-6,3.150351E-9,-2.3297812E-9,1.1721315E-9,-0.0528722947929054,-1.5933E-12,-1.02813177593748,-2.7660021E-9,-2.8520457E-9,-7.0093E-10
4560.0,-0.0201205648481846,0.107653009239584,-0.203006533905864,1.055370084941E-4,7.98609107733E-5,-1.485459506512E-4,-6.42412488E-8,1.875860107E-7,3.95666575E-8,8.054166E-10,-5.0020752E-9,2.9805869E-9,3.46628949046E-5,9.50808501E-8,6.289422268E-6,-1.5837919205E-6,-3.0772678915E-6,4.8937289776E-6,-2.6097512825E-6,2.5695075059E-6,5.2665329E-9,-7.0919071E-9,7.2055323E-9,-0.102888559282292,-1.5332E-12,-1.02638487218746,8.054166E-10,-5.0020752E-9,2.9805869E-9
4620.0,-0.019954769872129,0.124127842020243,-0.211725756060332,1.013190485537E-4,9.05767083168E-5,-1.456718891859E-4,-6.64458639E-8,1.811986294E-7,5.18884917E-8,-1.2596959E-9,4.7558393E-9,3.05159E-10,3.48594039679E-5,9.5668035E-8,6.4876546407E-6,-1.6732058113E-6,-3.2165313633E-6,5.0500959712E-6,-2.5947067505E-6,2.8203140952E-6,6.5536549E-9,-6.6658869E-9,-1.903037E-10,-0.168162409041543,-1.4798E-12,-1.02317118921871,-1.2596959E-9,4.7558393E-9,3.05159E-10
4680.0,-0.0196648016571999,0.139945290051401,-0.219499093014747,9.66424122453E-5,1.009153202176E-4,-1.420849002898E-4,-8.10632628E-8,1.704993338E-7,5.58029569E-8,-4.9476951E-9,-2.4111895E-9,-4.14461E-9,3.47886234522E-5,9.62552202E-8,6.6974523981E-6,-1.7637377245E-6,-3.3690798325E-6,5.2293058079E-6,-2.5700463675E-6,3.0630573771E-6,3.4250608E-9,-2.04835E-11,8.3881902E-9,-0.247491131303832,-1.4328E-12,-1.01931377437495,-4.9476951E-9,-2.4111895E-9,-4.14461E-9
4740.0,-0.0192426107823849,0.155008758883923,-0.226287419907749,9.15480777621E-5,1.107826828957E-4,-1.37837138027E-4,-8.73028512E-8,1.703160706E-7,7.41674739E-8,4.18909E-11,2.6448417E-9,1.0813928E-9,3.44756990671E-5,9.68424161E-8,6.9002050929E-6,-1.8483406702E-6,-3.5162174993E-6,5.4513337657E-6,-2.5316237555E-6,3.3015856502E-6,1.23131571E-8,-6.0237883E-9,2.3827072E-9,-0.339422761462629,-1.392E-12,-1.016358685,4.18909E-11,2.6448417E-9,1.0813928E-9
4800.0,-0.01869788300246,0.169248014222831,-0.232055922970176,8.59810970724E-5,1.202141866088E-4,-1.329639926553E-4,-8.93301149E-8,1.619409886E-7,7.74507498E-8,3.4222132E-9,-1.8473605E-9,1.4343788E-9,3.41087579727E-5,9.74296011E-8,7.1164615126E-6,-1.9436915146E-6,-3.666954534E-6,5.6924568841E-6,-2.4852045303E-6,3.5372350231E-6,9.6733054E-9,-3.4438893E-9,1.273846E-9,-0.442282469884958,-1.3571E-12,-1.01337324281246,3.4222132E-9,-1.8473605E-9,1.4343788E-9
4860.0,-0.0180246736854315,0.182573986705393,-0.236774276942015,7.99596309662E-5,1.291744410992E-4,-1.274556852877E-4,-9.9949375E-8,1.487769623E-7,8.81764208E-8,2.0456987E-9,1.45262E-11,1.510858E-10,3.41469421983E-5,9.80167862E-8,7.3289068084E-6,-2.0407071966E-6,-3.8242285361E-6,5.962099531E-6,-2.4316414071E-6,3.7640922308E-6,1.19876889E-8,-9.497426E-10,4.5818199E-9,-0.554203065636102,-1.3285E-12,-1.00767310640629,2.0456987E-9,1.45262E-11,1.510858E-10
4920.0,-0.017223758623004,0.194910066202283,-0.24041682202369,7.36061483622E-5,1.376066356897E-4,-1.213578507304E-4,-1.074977263E-7,1.389198587E-7,9.71513145E-8,-2.163274E-9,-9.671366E-10,-1.1814558E-9,3.41767445207E-5,8.86039819E-8,7.5542974255E-6,-2.1426377708E-6,-3.982346528E-6,6.2591917729E-6,-2.3691015977E-6,3.9998782397E-6,5.7691375E-9,-7.1122461E-9,1.8670907E-9,-0.673158758203499,-1.3067E-12,-0.99998225624995,-2.163274E-9,-9.671366E-10,-1.1814558E-9
4980.0,-0.0162969208322465,0.206184751354158,-0.242962680291384,6.69229775667E-5,1.454818993807E-4,-1.147016882896E-4,-1.127259566E-7,1.290727596E-7,1.15435796E-7,3.6944012E-9,8.399956E-10,3.6838115E-9,3.41646373272E-5,8.91911671E-8,7.7754870357E-6,-2.2404411515E-6,-4.1549709815E-6,6.5846033097E-6,-2.3016727744E-6,4.2268019924E-6,7.564904E-9,-4.05513E-10,2.7309281E-9,-0.79700138658518,-1.2922E-12,-0.991130474687452,3.6944012E-9,8.399956E-10,3.6838115E-9
5040.0,-0.0152470599859953,0.216331897303462,-0.244395873975009,5.99310733378E-5,1.526661217213E-4,-1.075509935617E-4,-1.189309842E-7,1.173630153E-7,1.195030563E-7,-2.1991502E-9,-4.0157273E-9,4.7714739E-9,3.42577695847E-5,8.97783521E-8,7.9946330907E-6,-2.3452979856E-6,-4.3228952075E-6,6.9422336169E-6,-2.2261764282E-6,4.4611979941E-6,3.9603771E-9,-9.2083412E-9,6.8158897E-9,-0.923499160213395,-1.2853E-12,-0.98157674187496,-2.1991502E-9,-4.0157273E-9,4.7714739E-9
5100.0,-0.0140778860077262,0.225291070528328,-0.244705363642424,5.26122748852E-5,1.591197215021E-4,-9.99188050628E-5,-1.206831257E-7,1.047092155E-7,1.270068424E-7,-9.35643E-11,1.5440182E-9,2.2768027E-9,3.4318305552E-5,9.03655479E-8,8.2286090516E-6,-2.4482771875E-6,-4.5007936008E-6,7.331020397E-6,-2.1454249293E-6,4.701661565E-6,1.15827237E-8,-1.8058745E-9,3.8062232E-9,-1.05037632479798,-1.2865E-12,-0.972169954531296,-9.35643E-11,1.5440182E-9,2.2768027E-9
5160.0,-0.0127941886894405,0.233007872477174,-0.243885167874396,4.51738014817E-5,1.648389734328E-4,-9.18600708246E-5,-1.275259365E-7,9.88902684E-8,1.340472409E-7,-3.2843603E-9,1.721956E-10,1.4567698E-9,3.4399330616E-5,9.09527331E-8,8.4575618694E-6,-2.557310909E-6,-4.6920915842E-6,7.7403404344E-6,-2.057259794E-6,4.945901126E-6,7.1044457E-9,-6.3914511E-9,3.4281873E-9,-1.17535400949419,-1.2966E-12,-0.963943489687495,-3.2843603E-9,1.721956E-10,1.4567698E-9
5220.0,-0.0114019867032766,0.239434617571533,-0.241934412159026,3.75481322408E-5,1.697596162558E-4,-8.34194943309E-5,-1.257399163E-7,8.30104909E-8,1.456746759E-7,-2.5838851E-9,-2.3110687E-9,3.3922545E-9,3.43471765518E-5,9.15399181E-8,8.6874519761E-6,-2.6617794936E-6,-4.8810790405E-6,8.18862789E-6,-1.9511393444E-6,5.2000785082E-6,7.2468453E-9,-1.068634E-9,5.4502915E-9,-1.29619019629899,-1.3162E-12,-0.957820616874983,-2.5838851E-9,-2.3110687E-9,3.3922545E-9
5280.0,-0.0099077268969268,0.244529942050576,-0.238857347518206,2.97538936138E-5,1.738588325679E-4,-7.46706500649E-5,-1.332248303E-7,7.18937372E-8,1.443559086E-7,4.6265534E-9,-3.6938843E-9,4.5919881E-9,3.43425199389E-5,9.21271139E-8,8.9272918962E-6,-2.7751413836E-6,-5.0713888505E-6,8.6702739188E-6,-1.8512149098E-6,5.470324143E-6,8.7833857E-9,-3.853417E-9,9.6834535E-9,-1.41071931191254,-1.3464E-12,-0.954452464218775,4.6265534E-9,-3.6938843E-9,4.5919881E-9
5340.0,-0.0083191469311714,0.248259652405977,-0.234663214534521,2.18721106648E-5,1.771999523044E-4,-6.55250623822E-5,-1.322798653E-7,5.43177521E-8,1.546504791E-7,5.317276E-10,-2.6469165E-9,3.5076884E-9,3.43564897776E-5,9.27142991E-8,9.1616675849E-6,-2.8861665523E-6,-5.2699774997E-6,9.1850865047E-6,-1.7379866339E-6,5.7483977849E-6,8.5429379E-9,-2.6765991E-9,5.9810751E-9,-1.51688968500821,-1.3883E-12,-0.954968449687499,5.317276E-10,-2.6469165E-9,3.5076884E-9
5400.0,-0.0066447420977056,0.250596555881202,-0.229366644285619,1.39204785228E-5,1.796700526029E-4,-5.61634078622E-5,-1.291053877E-7,3.64661901E-8,1.582329787E-7,2.6681723E-9,-4.9634132E-9,-3.3140726E-9,3.44766303897E-5,9.33014841E-8,9.4089832313E-6,-2.9894450545E-6,-5.4757762814E-6,9.7287409E-6,-1.6097221274E-6,6.0512860549E-6,1.34129067E-8,-5.386322E-9,4.2390352E-9,-1.61279912665486,-1.4434E-12,-0.960057029687505,2.6681723E-9,-4.9634132E-9,-3.3140726E-9
5460.0,-0.0048933753278107,0.251520693302155,-0.222987189888954,5.9837475419E-6,1.813159324229E-4,-4.65903431177E-5,-1.363790147E-7,2.74758349E-8,1.571270332E-7,-1.3398047E-9,1.3718491E-9,1.5615438E-9,3.4486874938E-5,9.38886799E-8,9.6557212447E-6,-3.1059426477E-6,-5.6822269968E-6,1.03164830421E-5,-1.4891685192E-6,6.3733236262E-6,1.03422239E-8,-9.7507599E-9,4.3956009E-9,-1.69672705221456,-1.5132E-12,-0.970115880625031,-1.3398047E-9,1.3718491E-9,1.5615438E-9
5520.0,-0.0030753425089642,0.251019781455398,-0.215549503453076,-1.9436702132E-6,1.821180339903E-4,-3.68878245354E-5,-1.301812347E-7,8.6602086E-9,1.635698936E-7,4.1178829E-9,2.0197999E-9,-3.1323513E-9,3.43313440681E-5,9.44758651E-8,9.9068583997E-6,-3.2244624657E-6,-5.9029730495E-6,1.0943254237E-5,-1.3497662071E-6,6.7220625699E-6,6.3442029E-9,-3.4609563E-9,6.431258E-9,-1.76716363988817,-1.5999E-12,-0.986122731562546,4.1178829E-9,2.0197999E-9,-3.1323513E-9
5580.0,-0.0012009100282739,0.249088976532221,-0.207083242945373,-9.8263844848E-6,1.820850884542E-4,-2.71517783403E-5,-1.322052867E-7,-3.8007784E-9,1.668220193E-7,2.8254501E-9,3.4088022E-9,-4.6235158E-9,3.42298299074E-5,9.50630501E-8,1.01524304486E-5,-3.3449454644E-6,-6.1200431519E-6,1.16104965384E-5,-1.1976457935E-6,7.0968615522E-6,8.499246E-9,-4.1337973E-9,1.03684602E-8,-1.82283532130532,-1.7057E-12,-1.00777220953125,2.8254501E-9,3.4088022E-9,-4.6235158E-9
5640.0,7.186477887444E-4,0.245731118135154,-0.197622778825462,-1.76504254341E-5,1.812049886212E-4,-1.72900035977E-5,-1.244770829E-7,-1.34159563E-8,1.681216872E-7,3.1953959E-9,3.2525881E-9,-2.7229605E-9,3.42959538102E-5,9.56502459E-8,1.04100955667E-5,-3.4546021661E-6,-6.3439382333E-6,1.23233381477E-5,-1.0503239874E-6,7.5024151098E-6,1.39573971E-8,-9.315112E-9,6.2713004E-9,-1.86272608529544,-1.833E-12,-1.03470618531253,3.1953959E-9,3.2525881E-9,-2.7229605E-9
5700.0,0.0026719523593783,0.24095667200163,-0.187207479029894,-2.53245234489E-5,1.795065472834E-4,-7.4990093708E-6,-1.234939191E-7,-2.98177838E-8,1.696295726E-7,-3.412639E-10,-5.639105E-10,-3.9666022E-9,3.39820981026E-5,8.62374419E-8,1.06734154922E-5,-3.5779146511E-6,-6.5751104393E-6,1.3092445895E-5,-8.7951638E-7,7.9482237609E-6,9.9407345E-9,-6.4828926E-9,4.2451037E-9,-1.88609537610319,-1.9847E-12,-1.066864835312,-3.412639E-10,-5.639105E-10,-3.9666022E-9
5760.0,0.0046469199005514,0.234783873893321,-0.175881016068161,-3.28179448843E-5,1.769870286807E-4,2.4037435651E-6,-1.253779374E-7,-3.82369763E-8,1.609216014E-7,2.1175115E-9,-3.7459063E-9,2.1550344E-9,3.4018419683E-5,8.68246268E-8,1.09254561043E-5,-3.7015810363E-6,-6.8164046488E-6,1.39137888402E-5,-7.133031999E-7,8.4393513891E-6,1.37455965E-8,-3.0506217E-9,4.4359454E-9,-1.89249084424227,-2.1634E-12,-1.10278662390601,2.1175115E-9,-3.7459063E-9,2.1550344E-9
5820.0,0.0066312390845269,0.227238615974784,-0.1636917386204,-4.01409342885E-5,1.73662789166E-4,1.23362988234E-5,-1.203679858E-7,-5.47343006E-8,1.637187097E-7,7.128831E-10,2.1683102E-9,4.0564654E-9,3.43639403582E-5,8.7411812E-8,1.11872094756E-5,-3.8254954186E-6,-7.0561161727E-6,1.4808488833E-5,-5.215901928E-7,8.984055154E-6,1.27446353E-8,-6.3706983E-9,7.030095E-9,-1.88175780361053,-2.372E-12,-1.14084894468795,7.128831E-10,2.1683102E-9,4.0564654E-9
5880.0,0.0086125321686268,0.218354424461722,-0.150692422874272,-4.7265086323E-5,1.695491373539E-4,2.21570953727E-5,-1.164230525E-7,-6.52953531E-8,1.653858135E-7,-3.1408032E-9,-4.048291E-10,-7.875878E-10,3.44328582287E-5,8.79990079E-8,1.14502600594E-5,-3.9508652811E-6,-7.3114023837E-6,1.57659522992E-5,-3.280694604E-7,9.5809224872E-6,1.43886951E-8,-3.7379529E-9,2.253389E-9,-1.85404374753125,-2.6133E-12,-1.17980357156193,-3.1408032E-9,-4.048291E-10,-7.875878E-10
5940.0,0.0105781718157232,0.208172199316323,-0.136939848773181,-5.40879555047E-5,1.646680757403E-4,3.17357480526E-5,-1.167827577E-7,-7.7156983E-8,1.548030468E-7,4.6663295E-9,4.730301E-9,3.2522705E-9,3.46070155501E-5,8.85861928E-8,1.17230606047E-5,-4.076566253E-6,-7.5618699669E-6,1.68095223558E-5,-1.214414037E-7,1.02539116598E-5,1.62085092E-8,-1.23932385E-8,1.03705363E-8,-1.80979827267583,-2.8902E-12,-1.21765205093789,4.6663295E-9,4.730301E-9,3.2522705E-9
6000.0,0.0125154228881001,0.196740278974175,-0.122494417242706,-6.06891699135E-5,1.590540632606E-4,4.12501394749E-5,-1.091339072E-7,-9.75651346E-8,1.592959507E-7,-5.868257E-10,4.0157251E-9,-3.780452E-10,3.47830355167E-5,8.9173378E-8,1.19901500375E-5,-4.2048217479E-6,-7.8132432545E-6,1.7949343968E-5,1.017173394E-7,1.1001690098E-5,1.58162151E-8,-9.5270903E-9,1.6843559E-9,-1.74976796843112,-3.2057E-12,-1.25268425468789,-5.868257E-10,4.0157251E-9,-3.780452E-10
6060.0,0.0144117227755487,0.184114136733115,-0.107420528307557,-6.70240260661E-5,1.52685213834E-4,5.04739582539E-5,-1.06382231E-7,-1.047410478E-7,1.554089977E-7,1.542503E-9,3.497477E-9,-1.8857147E-9,3.50261107087E-5,8.97605739E-8,1.22536366833E-5,-4.3372731845E-6,-8.0811023001E-6,1.919894664E-5,3.405899996E-7,1.18441573251E-5,1.09066828E-8,-1.22834407E-8,6.5349539E-9,-1.67498759779846,-3.5627E-12,-1.2837557025,1.542503E-9,3.497477E-9,-1.8857147E-9
6120.0,0.0162589643150568,0.170361259952188,-0.0917857363820076,-7.2926748544E-5,1.456178724766E-4,5.9412792325E-5,-9.69348548E-8,-1.174294084E-7,1.449297997E-7,-4.3775676E-9,-2.085323E-9,-2.925896E-9,3.5222619772E-5,9.03477591E-8,1.25262857221E-5,-4.4624756366E-6,-8.3547621589E-6,2.05718131401E-5,5.893790692E-7,1.2815079657E-5,9.2586564E-9,-7.7633812E-9,5.29884E-9,-1.58676493930398,-3.9644E-12,-1.30890918218802,-4.3775676E-9,-2.085323E-9,-2.925896E-9
6180.0,0.0180361238308251,0.155540761072189,-0.0756607064977288,-7.85738229752E-5,1.379367895424E-4,6.80517405272E-5,-8.95929588E-8,-1.302842065E-7,1.453618097E-7,3.7644448E-9,-2.2148114E-9,1.5683819E-9,3.52747738361E-5,9.0934944E-8,1.27955888254E-5,-4.6058148315E-6,-8.6214474073E-6,2.21020990319E-5,8.531178534E-7,1.391511445E-5,8.7357065E-9,-1.30289589E-8,8.3879882E-9,-1.48666119773407,-4.4136E-12,-1.32738662687507,3.7644448E-9,-2.2148114E-9,1.5683819E-9
6240.0,0.0197359751909971,0.13973285490647,-0.0591188324615359,-8.38730484247E-5,1.295520924032E-4,7.64029100537E-5,-8.25780262E-8,-1.361431714E-7,1.433691068E-7,2.0164768E-9,-5.1406008E-9,-1.5858426E-9,3.53790819645E-5,9.15221401E-8,1.30682552461E-5,-4.7327945489E-6,-8.900998185E-6,2.38090318292E-5,1.1442952579E-6,1.519036009E-5,1.72869945E-8,-5.1069976E-9,6.2488449E-9,-1.37646645086352,-4.9134E-12,-1.33824593562508,2.0164768E-9,-5.1406008E-9,-1.5858426E-9
6300.0,0.0213471297174692,0.123018703889102,-0.0422360859811306,-8.87271016836E-5,1.205476000905E-4,8.44318419695E-5,-8.14270606E-8,-1.475300451E-7,1.326552592E-7,-3.8153334E-9,-1.0802923E-9,-1.1863825E-9,3.53595241904E-5,9.21093251E-8,1.33346448079E-5,-4.8765894319E-6,-9.1814261239E-6,2.57506581338E-5,1.4406584714E-6,1.66763871912E-5,1.29478483E-8,-1.09929344E-8,9.3612889E-9,-1.25817044131691,-5.4663E-12,-1.34193716812501,-3.8153334E-9,-1.0802923E-9,-1.1863825E-9
6360.0,0.0228586718440056,0.105485321953893,-0.0250904769636691,-9.32007096708E-5,1.108841970563E-4,9.21371392906E-5,-7.38809831E-8,-1.555663403E-7,1.322387106E-7,3.19528E-10,1.7995374E-9,5.753966E-10,3.56575474143E-5,9.26965091E-8,1.36127617218E-5,-5.0206971582E-6,-9.475719957E-6,2.79657607227E-5,1.76586095E-6,1.8421012199E-5,1.38401495E-8,-7.6546593E-9,8.2375458E-9,-1.13392825360643,-6.0742E-12,-1.33733925749993,3.19528E-10,1.7995374E-9,5.753966E-10
6420.0,0.0242606112733483,0.0872251209802926,-0.0077619259245694,-9.72650013864E-5,1.007318496704E-4,9.94419679046E-5,-7.22075129E-8,-1.72779437E-7,1.236139724E-7,-3.3122309E-9,-2.5627367E-9,4.6108282E-9,3.58764082193E-5,9.32837061E-8,1.38815406482E-5,-5.1574565075E-6,-9.7703811726E-6,3.05326805332E-5,2.126104397E-6,2.05173961931E-5,1.81725359E-8,-1.20363504E-8,3.4210616E-9,-1.00602284952765,-6.7381E-12,-1.32527588125004,-3.3122309E-9,-2.5627367E-9,4.6108282E-9
6480.0,0.0255433851853013,0.0683347571175545,0.0096682803705335,-1.009260304272E-4,9.01436433196E-5,1.062853261828E-4,-5.67870302E-8,-1.743810571E-7,1.166145012E-7,4.234879E-10,-4.976259E-10,4.6615023E-9,3.57553362846E-5,8.38708911E-8,1.41532790584E-5,-5.3031241835E-6,-1.00662485201E-5,3.35547954151E-5,2.498376523E-6,2.3061265424E-5,1.42404197E-8,-1.10622928E-8,5.4853396E-9,-0.876823554513975,-7.4577E-12,-1.30618470937497,4.234879E-10,-4.976259E-10,4.6615023E-9
6540.0,0.0266980957239866,0.0489155480172485,0.0271179173141718,-1.041151117533E-4,7.89146870375E-5,1.12749170512E-4,-5.23205017E-8,-1.905359568E-7,1.095631887E-7,-4.7823931E-9,3.386935E-10,-4.90357E-9,3.59006226063E-5,8.44580759E-8,1.44151989103E-5,-5.4501241457E-6,-1.03622458703E-5,3.7197721674E-5,2.924210976E-6,2.6190652624E-5,1.04258247E-8,-1.16406734E-8,5.0327439E-9,-0.748741917719599,-8.2315E-12,-1.28076441218786,-4.7823931E-9,3.386935E-10,-4.90357E-9
6600.0,0.0277170548215508,0.0290725079830736,0.0445039556361735,-1.068699639291E-4,6.72303140163E-5,1.187627203763E-4,-5.08680387E-8,-1.910880201E-7,9.67511369E-8,-1.599485E-9,-3.6453827E-9,-8.688161E-10,3.60738486052E-5,8.50452717E-8,1.4680251642E-5,-5.6069991474E-6,-1.06727590353E-5,4.16798319631E-5,3.3788856519E-6,3.01635005711E-5,1.51970466E-8,-1.06673419E-8,2.6932748E-9,-0.62418680236442,-9.0557E-12,-1.24997690812506,-1.599485E-9,-3.6453827E-9,-8.688161E-10
6660.0,0.028593267314136,0.0089136969763786,0.0617431071586907,-1.091540325433E-4,5.50867989659E-5,1.242063008249E-4,-4.24633981E-8,-2.026072252E-7,9.35460776E-8,4.668822E-9,-4.7693094E-9,-1.0475931E-9,3.62172722816E-5,8.56324571E-8,1.49474091847E-5,-5.7565057565E-6,-1.09794122969E-5,4.73608630944E-5,3.907036294E-6,3.5324691537E-5,1.71081388E-8,-1.50295299E-8,9.1233183E-9,-0.505517515470274,-9.9246E-12,-1.21521154312495,4.668822E-9,-4.7693094E-9,-1.0475931E-9
6720.0,0.0293208388611674,-0.011450168909505,0.0787523351609707,-1.109589356929E-4,4.25213947892E-5,1.291469670832E-4,-2.73003025E-8,-2.141368896E-7,8.11778591E-8,-2.3920088E-9,-9.105428E-10,-8.34541E-11,3.62973660231E-5,8.6219641E-8,1.52118058995E-5,-5.9122027108E-6,-1.12980727813E-5,5.48568533119E-5,4.516964021E-6,4.22777932811E-5,1.47982305E-8,-1.16095187E-8,5.0043761E-9,-0.394997674913611,-1.083E-11,-1.1777010487499,-2.3920088E-9,-9.105428E-10,-8.34541E-11
6780.0,0.0298948949202895,-0.031906004587654,0.0954490948934108,-1.122526591644E-4,2.95853242278E-5,1.335188280791E-4,-1.93222149E-8,-2.198194125E-7,7.09915184E-8,-2.7958487E-9,4.7587818E-9,3.1321248E-9,3.63904982805E-5,8.68068379E-8,1.54752081656E-5,-6.0737886589E-6,-1.16119584707E-5,6.52263429379E-5,5.2549842831E-6,5.2113791021E-5,1.69906797E-8,-1.72882495E-8,1.10417789E-8,-0.294750275148544,-1.17611E-11,-1.138581492188,-2.7958487E-9,4.7587818E-9,3.1321248E-9
6840.0,0.0303116077557206,-0.0523399962985422,0.111751888878644,-1.130424789153E-4,1.62832438946E-5,1.373798586428E-4,-1.56578608E-8,-2.20803031E-7,6.34508979E-8,-1.036462E-10,-2.8383607E-9,4.1759369E-9,3.66391614079E-5,8.73940231E-8,1.57373859978E-5,-6.2413507236E-6,-1.19317621203E-5,8.05326410678E-5,6.2140742398E-6,6.68592411441E-5,1.24920674E-8,-8.9488675E-9,7.9633866E-9,-0.206714742467739,-1.27047E-11,-1.09930834687498,-1.036462E-10,-2.8383607E-9,4.1759369E-9
6900.0,0.0305683109909296,-0.0726367334136739,0.127580482978374,-1.133041587309E-4,2.6198104024E-6,1.406199298799E-4,-5.1686584E-9,-2.2793688E-7,5.36383595E-8,-4.4015976E-9,4.4050754E-9,2.39998E-10,3.67723405361E-5,8.7981207E-8,1.59890415537E-5,-6.398591295E-6,-1.22537267802E-5,1.048235592882E-4,7.63404744E-6,9.0573185177E-5,2.01910397E-8,-1.34801942E-8,6.5182808E-9,-0.132607188657857,-1.36448E-11,-1.06131859156199,-4.4015976E-9,4.4050754E-9,2.39998E-10
6960.0,0.030663600191474,-0.092681055306457,0.14285652898252,-1.130333985202E-4,-1.1257827282E-5,1.43253011629E-4,5.9953891E-9,-2.307964451E-7,4.16221155E-8,3.7538643E-9,3.0840646E-9,3.4160621E-9,3.69241461158E-5,8.85684039E-8,1.62370100047E-5,-6.5750085153E-6,-1.25866180005E-5,1.419073056357E-4,1.01705011379E-5,1.270797635522E-4,1.90570021E-8,-1.77801198E-8,7.4754524E-9,-0.0738847451284528,-1.4564E-11,-1.02559177124999,3.7538643E-9,3.0840646E-9,3.4160621E-9
7020.0,0.0305971745401621,-0.112358424928971,0.157503884285688,-1.122107496485E-4,-2.53096222878E-5,1.452773576602E-4,1.65337042E-8,-2.384780942E-7,3.58895704E-8,-1.8608587E-9,-5.247625E-10,3.8120156E-9,3.67546454072E-5,8.91555891E-8,1.64824872341E-5,-6.7469175812E-6,-1.29185321188E-5,4.4725589059E-5,1.44856976469E-5,2.9296138035E-5,1.81386742E-8,-1.87589117E-8,1.16224889E-8,-0.031714377575554,-1.54427E-11,-0.993874621874966,-1.8608587E-9,-5.247625E-10,3.8120156E-9
7080.0,0.030369782820344,-0.131555245025083,0.17144897649996,-1.108518335968E-4,-3.96007671952E-5,1.466428511776E-4,2.36877895E-8,-2.4488088E-7,2.64108166E-8,-1.9219519E-9,-3.4540779E-9,2.4386682E-9,3.67630273104E-5,8.9742773E-8,1.67330549287E-5,-6.9271172069E-6,-1.32544590081E-5,-2.538132120415E-4,5.8567710499E-6,-2.69839727312E-4,1.65625105E-8,-1.33424326E-8,9.7642644E-9,-0.0069473800831474,-1.6261E-11,-0.966617225624987,-1.9219519E-9,-3.4540779E-9,2.4386682E-9
7140.0,0.0299835158511996,-0.150159983895719,0.184621250889904,-1.088900025934E-4,-5.41433691978E-5,1.473244192312E-4,3.45753506E-8,-2.423702199E-7,6.6174835E-9,2.2694711E-9,-2.0173889E-9,-4.44296E-11,3.70843335986E-5,9.03299699E-8,1.69692666207E-5,-7.1029295504E-6,-1.358548132E-5,-1.438756730284E-4,-1.79950272E-7,-1.605040046524E-4,1.35309944E-8,-1.84752634E-8,1.27216371E-8,-1.003684010357E-4,-1.6999E-11,-0.944582545000003,2.2694711E-9,-2.0173889E-9,-4.44296E-11
7200.0,0.0294416816905141,-0.16806322010234,0.196953553881031,-1.063630916178E-4,-6.87884166837E-5,1.473010634072E-4,4.09236236E-8,-2.410770321E-7,2.0072548E-9,8.53976E-10,-1.2287487E-9,3.0461217E-9,3.73739749193E-5,9.09171551E-8,1.7206528358E-5,-7.2822744222E-6,-1.39304414489E-5,-8.98551400522E-5,-2.6298412319E-6,-1.071082209791E-4,1.83208134E-8,-1.11237277E-8,1.1330156E-8,-0.0113427377073094,-1.76378E-11,-0.928192080624967,8.53976E-10,-1.2287487E-9,3.0461217E-9
7260.0,0.0287487860769033,-0.185158818028867,0.208382469019853,-1.032340805978E-4,-8.34353268147E-5,1.465526875108E-4,5.20258254E-8,-2.410361049E-7,-1.01845217E-8,1.947396E-9,-2.665395E-9,-4.9773319E-9,3.74084338546E-5,8.15043388E-8,1.74329560662E-5,-7.4773807077E-6,-1.42708432669E-5,-6.2292418396E-5,-4.075607954E-6,-8.01619572832E-5,2.02809226E-8,-1.82788123E-8,6.4387829E-9,-0.040491052903235,-1.81606E-11,-0.917829421249962,1.947396E-9,-2.665395E-9,-4.9773319E-9
7320.0,0.0279104383662343,-0.2013445480261,0.218848729040474,-9.95059963316E-5,-9.80328768492E-5,1.450520940125E-4,6.79856385E-8,-2.472961569E-7,-2.46163836E-8,9.25513E-10,-2.9690455E-9,8.577101E-10,3.73171642423E-5,8.2091536E-8,1.76538202212E-5,-7.6656908601E-6,-1.46196799172E-5,-4.58320612761E-5,-5.1506771308E-6,-6.43411971217E-5,1.88305027E-8,-1.69589825E-8,8.9086297E-9,-0.0870108386734501,-1.85537E-11,-0.912831110312027,9.25513E-10,-2.9690455E-9,8.577101E-10
7380.0,0.0269333096221089,-0.216522607952356,0.228297448949888,-9.51807014644E-5,-1.126080751419E-4,1.427808310837E-4,7.65185177E-8,-2.470060281E-7,-3.94784365E-8,4.5070259E-9,-4.7940816E-9,-1.1732191E-9,3.72370705009E-5,8.26787212E-8,1.7873099291E-5,-7.8574787244E-6,-1.49647937792E-5,-3.48738468879E-5,-6.0493330769E-6,-5.40181877637E-5,1.34568231E-8,-1.4212887E-8,9.6117175E-9,-0.150025820476003,-1.88071E-11,-0.912880058750034,4.5070259E-9,-4.7940816E-9,-1.1732191E-9
7440.0,0.0258214185014367,-0.230591302737594,0.236678571905941,-9.02488827705E-5,-1.271422952414E-4,1.397498417646E-4,7.94620973E-8,-2.469400897E-7,-5.69998519E-8,-2.630907E-9,-3.6902286E-9,9.874039E-10,3.73339280486E-5,8.32659048E-8,1.8082559421E-5,-8.0596772428E-6,-1.53172827287E-5,-2.69895189875E-5,-6.8608878649E-6,-4.67790000349E-5,1.37130147E-8,-1.71219534E-8,9.4297573E-9,-0.228334521234501,-1.8915E-11,-0.917470473124922,-2.630907E-9,-3.6902286E-9,9.874039E-10
7500.0,0.0245906226336956,-0.243480592034757,0.243946987204254,-8.46930779517E-5,-1.414828002453E-4,1.358948647976E-4,9.23218977E-8,-2.421820682E-7,-6.57837518E-8,-3.1827159E-9,2.2568507E-9,2.4985809E-9,3.7488527596E-5,8.3853102E-8,1.82886620216E-5,-8.2654009395E-6,-1.56653705905E-5,-2.09969639448E-5,-7.624956577E-6,-4.14294363411E-5,1.92157623E-8,-2.28028692E-8,9.2529575E-9,-0.320433773566037,-1.88765E-11,-0.925476194375051,-3.1827159E-9,2.2568507E-9,2.4985809E-9
7560.0,0.0232472764328122,-0.255100372713059,0.250062990002334,-7.85309821367E-5,-1.555839553475E-4,1.312918029726E-4,1.003891157E-7,-2.368196874E-7,-7.58782335E-8,1.0431487E-9,-1.3089121E-9,-4.9501718E-9,3.75546514988E-5,8.4440287E-8,1.8487476623E-5,-8.4686480273E-6,-1.60240623172E-5,-1.62388558304E-5,-8.374862573E-6,-3.73143033507E-5,1.96429235E-8,-1.840995E-8,9.9788595E-9,-0.424548480601516,-1.86949E-11,-0.935775249688049,1.0431487E-9,-1.3089121E-9,-4.9501718E-9
7620.0,0.021802113391459,-0.265376038849354,0.254992325790226,-7.17737711966E-5,-1.69319100678E-4,1.258649863303E-4,1.143789632E-7,-2.307342584E-7,-9.12368705E-8,-1.1928876E-9,6.547198E-10,2.2186391E-9,3.74102964997E-5,8.50274708E-8,1.86876467064E-5,-8.6736781305E-6,-1.63808086422E-5,-1.2332054554E-5,-9.113435876E-6,-3.40537880033E-5,1.47310824E-8,-2.11373914E-8,1.25112046E-8,-0.538667487970088,-1.83783E-11,-0.947218753125071,-1.1928876E-9,6.547198E-10,2.2186391E-9
7680.0,0.0202662795782089,-0.274239784106612,0.258706423919648,-6.44428655505E-5,-1.82744115591E-4,1.195501536131E-4,1.257812983E-7,-2.25646545E-7,-1.094267645E-7,2.9872211E-9,-4.1023176E-9,4.2837573E-9,3.75146046281E-5,8.5614668E-8,1.88713245237E-5,-8.8885825753E-6,-1.67473137255E-5,-9.0329997213E-6,-9.851710693E-6,-3.13990614109E-5,1.42730451E-8,-1.82214073E-8,7.7588338E-9,-0.660584225261118,-1.7938E-11,-0.958327795937976,2.9872211E-9,-4.1023176E-9,4.2837573E-9
7740.0,0.0186520386487246,-0.281631654128432,0.261182740796357,-5.65350055695E-5,-1.956950873137E-4,1.123989932239E-4,1.327171049E-7,-2.163415047E-7,-1.17923264E-7,-2.7181972E-9,-7.141896E-10,-3.1684699E-9,3.73627990484E-5,8.6201853E-8,1.90528601526E-5,-9.1125942763E-6,-1.71075349915E-5,-6.1990692737E-6,-1.05890838977E-5,-2.91933509793E-5,1.81152853E-8,-1.6942252E-8,6.6346227E-9,-0.78794189565815,-1.73889E-11,-0.967974189687993,-2.7181972E-9,-7.141896E-10,-3.1684699E-9
