time,gePosition_m_X,gePosition_m_Y,gePosition_m_Z,eiPosition_m_X,eiPosition_m_Y,eiPosition_m_Z,eiVelocity_m_s_X,eiVelocity_m_s_Y,eiVelocity_m_s_Z,eiAccel_m_s2_X,eiAccel_m_s2_Y,eiAccel_m_s2_Z,semiMajorAxis_m,gast_rad,eulerAngle_rad_Roll,eulerAngle_rad_Pitch,eulerAngle_rad_Yaw,eulerAngleWrtEi_rad_Roll,eulerAngleWrtEi_rad_Pitch,eulerAngleWrtEi_rad_Yaw,bodyAngularRateWrtEi_rad_s_Roll,bodyAngularRateWrtEi_rad_s_Pitch,bodyAngularRateWrtEi_rad_s_Yaw,altitudeMsl_m,airDensity_kg_m3,ambientTemperature_dgK,eiGravitation_m_s2_X,eiGravitation_m_s2_Y,eiGravitation_m_s2_Z
0.0,-1436381.46541304,4185811.71030584,5163944.67156165,-4315967.74,960356.2,5167269.53,129.091037,-7491.513855,1452.515654,5.46941408349186,-1.21701227670639,-6.54822705894005,6759053.07578957,1.02331944621101,-0.0,-0.202458193231342,-0.0,-2.47159390556423,-0.0371889647578404,-1.42899313520437,0.0,-0.0011222300308759,0.0,434989.540811728,1.6157E-12,978.026450176724,5.46941408349186,-1.21701227670639,-6.54822705894005
60.0,-1794950.03469682,3943126.03027672,5239239.62039872,-4298383.7549705,509016.725547943,5242568.014416,456.873453273778,-7547.42173400794,1056.41305957744,5.45257924198934,-0.645697124724796,-6.65029442684512,6759053.07578961,1.02769471546425,-2.2748251115E-6,-0.202436783814225,-9.84487641759E-5,-2.47206607806188,0.0155466178805696,-1.38711810685882,-6.889618803E-7,-0.0011222532656527,-3.2320057447E-6,433093.864997596,1.7266E-12,985.077038121306,5.45257924198934,-0.645697124724796,-6.65029442684512
120.0,-2147547.17176179,3685627.21460426,5290617.59970953,-4261177.84165868,55353.9685752154,5293934.33527938,782.910113090192,-7568.91571402678,655.07337670353,5.41122605044219,-0.0702934371387564,-6.72271293263913,6759053.07578964,1.0320699847175,-2.42817887637E-5,-0.202369870526059,-3.917225306795E-4,-2.47036918158509,0.0681368922249392,-1.34502342274972,-1.5312656128E-6,-0.0011222708974034,-6.473095111E-6,430905.28080473,1.8592E-12,992.842921583234,5.41122605044219,-0.0702934371387564,-6.72271293263913
180.0,-2492684.25224873,3414408.90504188,5317817.99932331,-4204498.84971835,-398561.363029079,5321107.91929486,1105.73160265982,-7555.82484024784,250.289448678991,5.34542737930087,0.506714568945523,-6.76503834979497,6759053.07578959,1.03644525395931,-8.88769577379E-5,-0.20225357920116,-8.755368662213E-4,-2.46648039936564,0.120488900626216,-1.30247694514429,-2.5267258113E-6,-0.0011222824805083,-9.7225546384E-6,428429.879579339,2.0161E-12,1001.2753911964,5.34542737930087,0.506714568945523,-6.76503834979497
240.0,-2828892.49299088,3130615.64256022,5320688.44023237,-4128583.6023506,-850652.794750067,5323936.4926294,1423.87589009516,-7508.12814381677,-156.122774234382,5.25535668534834,1.08281296502138,-6.77694529983116,6759053.07578961,1.04082052320969,-2.189426648466E-4,-0.20208426994129,-0.0015440559269402,-2.46035043375264,0.172506195324247,-1.25924234340586,-3.6751221562E-6,-0.0011222875114847,-1.29796645949E-5,425676.596111968,2.2E-12,1010.28929728583,5.25535668534834,1.08281296502138,-6.77694529983116
300.0,-3154729.04301722,2835438.41961788,5299185.94499444,-4033756.27141947,-1298847.1330198,5302377.25117315,1735.89440574259,-7425.95617001195,-562.331476724263,5.14128947640569,1.65546667848239,-6.75823092102596,6759053.07578958,1.04519579246293,-4.372813416817E-4,-0.201858572520534,-0.0023899189884439,-2.45190316153107,0.224086882429818,-1.21507577851308,-4.9761988946E-6,-0.0011222854295503,-1.62436984384E-5,422657.223048689,2.4135E-12,1019.76740038158,5.14128947640569,1.65546667848239,-6.75823092102596
360.0,-3468783.08032206,2530110.05351029,5253377.66742358,-3920427.38526259,-1741083.58875547,5256497.58980605,2040.35820270603,-7309.59197714158,-966.49643416778,5.0036045124875,2.22212857048777,-6.70881831891689,6759053.07578961,1.04957106170188,-7.6650748101E-4,-0.201573418951539,-0.0034042745618368,-2.44103501701149,0.275121544800159,-1.16972271555515,-6.4296642768E-6,-0.0011222756172598,-1.95139222854E-5,419386.386702628,2.6593E-12,1029.57097163731,5.0036045124875,2.22212857048777,-6.70881831891689
420.0,-3769681.89219769,2215900.39164169,5183441.16916758,-3789092.46488668,-2175322.94417949,5186475.37826293,2335.86418042513,-7159.47157516543,-1366.77666753664,4.84278469880804,2.780249035003,-6.62875974533587,6759053.07578958,1.05394633095227,-0.0012289380867216,-0.20122607242909,-0.0045768219585239,-2.42761422171641,0.325490995822605,-1.12291492928797,-8.0351899357E-6,-0.0011222574012124,-2.27895943893E-5,415881.483378133,2.9401E-12,1039.55380640356,4.84278469880804,2.780249035003,-6.62875974533587
480.0,-4056096.91565647,1894111.35986483,5089664.23174969,-3640330.28534661,-2599556.72836456,5092598.77217143,2621.04135141869,-6976.18377266978,-1761.33827945768,4.65941762361238,3.32728612084399,-6.51823944782059,6759053.07578962,1.05832160020265,-0.0018464820321008,-0.200814151923352,-0.0058958601143473,-2.41148003921754,0.375063822392032,-1.07436783290114,-9.7924102078E-6,-0.001122230052833,-2.60699646292E-5,412162.575819702,3.2586E-12,1049.57564276436,4.65941762361238,3.32728612084399,-6.51823944782059
540.0,-4326749.71187633,1566071.86760629,4972444.19383741,-3474800.76038681,-3011816.36506649,4975265.54902249,2894.55712842805,-6760.46940100273,-2148.36244979966,4.45419569213631,3.86071616874267,-6.3775761270477,6759053.07578959,1.06269686945303,-0.0026405288117689,-0.200335651768437,-0.0073483434334922,-2.39244232233723,0.4236936869222,-1.02377835444498,-1.17009213992E-5,-0.0011221927892272,-2.93542740122E-5,408252.249931073,3.6175E-12,1059.5117554252,4.45419569213631,3.86071616874267,-6.3775761270477
600.0,-4580417.84842357,1233132.58321424,4832286.80491386,-3293242.44987752,-3410182.25455711,4834981.96024711,3155.12360624466,-6513.21988517532,-2526.05356531126,4.22791580717372,4.37804494470833,-6.20722493659363,6759053.0757896,1.06707213870913,-0.0036318372357928,-0.199788955681582,-0.0089199443664075,-2.37028174740412,0.471216379018447,-0.970823718300882,-1.37602809992E-5,-0.0011221447741112,-3.26417541898E-5,404175.432480474,4.0196E-12,1069.25748898706,4.22791580717372,4.37804494470833,-6.20722493659363
660.0,-4815940.66101501,896660.594837502,4669804.58817306,-3096469.69121065,-3792792.74938619,4672361.09222003,3401.50380953292,-6235.4751325987,-2892.64745381786,3.98147854685284,4.87681923940804,-6.00777895699364,6759053.07578959,1.0714474079538,-0.0048404246745666,-0.199172844752826,-0.010595122394618,-2.34475130640611,0.51744664317382,-0.915161670258146,-1.59700068437E-5,-0.0011220851188176,-3.59316269909E-5,399959.171110083,4.4677E-12,1078.72839070159,3.98147854685284,4.87681923940804,-6.00777895699364
720.0,-5032224.86540142,558033.973921069,4485714.7073531,-2885369.35762981,-4157852.98232733,4488120.7309052,3632.51787502515,-5928.42071290877,-3246.41968936125,3.71588679137415,5.35463889108365,-5.77997007487552,6759053.07578958,1.07582267720419,-0.0062854575177206,-0.198486499063029,-0.0123571990592596,-2.31557985889435,0.562174867372933,-0.856432920263509,-1.83295762316E-5,-0.0011220128833784,-3.9223103973E-5,395632.378600569,4.9642E-12,1087.85757284423,3.71588679137415,5.35463889108365,-5.77997007487552
780.0,-5228249.9892477,218636.258308666,4280836.33436047,-2660897.24845206,-4503643.50324189,4283080.72699827,3847.04913363253,-5593.38430505624,-3585.69393050871,3.43224375272009,5.80916917685286,-5.52466919802615,6759053.07578956,1.08019794645171,-0.0079851435575195,-0.197729492717317,-0.0141884386403382,-2.28247882610501,0.60516380869032,-0.794266861457358,-2.08384249963E-5,-0.0011219270776852,-4.25153859931E-5,391225.543995107,5.5114E-12,1096.59196262918,3.43224375272009,5.80916917685286,-5.52466919802615
840.0,-5403073.59249387,-120149.124808066,4056087.51692803,-2424074.11828713,-4828528.68027266,4058159.86081266,4044.05005535284,-5231.83139153664,-3908.85024994633,3.13175036476534,6.23815350431976,-5.2428857387234,6759053.07578958,1.08457321569067,-0.0099566270452472,-0.196901782219266,-0.0160701340702553,-2.24515340904207,0.646145666582415,-0.728291926784353,-2.34959465376E-5,-0.0011218266627286,-4.58076628006E-5,386770.41385463,6.1108E-12,1104.88860571229,3.13175036476534,6.23815350431976,-5.2428857387234
900.0,-5555836.24442121,-456944.475826141,3812481.54818025,-2175981.35466125,-5130964.8197018,3814372.20878827,4222.5480174349,-4845.36018410729,-4214.33340949295,2.81570199583598,6.63942632249601,-4.93576630063469,6759053.07578955,1.08894848494105,-0.0122158871959669,-0.196003688255908,-0.0179826976477068,-2.20331995089211,0.684820000555073,-0.658152185999456,-2.63014908141E-5,-0.0011217105519175,-4.90991126539E-5,382299.647582307,6.7631E-12,1112.71169052807,2.81570199583598,6.63942632249601,-4.93576630063469
960.0,-5685766.22497491,-790383.457975985,3551122.84284392,-1917756.31588993,-5409507.95802185,3552823.01636852,4381.65085415027,-4435.69577058022,-4500.66103091702,2.48548445159963,7.01092615837816,-4.60459250912255,6759053.07578955,1.09332375419143,-0.0147776409320629,-0.1950358711115,-0.0199057561065648,-2.15673108494765,0.720853223652391,-0.583531809159883,-2.92543633038E-5,-0.0011215776124785,-5.23889019623E-5,377846.451405959,7.4679E-12,1120.03032451707,2.48548445159963,7.01092615837816,-4.60459250912255
1020.0,-5792183.91783113,-1119116.72655542,3273202.32792152,-1650587.34359683,-5662821.2793198,3274704.08507232,4520.552144802,-4004.68347826532,-4766.43160950603,2.14256924320603,7.35070867343734,-4.25077793095623,6759053.07578956,1.09769902344753,-0.0176552506577038,-0.193999300076575,-0.0218182495875667,-2.10520985271517,0.753880659981306,-0.504188568270678,-3.23538239334E-5,-0.0011214266669375,-5.56761849544E-5,373444.196221701,8.223E-12,1126.81719810969,2.14256924320603,7.35070867343734,-4.25077793095623
1080.0,-5874505.86279716,-1441817.52864308,2979992.35891908,-1375708.46691858,-5889682.11100608,2981288.68486435,4638.5361953349,-3554.28145632442,-5010.33231432354,1.78850810379337,7.65695962306268,-3.87586403721893,6759053.0757895,1.10207429269791,-0.0208606378447811,-0.192895217364071,-0.0236985340578285,-2.04869269417724,0.783512363336978,-0.41999626778707,-3.55990859821E-5,-0.001121256494683,-5.89601033766E-5,369126.025061545,9.0248E-12,1133.04780871211,1.78850810379337,7.65695962306268,-3.87586403721893
1140.0,-5932248.43569332,-1757187.24690407,2672841.17615929,-1094393.81813834,-6088988.45127256,2673926.00636792,4734.98266817231,-3086.55248662177,-5231.14651659024,1.42492674575698,7.92800759198617,-3.48151517260044,6759053.0757895,1.10644956193401,-0.0244042031857266,-0.19172509718352,-0.0255244867230268,-1.98727877405729,0.809343924741864,-0.330993558007878,-3.89893149638E-5,-0.0011210658336128,-6.22397862212E-5,364924.456426778,9.8676E-12,1138.70011046065,1.42492674575698,7.92800759198617,-3.48151517260044
1200.0,-5965031.12470037,-2063960.86106821,2353166.91928265,-807951.782221158,-6259764.98247251,2354035.17103897,4809.37081475106,-2603.65504053763,-5427.76098573779,1.05351786143359,8.16233637022416,-3.06951250520735,6759053.07578954,1.11082483119011,-0.0282947540303897,-0.190490600753753,-0.0272736139778894,-1.92127947551109,0.83097316300445,-0.237432954174064,-4.25236274917E-5,-0.0011208533818644,-6.55143494878E-5,360870.990105313,1.07432E-11,1143.75439334647,1.05351786143359,8.16233637022416,-3.06951250520735
1260.0,-5972579.37296776,-2360912.30067767,2022451.22170333,-517718.905444596,-6401168.52591202,2023098.82108586,4861.28326571469,-2107.83360754953,-5599.17269149626,0.676033380940596,8.35859682741641,-2.64174694339406,6759053.0757896,1.11520010044049,-0.0325394397737226,-0.189193528151032,-0.0289231614411749,-1.85125773917332,0.848022708594455,-0.139819731581324,-4.62010901311E-5,-0.0011206177996286,-6.87828959779E-5,356995.722342133,1.16414E-11,1148.19322110507,0.676033380940596,8.35859682741641,-2.64174694339406
1320.0,-5954726.9597847,-2646859.6591905,1682232.41049904,-225053.590988738,-6512492.89534927,1682656.31463424,4890.40933489851,-1601.4083300596,-5744.49514996998,0.294276012649896,8.51561813892549,-2.2002110197632,6759053.07578958,1.11957536967945,-0.0371436957995495,-0.187835767990039,-0.0304502256200399,-1.77804397836591,0.860167005989987,-0.0389274207024789,-5.00207182435E-5,-0.001120357711049,-7.20445151262E-5,353326.977334451,1.25493E-11,1152.00122667964,0.294276012649896,8.51561813892549,-2.2002110197632
1380.0,-5911417.89367539,-2920670.24258486,1334098.34092607,68670.3880714363,-6593173.10883235,1334296.55535043,4896.54779513269,-1086.76398782069,-5862.96425210173,-0.0899098960439703,8.63241821494426,-1.74698975719515,6759053.07578959,1.12395063893269,-0.0421111965148565,-0.186419246016699,-0.0318318667444089,-1.70271608522796,0.867160434672811,0.0642225890810452,-5.3981474829E-5,-0.0011200717062052,-7.52982828688E-5,349890.961961986,1.3452E-11,1155.16523504553,-0.0899098960439703,8.63241821494426,-1.74698975719515
1440.0,-5842707.79332461,-3181265.42410086,979678.898408266,362070.525485067,-6642788.92137505,979650.489396138,4879.60908652037,-566.338384237258,-5953.94351427951,-0.474648127619735,8.70821318437856,-1.28425054729522,6759053.07578959,1.12832590818593,-0.0474438179304097,-0.184945873751889,-0.0330452223034369,-1.62653753604271,0.868861745696521,0.1684233345074,-5.80822693701E-5,-0.0011197583431809,-7.85432615507E-5,346711.45042201,1.43328E-11,1157.67510906874,-0.474648127619735,8.70821318437856,-1.28425054729522
1500.0,-5748764.73574869,-3427625.27559356,620638.204397722,653762.33310651,-6661067.64437275,620383.30613844,4839.61692122068,-42.6101956257976,-6016.92869314305,-0.858040930629492,8.74242578859706,-0.814232087701717,6759053.07578962,1.13270117743631,-0.0531416101593521,-0.183417498361582,-0.0340676208030283,-1.55085917169678,0.865249696259923,0.272380881532762,-6.23219566845E-5,-0.0011194161502166,-8.1778499874E-5,343809.505015566,1.51734E-11,1159.52428007636,-0.858040930629492,8.74242578859706,-0.814232087701717
1560.0,-5629869.55324696,-3658792.94874625,258666.565886113,942366.169550516,-6647886.22158188,258186.382421825,4776.70925286986,481.913646959253,-6051.55170992171,-1.2381798488707,8.73469254639537,-0.339232440952374,6759053.0757896,1.13707644668384,-0.0592027801175481,-0.181835854940208,-0.0348766952450794,-1.47700255408274,0.856426195354793,0.374831350636706,-6.66993357896E-5,-0.0011190436279469,-8.50030328876E-5,341203.238721527,1.59551E-11,1160.70993053836,-1.2381798488707,8.73469254639537,-0.339232440952374
1620.0,-5486415.56471683,-3873878.77869345,-104527.788498137,1226514.10726217,-6603272.53590869,-105230.986633291,4691.13858357764,1004.71096567025,-6057.58383388115,-1.61315695786561,8.68486956074384,0.138403706296907,6759053.07578957,1.14145171592279,-0.0656236846202106,-0.180202522378694,-0.0354504958061634,-1.40614969517934,0.842606171962005,0.474651572337244,-7.12131487878E-5,-0.0011186392517214,-8.82158820216E-5,338907.624412162,1.66594E-11,1161.2329355766,-1.61315695786561,8.68486956074384,0.138403706296907
1680.0,-5318907.73076424,-4072064.08378688,-467227.139999139,1504856.79757911,-6527405.92613742,-468150.024467087,4583.27158689276,1523.25764850298,-6034.93807965528,-1.98107641258771,8.59303685005709,0.616298489342018,6759053.07578954,1.14582698517889,-0.0723988339806427,-0.17851888394663,-0.0357676011661531,-1.3392615260751,0.82409661220341,0.570941010251399,-7.58620797746E-5,-0.001118201474008,-9.14160551655E-5,336934.354619814,1.72685E-11,1161.09763967642,-1.98107641258771,8.59303685005709,0.616298489342018
1740.0,-5127961.22528402,-4252604.63776279,-827712.830507863,1776070.29224582,-6420616.89803687,-828851.029178708,4453.58803117789,2035.04117494663,-5983.67077934548,-2.34006620120474,8.45950110171694,1.09205490778311,6759053.07578956,1.15020225442927,-0.0795209061303958,-0.176786093648814,-0.0358072279073431,-1.27703712052199,0.801269441404599,0.663062941642043,-8.06447537786E-5,-0.0011177287268789,-9.46025467931E-5,335291.754687831,1.7767E-11,1160.31154261504,-2.34006620120474,8.45950110171694,1.09205490778311
1800.0,-4914299.42217288,-4414833.78987027,-1184273.88211833,2038862.77910034,-6283386.01995731,-1185621.99837082,4302.67899438514,2537.57425734886,-5903.98229721852,-2.68828999193688,8.28479676321372,1.563271341805,6759053.07578958,1.15457752367966,-0.0869807711980548,-0.175005049321223,-0.0355493373733788,-1.21991300419475,0.77453341880664,0.750645568780372,-8.55597357372E-5,-0.0011172194245772,-9.77743381351E-5,333984.750957618,1.81419E-11,1158.88496754225,-2.68828999193688,8.28479676321372,1.563271341805
1860.0,-4678751.29821146,-4558165.21350577,-1535215.63328031,2291981.18932055,-6116341.99900979,-1536767.27052194,4131.24436818569,3028.40849620852,-5796.21686253421,-3.02395895420375,8.06968540625815,2.02755640834891,6759053.07578956,1.15895279293004,-0.0947675264067911,-0.173176373311444,-0.0349747393468456,-1.16809254417831,0.744309167203407,0.83355307111919,-9.0605529515E-5,-0.0011166719661616,-1.009303973997E-4,333014.894398122,1.83839E-11,1156.83077873846,-3.02395895420375,8.06968540625815,2.02755640834891
1920.0,-4422248.2593091,-4682095.26392738,-1878868.33814272,2534217.63371052,-5920258.94012935,-1880616.12944743,3940.08965666522,3505.14794437995,-5660.86150437838,-3.34534343126718,7.81515332121039,2.48254401346364,6759053.07578958,1.16332806216899,-0.102868541080172,-0.171300401445837,-0.0340651918772664,-1.12159191329672,0.711009674170887,0.911840108213891,-9.57805769712E-5,-0.0011160847382297,-1.040696800429E-4,332380.438811307,1.84877E-11,1154.1642054542,-3.34534343126718,7.81515332121039,2.48254401346364
1980.0,-4145820.40158894,-4786204.92889667,-2213595.67497765,2764415.62604309,-5696052.79668803,-2215531.31770619,3730.12208223045,3965.46247331476,-5498.54408123187,-3.65078433973407,7.52240732274138,2.92590844975423,6759053.0757896,1.16770333142223,-0.111269511482312,-0.169377180822772,-0.0328034965697254,-1.08029053628247,0.675026886782342,0.985701870974345,-1.010832570812E-4,-0.0011154561177155,-1.071911290894E-4,332076.471493349,1.84521E-11,1150.90281188658,-3.65078433973407,7.52240732274138,2.92590844975423
2040.0,-3850592.22244182,-4870161.35976176,-2537803.10941339,2981476.05245764,-5444777.02775582,-2539917.40464889,3502.34601885052,4407.1008340567,-5310.03040722938,-3.93870417168096,7.19286877230397,3.35537938303054,6759053.07578961,1.17207860067547,-0.119954525161723,-0.167406476791717,-0.0311735886312904,-1.0439777592236,0.636723836198066,1.05542794439462,-1.065118851191E-4,-0.0011147844747596,-1.102936755049E-4,332095.093035248,1.82802E-11,1147.06663353444,-3.93870417168096,7.19286877230397,3.35537938303054
2100.0,-3537777.80320513,-4933718.97158754,-2849946.05860384,3184362.84734183,-5167617.48351926,-2852228.95520334,3257.85778014097,4827.90330679594,-5096.22048649205,-4.20761747785849,6.8281658482146,3.76875657018345,6759053.07578961,1.17645386991157,-0.128906134418962,-0.165387789285119,-0.029160620970163,-1.01239152135046,0.596431150047267,1.12136420722016,-1.120647119084E-4,-0.0011140681756493,-1.133762386197E-4,332425.641848736,1.79793E-11,1142.6784792368,-4.20761747785849,6.8281658482146,3.76875657018345
2160.0,-3208675.48801359,-4976720.10578012,-3148537.8034273,3372108.33799301,-4865886.54666856,-3150978.44645977,2997.83979695316,5225.81383539459,-4858.14387638685,-4.45614071542316,6.43012411936472,4.16392415109863,6759053.07578959,1.1808291391591,-0.138105438475118,-0.163320378468327,-0.0267510416534934,-0.985247870071069,0.554446695045073,1.18388393198602,-1.177399231446E-4,-0.0011133055858254,-1.164377266051E-4,333054.958038034,1.756E-11,1137.76437827333,-4.45614071542316,6.43012411936472,4.16392415109863
2220.0,-2864662.08732235,-4999095.25183311,-3432157.09733902,3543818.22264006,-4541016.56366384,-3434743.88065135,2723.55422591859,5598.89154740026,-4596.95420990154,-4.68300135086134,6.00075550322083,4.53886436109865,6759053.07578959,1.18520440840948,-0.14753217388065,-0.161203299466979,-0.0239326640559573,-0.962261986643816,0.511037240255379,1.24336742201694,-1.235356387978E-4,-0.0011124950729517,-1.194770370027E-4,333967.680433208,1.70359E-11,1132.35413434041,-4.68300135086134,6.00075550322083,4.53886436109865
2280.0,-2507186.64059539,-5000862.82677454,-3699455.42258358,3698676.14908522,-4194552.6056001,-3702176.04520908,2436.33603668896,5945.32156561557,-4313.92291635233,-4.88704611808664,5.54224571226067,4.89167051694623,6759053.07578958,1.18957967766558,-0.157164812671431,-0.159035445725592,-0.0206947290736449,-0.943162210636445,0.466441281356423,1.30018870058105,-1.294499126013E-4,-0.0011116350100445,-1.224930573064E-4,335146.569976436,1.64225E-11,1126.48193294903,-4.88704611808664,5.54224571226067,4.89167051694623
2340.0,-2137763.77398653,-4982128.5160398,-3949163.84708394,3835947.86426356,-3828144.60382632,-3952005.37318311,2137.5856312859,6263.42502420436,-4010.4321881938,-5.06724834291527,5.05694031477751,5.22055913872514,6759053.0757896,1.1939549469131,-0.166980667748971,-0.156815600350911,-0.0170279588378418,-0.927698727835743,0.42087242012912,1.35470758983168,-1.354807316306E-4,-0.0011107237786564,-1.254846655978E-4,336572.852223445,1.57367E-11,1120.18693404323,-5.06724834291527,5.05694031477751,5.22055913872514
2400.0,-1757966.69380835,-4943084.18169202,-4180099.43842837,3954984.90837466,-3443538.91045581,-4183048.36042904,1828.761053923,6551.66821046964,-3687.96724961923,-5.22271425801576,4.54732955556604,5.52388108175118,6759053.0757896,1.19833021615206,-0.176956004934219,-0.154542494603341,-0.0129246014407152,-0.915648428468424,0.374522906071168,1.40726567336339,-1.416260159802E-4,-0.0011097597721113,-1.284507312345E-4,338226.571489781,1.49961E-11,1113.51376449023,-5.22271425801576,4.54732955556604,5.52388108175118
2460.0,-1369419.85833295,-4884006.34794466,-4391171.19493398,4055227.83087109,-3042569.33836472,-4394213.49951839,1511.36985379501,6808.67076269278,-3348.10798977714,-5.35268824669589,4.01603209892252,5.80013156678598,6759053.07578961,1.2027054854053,-0.18706616111725,-0.1522148725244,-0.0083784662789344,-0.906817156742749,0.327567106548301,1.45818491964769,-1.478836185433E-4,-0.0011087413987842,-1.31390115591E-4,340086.94913633,1.42176E-11,1106.51280237854,-5.35268824669589,4.01603209892252,5.80013156678598
2520.0,-973791.373020459,-4805254.2768791,-4581385.45772349,4136208.90944026,-2627147.7391509,-4584506.69429281,1186.96066657227,7033.21286460019,-2992.52002965992,-5.4565569692058,3.46577787028102,6.04795901290666,6759053.07578962,1.20708075465283,-0.197285667897746,-0.149831560531783,-0.0033849497305952,-0.901040272960529,0.280164782606867,1.50776803986259,-1.542513249E-4,-0.0011076670854221,-1.34301672852E-4,342132.738637932,1.34175E-11,1099.24011630577,-5.4565569692058,3.46577787028102,6.04795901290666
2580.0,-572785.157410851,-4707267.64999094,-4749850.77205427,4197554.35713366,-2199254.18076707,-4753036.12328717,857.114582640024,7224.24138793887,-2622.94529693652,-5.53385234124749,2.89939018337024,6.26617259504594,6759053.07578962,1.21145602389464,-0.207588380082156,-0.147391540680282,0.0020589489964347,-0.898182187254913,0.232464119688836,1.5562999108154,-1.607268533185E-4,-0.0011065352804987,-1.371842508575E-4,344342.570399261,1.26106E-11,1091.7568943367,-5.53385234124749,2.89939018337024,6.26617259504594
2640.0,-168132.931318003,-4590563.8747716,-4895782.17072129,4238986.00692539,-1760926.7891124,-4899016.52483242,523.436371451115,7380.87494608289,-2241.19218712,-5.58425335071662,2.31976734681417,6.45374846704301,6759053.07578963,1.21583129314788,-0.217947608372899,-0.144894026179775,0.0079546218743572,-0.898135314906243,0.184604506621887,1.60404959573903,-1.673078548764E-4,-0.0011053444575985,-1.400366919988E-4,346695.279753666,1.181E-11,1084.12818767715,-5.58425335071662,2.31976734681417,6.45374846704301
2700.0,238413.930084503,-4455735.0375836,-5018504.85715015,4260322.46715883,-1314251.31973943,-5021772.88144666,187.545631709665,7502.40783335011,-1849.12539242644,-5.60758671499324,1.72986394751667,6.60983461059305,6759053.07578964,1.22020656239826,-0.228336255551934,-0.142338537683514,0.0143018558136958,-0.900818745082046,0.136719081237386,1.65127264415304,-1.73991913704E-4,-0.0011040931188222,-1.428578341638E-4,349170.212179849,1.10268E-11,1076.42083705051,-5.60758671499324,1.72986394751667,6.60983461059305
2760.0,645092.621828859,-4303444.52657258,-5117457.27073471,4261479.74550975,-861350.526996914,-5120743.48606463,-148.932063515461,7588.31283655987,-1448.65548146434,-5.60382639697612,1.13267200796172,6.73375429029991,6759053.07578968,1.22458183164864,-0.238726955426418,-0.139724978812838,0.0210988459187231,-0.906176798722209,0.0889370733528061,1.6982134549111,-1.807765473569E-4,-0.0011027797982087,-1.456465117317E-4,351747.500475571,1.02699E-11,1068.7005857129,-5.60382639697612,1.13267200796172,6.73375429029991
2820.0,1050137.16653499,-4134423.35055054,-5192193.52198195,4242471.34319816,-404373.398384291,-5195482.37766702,-484.373959198257,7638.2429170959,-1041.72831349002,-5.57309201318033,0.531202210827275,6.82500811467302,6759053.07578968,1.22895710090188,-0.249092213768117,-0.137053709369451,0.0283422178490929,-0.91417756666976,0.0413859801267493,1.74510755348056,-1.876592073199E-4,-0.0011014030651646,-1.484015566143E-4,354408.309411127,9.5462E-12,1061.0286305526,-5.57309201318033,0.531202210827275,6.82500811467302
2880.0,1451786.6543832,-3949466.18130647,-5242385.19003754,4203407.82516546,54515.6783467763,-5245661.13888476,-817.168783162204,7652.03177314626,-630.314370399423,-5.51564618127355,-0.0715346227631284,6.8832747219349,6759053.07578964,1.23333237013798,-0.259404550442,-0.134325614703698,0.0360270587636023,-0.924811456475577,-0.0058063922034834,1.79218367380506,-1.946372796476E-4,-0.0010999615278956,-1.511217993434E-4,357135.044225889,8.8602E-12,1053.45817210126,-5.51564618127355,-0.0715346227631284,6.8832747219349
2940.0,1848293.41751326,-3749427.14846326,-5267822.48010651,4144495.87574793,513147.748718408,-5271070.05309789,-1145.72522139511,7629.69330268191,-216.398087947992,-5.43189086714175,-0.672545625167189,6.90841012752118,6759053.07578961,1.23770763938837,-0.269636641884365,-0.131542169756506,0.0441469562002494,-0.938089727736681,-0.0525099908441851,1.83966555336136,-2.01708085744E-4,-0.0010984538368311,-1.538060702015E-4,359911.520204531,8.215E-12,1046.03175016943,-5.43189086714175,-0.672545625167189,6.90841012752118
3000.0,2237931.0937677,-3535215.41653448,-5268414.74309487,4066036.8529752,969360.060598164,-5271618.62336221,-1468.48014592941,7571.4199979333,198.032735029213,-5.32236280271628,-1.26887338101502,6.90044578680078,6759053.07578961,1.24208290863875,-0.279761463058305,-0.128705496372135,0.052694044139971,-0.95404295531361,-0.09859066145193,1.88777335205855,-2.088688832844E-4,-0.0010968786880346,-1.564532003946E-4,362723.091457414,7.6119E-12,1038.78010677182,-5.32236280271628,-1.26887338101502,6.90044578680078
3060.0,2619002.53430026,-3307790.57522503,-5244190.36441492,3968424.85796601,1421006.70586516,-5247335.46011733,-1783.90654191009,7477.58031147751,610.997374295233,-5.18772805519031,-1.8576126847488,6.85958544151392,6759053.07578961,1.2464581778777,-0.289752427986263,-0.125818412586847,0.0616590554146235,-0.97271932293544,-0.143908364283288,1.93672459493296,-2.161168672828E-4,-0.0010952348265914,-1.590620232644E-4,365556.737912572,7.0507E-12,1031.72292019121,-5.18772805519031,-1.8576126847488,6.85958544151392
3120.0,2989847.51392349,-3068157.87392603,-5195296.03326994,3852144.33894506,1865969.07438276,-5198367.54900418,-2090.52108554521,7348.71504243156,1020.53239419603,-5.02877583577407,-2.43592642588448,6.78620083147334,6759053.07578961,1.25083344713094,-0.299583527937462,-0.122884472731959,0.0710313795550725,-0.994182613759424,-0.188315463822757,1.98673451791591,-2.234491713056E-4,-0.001093521049966,-1.616313755375E-4,368401.110388849,6.5306E-12,1024.87115242525,-5.02877583577407,-2.43592642588448,6.78620083147334
3180.0,3348850.20527658,-2817363.33107396,-5121995.40781298,3717767.25214146,2302166.06312483,-5124978.91420241,-2386.89133010043,7185.53279855908,1424.70157259345,-4.84641164171984,-3.00106048948432,6.68082636400989,6759053.07578952,1.25520871638133,-0.309229466333802,-0.119907997345351,0.0807991251362395,-1.01850972834171,-0.231655111847181,2.03801566804303,-2.308628688345E-4,-0.001091736211319,-1.641600986095E-4,371246.53444881,6.0499E-12,1018.23026348946,-4.84641164171984,-3.00106048948432,6.68082636400989
3240.0,3694446.37966238,-2556488.74978713,-5024667.19532256,3565949.80422837,2727563.98684163,-5027548.69644716,-2671.64246284091,6988.90459626829,1821.60547720875,-4.64164982897184,-3.55035757879173,6.54415284234805,6759053.07578949,1.25958398563171,-0.318665789433057,-0.116894092059375,0.0909491856632836,-1.04578752524959,-0.273759766301227,2.09077657796451,-2.383549747788E-4,-0.0010898792227771,-1.666470398598E-4,374084.974513825,5.6067E-12,1011.80341445376,-4.64164982897184,-3.55035757879173,6.54415284234805
3300.0,4025130.30212835,-2286646.66936177,-4903802.6699214,3397428.80301239,3140186.14052578,-4906568.66827063,-2943.46360172621,6759.85766546438,2209.39064011418,-4.41560571450021,-4.08126988692316,6.37702036051303,6759053.07578957,1.26395925488209,-0.327869011853527,-0.113848654821192,0.101467308058052,-1.07610874909051,-0.314449916304599,2.14521930511398,-2.459224471382E-4,-0.0010879490586455,-1.69091053996E-4,376909.960451696,5.1988E-12,1005.59400103525,-4.41560571450021,-4.08126988692316,6.37702036051303
3360.0,4339461.29046846,-2008975.28212923,-4760002.65336294,3213017.6447746,3538121.96807632,-4762640.21201323,-3201.11360661182,6499.56853000701,2586.25828370146,-4.16948730723985,-4.59137056447613,6.18041047649843,6759053.07578961,1.26833452412105,-0.336816736021524,-0.110778370999677,0.112338162846905,-1.10956679275564,-0.353533117319195,2.20153560723527,-2.535621888151E-4,-0.0010859447585539,-1.714910044229E-4,379716.479513605,4.8238E-12,999.607231847027,-4.16948730723985,-4.59137056447613,6.18041047649843
3420.0,4636069.91144923,-1724633.34406502,-4593973.98700656,3013601.96800287,3919535.79588727,-4596470.78874719,-3443.42638559914,6209.35543712091,2950.47255822751,-3.90458676469899,-5.07836394947916,5.95543777732583,6759053.07578959,1.27270979337429,-0.345487764651576,-0.107690696136631,0.12354541521811,-1.14624904774361,-0.390803479093452,2.25990153145169,-2.612710495773E-4,-0.0010838654305281,-1.738457646345E-4,382500.837092931,4.4796E-12,993.850785080148,-3.90458676469899,-5.07836394947916,5.95543777732583
3480.0,4913663.79135571,-1434795.10515625,-4406525.52529051,2800135.00424336,4282675.09453767,-4408869.92844369,-3669.31568290383,5890.67021055439,3300.36825785972,-3.62227166888233,-5.54009454489266,5.70334094941405,6759053.07578965,1.27708506262181,-0.35386220540994,-0.104593826305097,0.13507179620748,-1.18622864657196,-0.426041789626265,2.3204702421826,-2.690458281684E-4,-0.0010817102539777,-1.76154219623E-4,385260.490297581,4.1638E-12,988.334752828617,-3.62227166888233,-5.54009454489266,5.70334094941405
3540.0,5171033.02033063,-1140645.28600207,-4198563.68279266,2573632.65745131,4625878.23626266,-4200744.77349738,-3877.77934009408,5545.0896026313,3634.357988892,-3.32397621037046,-5.97455474653275,5.42547346549884,6759053.07578971,1.28146033186077,-0.361921566964198,-0.101496656240054,0.14689917338079,-1.22955451718116,-0.459016495197435,2.38336302693626,-2.768832745651E-4,-0.0010794784825898,-1.784152673044E-4,387993.858766445,3.8744E-12,983.07112639209,-3.32397621037046,-5.97455474653275,5.42547346549884
3600.0,5407055.13431988,-843374.123438251,-3971087.56835042,2335168.34355357,4947581.7203799,-3973095.20910278,-4067.9030277064,5174.30621967505,3950.93877036727,-3.01119236341237,-6.37989134055109,5.1232939953933,6759053.07578972,1.28583560110829,-0.369648845685072,-0.0984087256028775,0.15900862050683,-1.27623987456494,-0.489485779626229,2.44865862218357,-2.847800923781E-4,-0.0010771694471214,-1.806278199534E-4,390700.117512687,3.6094E-12,978.073042814266,-3.01119236341237,-6.37989134055109,5.1232939953933
3660.0,5620699.66102797,-544172.507003214,-3725183.7407066,2085867.62196979,5246326.84326992,-3727008.61497347,-4238.86344901354,4780.11909368659,4248.69805362129,-2.68546112793339,-6.75441080423406,4.79835664237041,6759053.07578978,1.29021087036154,-0.377028602339874,-0.095340153927579,0.171380485851113,-1.3262495860848,-0.517200981049752,2.51638131070393,-2.927329413948E-4,-0.0010747825580809,-1.827908056464E-4,393378.976838762,3.3668E-12,973.353952502506,-2.68546112793339,-6.75441080423406,4.79835664237041
3720.0,5811032.21936194,-244227.226699726,-3462020.62077796,1826902.65060036,5520765.79381341,-3463654.27352456,-4389.93102204541,4364.42397073914,4526.31915317071,-2.34836390665425,-7.09658345671684,4.45230110011653,6759053.07578971,1.29458613960906,-0.384047028199593,-0.0923015649710069,0.18399445886211,-1.37948725955353,-0.541911534019435,2.58648865254955,-3.007384402584E-4,-0.0010723173082894,-1.84903169707E-4,396030.454536183,3.1449E-12,968.926808177047,-2.34836390665425,-7.09658345671684,4.45230110011653
3780.0,5977218.16495756,55283.6499993393,-3182842.5959317,1559486.49530577,5769667.15932609,-3184277.4699272,-4520.47204981062,3929.2033834191,4782.58608683257,-2.00151407727182,-7.40504651712275,4.08684281728847,6759053.0757897,1.29896140886516,-0.390692000071982,-0.0893040013484876,0.196829635163832,-1.43578337400378,-0.56337151130545,2.65886018091837,-3.087931692811E-4,-0.001069773275314,-1.869638761501E-4,398654.645656367,2.942E-12,964.80332933419,-2.00151407727182,-7.40504651712275,4.08684281728847
3840.0,6118525.77698569,353195.256560708,-2888963.85163082,1284867.32420198,5991920.83096121,-2890193.31941931,-4629.9503920067,3476.51657091364,5016.38782792529,-1.64654881108113,-7.67860613658223,3.70376324796037,6759053.07578968,1.30333667810126,-0.396953123870212,-0.0863588304791447,0.209864579905884,-1.49488620490227,-0.58134765359575,2.73328882456917,-3.168936733845E-4,-0.0010671501237648,-1.889719091209E-4,401251.495112581,2.7566E-12,960.993365005309,-1.64654881108113,-7.67860613658223,3.70376324796037
3900.0,6234328.9839004,648360.245438953,-2581761.96550331,1004322.51621189,6186542.30124288,-2582780.35695025,-4717.92865432974,3008.48930613975,5226.72197682089,-1.28512118071169,-7.91623847753958,3.30490025690369,6759053.07578968,1.30771194735164,-0.402821766429318,-0.0834776429894274,0.22307738964906,-1.55645753687854,-0.595628523589976,2.80947705839798,-3.250364651633E-4,-0.0010644476074474,-1.909262743239E-4,403820.578251372,2.5873E-12,957.504358572599,-1.28512118071169,-7.91623847753958,3.30490025690369
3960.0,6324109.62809562,939652.935850129,-2262671.29833651,719152.712275027,6352676.34982107,-2263473.92368254,-4784.06891379319,2527.3036847457,5412.69786296459,-0.918892590997366,-8.11708991875737,2.89213873894447,6759053.07578971,1.31208721660202,-0.408291075389762,-0.080672144828643,0.236445753077159,-1.62007503160924,-0.606034137515549,2.88703965720747,-3.332180280652E-4,-0.0010616655713622,-1.928260004372E-4,406360.894312488,2.4328E-12,954.340908056844,-0.918892590997366,-8.11708991875737,2.89213873894447
4020.0,6387459.27151295,1225973.27862696,-1933176.21573093,430675.836456563,6489600.11668557,-1933759.38410625,-4828.1330002531,2035.18792600776,5573.53909173785,-0.549525558554984,-8.2804764675477,2.46740150180001,6759053.07578965,1.31646248583812,-0.413355987077761,-0.0779540444354782,0.249947010919396,-1.68524249244613,-0.612425174409478,2.96551430063685,-3.414348196806E-4,-0.0010588039535457,-1.946701405091E-4,408870.677384565,2.2918E-12,951.504410422553,-0.549525558554984,-8.2804764675477,2.46740150180001
4080.0,6424080.54611915,1506250.63050523,-1594804.17320312,140221.112943857,6596725.56493027,-1595165.20657588,-4849.98235562592,1534.40623070539,5708.58555321062,-0.178676857557427,-8.40588246209598,2.03264045201248,6759053.07578962,1.3208377550885,-0.418013222424935,-0.0753349363594088,0.263558215539746,-1.75140813773353,-0.614710722201139,3.0443801466964,-3.496832751351E-4,-0.0010558627867434,-1.964577733312E-4,411347.229065871,2.1633E-12,948.992776600516,-0.178676857557427,-8.40588246209598,2.03264045201248
4140.0,6433788.05444515,1779447.33172932,-1249118.69643967,-150876.896397051,6673601.33771437,-1249255.93899142,-4849.57749310338,1027.24873608713,5817.2949119176,0.192008958425556,-8.49295864643136,1.58982811405046,6759053.07578961,1.32521302433889,-0.42226127108383,-0.0728261827853753,0.277256190697058,-1.81798955453807,-0.612853562023371,3.12308305036077,-3.579598105765E-4,-0.0010528421999115,-1.981880047837E-4,413786.776560072,2.0463E-12,946.800203468354,0.192008958425556,-8.49295864643136,1.58982811405046
4200.0,6416508.82728702,2044562.07987028,-897712.287209196,-441284.210584578,6719914.01632654,-897625.110148413,-4826.97707904761,516.021603133731,5899.2435983205,0.560905655684054,-8.54151969877883,1.14094950349418,6759053.07578955,1.32958829359213,-0.426100364010452,-0.0704387944342087,0.291017592001332,-1.88440262705822,-0.606872248425443,-3.08212058162751,-3.662608267481E-4,-0.0010497424195379,-1.9985996915E-4,416184.359389576,1.9398E-12,944.916988853827,0.560905655684054,-8.54151969877883,1.14094950349418
4260.0,6372282.34623882,2300633.09742598,-542199.284167394,-729673.282245916,6735488.78822666,-541888.086010173,-4782.33666022377,3.03726656943554,5954.12732361199,0.926411044270019,-8.55154129086946,0.687994366592425,6759053.07578964,1.33396356284251,-0.429532434898903,-0.0681833123154838,0.304818968587221,-1.95009085071126,-0.596839676966004,-3.00539304218983,-3.745827126402E-4,-0.0010465637707798,-2.014728303944E-4,418533.747302276,1.8431E-12,943.329374959308,0.926411044270019,-8.55154129086946,0.687994366592425
4320.0,6301260.14005773,2546741.08987926,-184208.706475219,-1014728.76389374,6720289.53562947,-183674.908838078,-4715.90705864183,-509.395126457674,5981.76114001016,1.28695233576198,-8.52315675145378,0.232949790486884,6759053.07578965,1.33833883208147,-0.432561070965393,-0.0660696917940356,0.318636826495177,-2.01455135788996,-0.582878342107775,-2.93040096031282,-3.829218492093E-4,-0.0010433066784114,-2.030257833998E-4,420827.391296068,1.7553E-12,942.019486146264,1.28695233576198,-8.52315675145378,0.232949790486884
4380.0,6203704.96451803,2782011.99285171,174622.893181224,-1295153.16846306,6674418.35662141,175376.854215604,-4628.0324555746,-1018.97906734474,5982.07906872938,1.64099114902446,-8.45665340192902,-0.222206818868421,6759053.07578965,1.34271410133185,-0.435191453688196,-0.0641071903970461,0.332447694196122,-2.07735472495495,-0.565152947867857,-2.85755410674702,-3.912746131566E-4,-0.0010399716675781,-2.045180551611E-4,423056.409005298,1.6759E-12,940.973453019628,1.64099114902446,-8.45665340192902,-0.222206818868421
4440.0,6079989.57559865,3005619.50880914,532658.540901351,-1569672.40608202,6598114.53198347,533629.227770246,-4519.14818534236,-1523.43980886458,5955.13331743575,1.98702818223082,-8.35246862583439,-0.675514400541814,6759053.07578965,1.34708937058509,-0.437430290214664,-0.0623042607360561,0.346228190618764,-2.13815694358733,-0.54386133172008,-2.78717859146156,-3.996373807548E-4,-0.0010365593643525,-2.059489059301E-4,425210.604996778,1.6044E-12,940.188263017868,1.98702818223082,-8.35246862583439,-0.675514400541814
4500.0,5930595.1070769,3216787.4326591,888267.895230565,-1837041.1802509,6491752.95185376,889450.886140313,-4389.77825825521,-2020.53324557319,5901.0931082552,2.32360757276663,-8.21118572714712,-1.12503455930004,6759053.07578963,1.35146463983547,-0.439285736245036,-0.0606684498484963,0.359955095943125,-2.19670340175034,-0.519224748185002,-2.71951276278249,-4.080065317132E-4,-0.0010330704960913,-2.073176303084E-4,427278.525830034,1.5404E-12,939.658020022022,2.32360757276663,-8.21118572714712,-1.12503455930004
4560.0,5756109.06313764,3414791.76839814,1239834.21942293,-2096048.22772631,6355842.01712531,1241224.12975934,-4240.53263072528,-2508.05454058831,5820.24313635021,2.64932096919514,-8.03352962499699,-1.5688575629815,6759053.07578963,1.35583990908586,-0.44076731129308,-0.059206306177366,0.373605425313238,-2.25282593268027,-0.491478450199374,-2.65471005556304,-4.163784530709E-4,-0.0010295058915879,-2.08623558284E-4,429247.549058828,1.4836E-12,939.37251022218,2.64932096919514,-8.03352962499699,-1.5688575629815
4620.0,5557222.93700757,3598962.63879023,1585761.2507204,-2345521.38744375,6191021.03106641,1587351.75850678,-4072.10423905302,-2983.84649016187,5712.98167776781,2.96281134126017,-7.82036242475482,-2.00510804030599,6759053.07578956,1.36021517832195,-0.441885807303892,-0.0579232953067755,0.387156505500359,-2.30643472147597,-0.460863270068488,-2.59284699771996,-4.247495431068E-4,-0.0010258664810211,-2.098660562086E-4,431104.004706017,1.4336E-12,939.317228685483,2.96281134126017,-7.82036242475482,-2.00510804030599
4680.0,5334729.46717373,3768685.98990125,1924479.94613978,-2584332.48475446,5998057.09709774,1926263.82141755,-3885.26581179838,-3445.80761963111,5579.81836374383,3.26277655494807,-7.57267889758771,-2.43195040585614,6759053.07578955,1.36459044757234,-0.442653191677071,-0.0568237254567836,0.400586054420181,-2.35750707576513,-0.427618618919787,-2.53393436786305,-4.331162152543E-4,-0.0010221532956988,-2.110445277117E-4,432833.327143278,1.39E-12,939.472744470643,3.26277655494807,-7.57267889758771,-2.43195040585614
4740.0,5089519.54155098,3923405.09469637,2254455.08523937,-2811402.018098,5777841.53899276,2256424.22323567,-3680.86647401211,-3891.90000602086,5421.37163697546,3.5479727399584,-7.2916018926437,-2.84759404108206,6759053.07578959,1.36896571681986,-0.443082505796827,-0.0559106836147655,0.413872263277922,-2.40607488480505,-0.391977061663004,-2.47792967916595,-4.41474902012E-4,-0.0010183674675946,-2.1215841455E-4,434420.234762489,1.3527E-12,939.81110415029,3.5479727399584,-7.2916018926437,-2.84759404108206
4800.0,4822578.76178691,4062621.85719435,2574191.71121485,-3025703.63597969,5531385.86001255,2576337.16915141,-3459.82815497006,-4320.15682378243,5238.36590360216,3.817217476578,-6.97837769815148,-3.25029826143497,6759053.07578963,1.37334098605596,-0.44318776020753,-0.0551859830446407,0.426993880988266,-2.45221218449817,-0.354160423225508,-2.4247495718113,-4.498220588369E-4,-0.0010145102286807,-2.132071973859E-4,435848.934345908,1.3213E-12,940.304545905604,3.817217476578,-6.97837769815148,-3.25029826143497
4860.0,4534983.67829771,4185897.92148877,2882241.39244299,-3226268.39277224,5259817.25767271,2884553.42983094,-3223.14180945943,-4728.68961089919,5031.62839281141,4.06939282795441,-6.63437136001331,-3.63837710015156,6759053.07578963,1.37771625531206,-0.442983827591605,-0.0546501227713255,0.439930300397452,-2.49602377409548,-0.31437725335186,-2.37428116837751,-4.581541680091E-4,-0.0010105829100553,-2.141903964969E-4,437103.346633991,1.2962E-12,941.011755705914,4.06939282795441,-6.63437136001331,-3.63837710015156
4920.0,4227897.70662508,4292855.58945865,3177208.28725179,-3412188.77241816,4964373.71099474,3179676.40950793,-2971.86346115186,-5115.69525287926,4802.0857341624,4.30344824216331,-6.26106195903164,-4.01020393881892,6759053.0757896,1.38209152455673,-0.442486334705292,-0.0543022594883162,0.452661645725839,-2.53763540243283,-0.272821414363717,-2.32639187482333,-4.664677424582E-4,-0.001006586940869,-2.15107572409E-4,438167.349256229,1.2778E-12,941.992766268989,4.30344824216331,-6.26106195903164,-4.01020393881892
4980.0,3902566.73765606,4383178.54885807,3457754.99524704,-3582622.4695787,4646398.65724609,3460368.0004584,-2707.11007519663,-5479.46268200934,4550.7602609441,4.51840334630555,-5.86003784083879,-4.36421601368411,6759053.07578961,1.38646679380997,-0.441711554405506,-0.054140192183594,0.465168860554475,-2.57718571026506,-0.229671542550442,-2.28093744141648,-4.747593295381E-4,-0.0010025238470515,-2.15958326456E-4,439025.032934137,1.2666E-12,943.29649950029,4.51840334630555,-5.86003784083879,-4.36421601368411
5040.0,3560314.4511403,4456612.41700204,3722608.17897293,-3736795.9181649,4307335.2753445,3725354.20762784,-2430.05526591042,-5818.37928868756,4278.76604620003,4.71335065219902,-5.43299178598308,-4.69891882477168,6759053.0757896,1.39084206306035,-0.440676298857404,-0.0541603596253648,0.477433795600993,-2.61481989127736,-0.1850911513586,-2.23776832242081,-4.830255147407E-4,-9.983952498414E-4,-2.167423012597E-4,439660.966684121,1.2629E-12,944.96748355608,4.71335065219902,-5.43299178598308,-4.69891882477168
5100.0,3202537.34503801,4512965.10169011,3970563.94003485,-3874007.55750508,3948720.39332022,3973430.52753052,-2141.92484435868,-6130.93704071483,3987.30467650251,4.88745819009334,-4.98171610154284,-5.01289047227691,6759053.07578957,1.3952173322993,-0.439397814947556,-0.0543578506970995,0.489439295470312,-2.6506849040322,-0.13922917814151,-2.1967345042585,-4.912629253367E-4,-9.942028641254E-4,-2.174591811315E-4,440060.467640371,1.2673E-12,947.048513006093,4.88745819009334,-4.98171610154284,-5.01289047227691
5160.0,2830699.49161139,4552106.98288643,4200492.93407504,-3993630.82666368,3572178.03751337,4203467.06580358,-1843.99220974185,-6415.73830513894,3677.66076718547,5.03997208328405,-4.50809761017104,-5.30478594145679,6759053.07578959,1.39959260154969,-0.43789368284273,-0.0547264274232032,0.501169283525028,-2.68492600732131,-0.0922208151294801,-2.15768903236988,-4.994682339336E-4,-9.899484965895E-4,-2.181086923935E-4,440209.871078124,1.2804E-12,949.582320682857,5.03997208328405,-4.50809761017104,-5.30478594145679
5220.0,2446327.03153672,4573970.91800745,4411345.20917812,-4095116.87764015,3179412.64155461,4414413.37798506,-1537.57358784366,-6671.50136565298,3351.19722158384,5.17021907258351,-4.01411250768784,-5.57334135339219,6759053.07578958,1.40396787080293,-0.436181718530813,-0.0552585603845243,0.51260884399925,-2.71768437874333,-0.0441885028512164,-2.12049048054528,-5.076381619396E-4,-9.856340436884E-4,-2.186906036179E-4,440096.796241292,1.3029E-12,952.612728360996,5.17021907258351,-4.01411250768784,-5.57334135339219
5280.0,2051002.41888381,4578552.07258632,4602154.75240775,-4177996.99835832,2772201.93365167,4605303.01820931,-1224.0231193862,-6897.0656266918,3009.35023591516,5.27760899537301,-3.50182105630508,-5.81737819459184,6759053.07578958,1.40834314003902,-0.434279881060672,-0.0559454760890094,0.523744300477488,-2.74909559156652,0.0047570029336284,-2.08500459241787,-5.157694829241E-4,-9.8126148944E-4,-2.192047257848E-4,439710.403658929,1.3358E-12,956.185237852692,5.27760899537301,-3.50182105630508,-5.81737819459184
5340.0,1646358.42935479,4565907.57868835,4772043.7292529,-4241884.73652159,2352389.52129701,4775257.78059053,-904.727800987179,-7091.39649329415,2653.62405080487,5.36163721946779,-2.97336207735214,-6.03580753350747,6759053.07578956,1.41271840928941,-0.432206185064666,-0.0567772157387484,0.534563289875594,-2.7792887541516,0.0545155528823765,-2.0511052970898,-5.238590258652E-4,-9.768329030497E-4,-2.196509123574E-4,439041.63976585,1.3802E-12,960.346771177118,5.36163721946779,-2.97336207735214,-6.03580753350747
5400.0,1234071.94402949,4536156.02325851,4920226.40081137,-4286477.71557339,1921877.19323429,4923491.61811463,-581.102281540384,-7253.58991355625,2285.58545013129,5.42188702733129,-2.43094720503572,-6.22763422668562,6759053.07578959,1.41709367853979,-0.429978619004587,-0.057742704721845,0.545054831092281,-2.80838615036129,0.104996555481281,-2.01867526868353,-5.319036782741E-4,-9.723504363744E-4,-2.200290592749E-4,438083.464818973,1.4376E-12,965.144090016057,5.42188702733129,-2.43094720503572,-6.22763422668562
5460.0,815857.524012265,4489476.76720933,5046012.70357634,-4311559.13418248,1482616.95938217,5049314.2238975,-254.583517253146,-7382.87656814723,1906.85800787241,5.45803194133917,-1.87685486137106,-6.39196111156115,6759053.07578964,1.42146894779017,-0.427615069432786,-0.0588298320572473,0.555209387545086,-2.83650325321552,0.156117983752219,-1.98760616840458,-5.399003891889E-4,-9.678163212315E-4,-2.203391048639E-4,436831.060315319,1.5096E-12,970.620352360946,5.45803194133917,-1.87685486137106,-6.39196111156115
5520.0,393460.789742846,4426109.09707177,5148811.4767423,-4316998.9408866,1036602.85041767,5152134.25971895,73.3747107206176,-7478.62568894837,1519.11608399599,5.46983797588145,-1.31342391201912,-6.52799317686719,6759053.07578968,1.4258442170377,-0.425133251409411,-0.0600255389334092,0.565018922861724,-2.86374901495666,0.207805451462556,-1.95779868033871,-5.478461720283E-4,-9.632328665625E-4,-2.205810296685E-4,435282.012367868,1.5982E-12,976.809422082488,5.46983797588145,-1.31342391201912,-6.52799317686719
5580.0,-31348.3787310505,4346351.2100496,5228133.32202865,-4302754.6757922,585862.49987009,5231462.21682326,401.307411112601,-7540.34848647587,1124.07857116277,5.45716579717386,-0.743046963408232,-6.63504169537599,6759053.0757897,1.43021948627666,-0.422550645068024,-0.0613159154082075,0.574476949064,-2.89022636378003,0.259991365119697,-1.92916242995235,-5.557381072991E-4,-9.5860245546E-4,-2.207548561996E-4,433436.467776131,1.7055E-12,983.728088998179,5.45716579717386,-0.743046963408232,-6.63504169537599
5640.0,-456782.803432746,4250559.03342774,5283593.08115617,-4268871.97156272,132448.532867211,5286912.89411457,727.744123604831,-7567.70116341625,723.5023951215,5.41997276680387,-0.168163263252131,-6.71252829727648,6759053.07578976,1.4345947555299,-0.419884438180001,-0.0626863042774656,0.583578566654923,-2.91603286092381,0.312614152666211,-1.90161585751246,-5.635733451484E-4,-9.539275420666E-4,-2.208606486057E-4,431297.25983833,1.8342E-12,991.367328931166,5.41997276680387,-0.168163263252131,-6.71252829727648
5700.0,-881045.114329857,4139144.87909367,5314911.91632789,-4215484.70634667,-321570.212897629,5318207.47909203,1051.21477831381,-7560.4874894098,319.175773170024,5.35831484034055,0.408748830564255,-6.75998895603285,6759053.07578971,1.43897002478028,-0.417151474436492,-0.0641214110732091,0.592320496097883,-2.94126149239863,0.365617566293563,-1.87508610742029,-5.713491077561E-4,-9.492106483556E-4,-2.208985122663E-4,428870.001290514,1.9867E-12,999.684866688521,5.35831484034055,0.408748830564255,-6.75998895603285
5760.0,-1302334.97871115,4012575.93389603,5321918.97938166,-4142814.80182097,-774117.606856177,5325175.21718555,1370.25566402565,-7518.66091023134,-87.0887630612362,5.27234828788179,0.98517984374614,-6.7770778521545,6759053.07578967,1.44334529401923,-0.41436820704972,-0.0656054191193964,0.60070110025826,-2.96600158859211,0.418950054610765,-1.84950898879695,-5.7906269156E-4,-9.444543608035E-4,-2.208685933094E-4,426163.142124003,2.1656E-12,1008.60192334121,5.27234828788179,0.98517984374614,-6.7770778521545
5820.0,-1718856.43346203,3871372.58670515,5304552.65572302,-4051171.66016633,-1223119.25712834,5307754.65559506,1683.41549340059,-7442.32616280485,-493.461571984002,5.16233119928641,1.5585976678318,-6.76357107405592,6759053.0757897,1.44772056326676,-0.411550657175596,-0.0671221085521043,0.608720397461257,-2.99033988391197,0.472564198110474,-1.82482906289419,-5.867114693098E-4,-9.396613269634E-4,-2.207710780556E-4,423187.990427843,2.3738E-12,1018.00635990393,5.16233119928641,1.5585976678318,-6.76357107405592
5880.0,-2128825.29752538,3716106.59287021,5262861.36973489,-3940951.23456841,-1666511.62341579,5265994.44832398,1989.26155101661,-7331.74036612428,-898.103322435635,5.02862473314016,2.12645655040485,-6.7193701092119,6759053.07578966,1.45209583251429,-0.408714376580319,-0.0686549782022272,0.61638006490355,-3.01436174964486,0.526416201137884,-1.80099991994777,-5.942928919446E-4,-9.348342519514E-4,-2.206061923911E-4,419958.694829125,2.6138E-12,1027.76232622331,5.02862473314016,2.12645655040485,-6.7193701092119
5940.0,-2530476.63927859,3547399.07738324,5197003.93911622,-3812634.7287617,-2102251.17885765,5200053.70985487,2286.38590756692,-7187.31355720241,-1299.17261594502,4.87169406533304,2.68620660526962,-6.64450507325177,6759053.07578965,1.45647110176467,-0.405874413916521,-0.0701873692407456,0.623683432240562,-3.03815265924603,0.580465433124418,-1.7779847238458,-6.0180449029E-4,-9.299758948542E-4,-2.203742010722E-4,416492.187562809,2.8884E-12,1037.72395453908,4.87169406533304,2.68620660526962,-6.64450507325177
6000.0,-2922072.27315067,3365918.37796698,5107249.46654593,-3666786.92221507,-2528323.58661059,5110201.90585916,2573.41168079923,-7009.608640702,-1694.83379345948,4.69210899058624,3.23530384598412,-6.5391376196215,6759053.07578963,1.46084637101505,-0.403045283941208,-0.0717025894990334,0.630635465254727,-3.06179998071725,0.634674011472317,-1.755757130971,-6.092438765726E-4,-9.250890650707E-4,-2.20075406964E-4,412808.087695008,3.2002E-12,1047.74915327069,4.69210899058624,3.23530384598412,-6.5391376196215
6060.0,-3301908.25711314,3172377.72996558,4993976.75821931,-3504054.11880824,-2942752.8550347,4996818.27048536,2848.99932092644,-6799.34072098485,-2083.26490553557,4.49054412845696,3.77122073650229,-6.40356346811389,6759053.07578964,1.46522164025686,-0.400240938998818,-0.0731840373985592,0.63724273959344,-3.08539524252573,0.689006417942062,-1.73430273605185,-6.166087457484E-4,-9.201766185962E-4,-2.197101502168E-4,408928.564552963,3.552E-12,1057.71001566689,4.49054412845696,3.77122073650229,-6.40356346811389
6120.0,-3668322.36122741,2967532.79540428,4857673.26017529,-3325161.71827234,-3343610.43350745,4860390.74114204,3111.85289529696,-6557.37578600219,-2462.66582118508,4.26777868437706,4.29145724208502,-6.23821448707376,6759053.07578966,1.46959690949868,-0.397474742108315,-0.0746153244550249,0.643513404648163,-3.10903709925473,0.743429139426247,-1.71362127387181,-6.238968766438E-4,-9.152414542612E-4,-2.192788073822E-4,404878.161977747,3.9465E-12,1067.49823332605,4.26777868437706,4.29145724208502,-6.23821448707376
6180.0,-4019701.47591735,2752179.03892659,4698933.50494012,-3130911.41126963,-3729024.20909131,4701514.40330032,3360.72634413958,-6284.72871379936,-2831.2664465755,4.02469571623509,4.79355235221445,-6.04366026156809,6759053.07578968,1.47397217874906,-0.394759441032257,-0.0759803953610999,0.649457137728655,-3.13283535103034,0.797910322185614,-1.693729930994,-6.31106132908E-4,-9.102865099352E-4,-2.187817904745E-4,400683.584613745,4.3865E-12,1077.02589845274,4.02469571623509,4.79355235221445,-6.04366026156809
6240.0,-4354488.92664447,2527148.95425683,4518457.06286229,-2922178.00076734,-4097187.36258446,4520889.43969109,3594.42967625253,-5982.56057446354,-3187.33502067349,3.76228085798313,5.27509603514021,-5.82060907841393,6759053.07578967,1.47834744799087,-0.392107142767059,-0.0772636446986633,0.655085088768666,3.126268723936,0.852419425293483,-1.67466833244825,-6.382344637771E-4,-9.05314758705E-4,-2.182195459782E-4,396373.448076335,4.8746E-12,1086.22323015424,3.76228085798313,5.27509603514021,-5.82060907841393
6300.0,-4671191.66003667,2293309.14602131,4317045.99461132,-2699905.85431449,-4446367.04093412,4319318.58037166,3811.83507065136,-5652.17520314217,-3529.18645076276,3.48162045381498,5.73374157107986,-5.56990825881343,6759053.07578966,1.4827227172384,-0.389529287974964,-0.0784500293855371,0.660409815881386,3.10175294832773,0.906926852935844,-1.65650613302893,-6.452799046491E-4,-9.003292050392E-4,-2.175925538084E-4,391977.995490131,5.413E-12,1095.03492630214,3.48162045381498,5.73374157107986,-5.56990825881343
6360.0,-4968387.26588408,2051557.27149243,4095601.80365979,-2465104.99395183,-4774912.80163288,4097704.05248477,4011.88284749381,-5295.01502332417,-3855.19064664234,3.18389905968013,6.16721819819998,-5.29254377057524,6759053.07578974,1.48709798648878,-0.387036624976615,-0.0795251760227108,0.665445212164528,3.07661375791682,0.961403533919954,-1.63935479595203,-6.522405774718E-4,-8.953328809478E-4,-2.169013262249E-4,387528.783555799,6.0035E-12,1103.41641469427,3.18389905968013,6.16721819819998,-5.29254377057524
6420.0,-5244730.79721355,1802818.84921357,3855121.8901592,-2218846.83276086,-5081264.78359574,3857044.03112557,4193.58726913211,-4912.65610391698,-4163.78080830371,2.87039627331195,6.57334399256225,-4.98963905461074,6759053.07578976,1.49147325573631,-0.384639183035653,-0.0804754823756065,0.670206424235302,3.05060569912299,1.01582039527827,-1.62338635956716,-6.591146909442E-4,-8.903288421482E-4,-2.161464067057E-4,383058.341971045,6.6469E-12,1111.33070395432,2.87039627331195,6.57334399256225,-4.98963905461074
6480.0,-5498961.35036458,1548043.94165294,3596695.51044516,-1962259.56947397,-5363961.55817828,3598428.59555968,4356.04212997665,-4506.80243876542,-4453.46161808669,2.54248285957629,6.95003889049714,-4.66245300466147,6759053.07578974,1.49584852498669,-0.382346244789383,-0.081288212296444,0.674709763054166,3.02339533378185,1.07014763443114,-1.60886437432563,-6.65900540535E-4,-8.85320164246E-4,-2.153283687843E-4,378599.81068598,7.3429E-12,1118.74607552562,2.54248285957629,6.95003889049714,-4.66245300466147
6540.0,-5729908.36614407,1288203.72009967,3321499.2494527,-1696523.25510244,-5621647.61348564,3323035.1980816,4498.42609206217,-4079.2794431193,-4722.81728481964,2.2016161447822,7.29533774966077,-4.31237704509638,6759053.0757898,1.50022379422564,-0.380166317808583,-0.081951583473962,0.678972607671837,2.99450759905746,1.12435360610726,-1.59619711540197,-6.725965083195E-4,-8.8030993894E-4,-2.144478148529E-4,374186.560095066,8.0898E-12,1125.634581749,2.2016161447822,7.29533774966077,-4.31237704509638
6600.0,-5936497.61246148,1024286.92217618,3030792.01656449,-1422864.54816798,-5853080.4249877,3032123.65604795,4620.00772186072,-3632.02666812878,-4970.51938435683,1.84933466159934,7.60740333364486,-3.94093125913118,6759053.07578981,1.50459906347603,-0.37810710540046,-0.0824548474808508,0.683013302605127,2.96322894685029,1.17840294436266,-1.58603405036592,-6.792010626397E-4,-8.753012702621E-4,-2.135053749377E-4,369851.799838346,8.8842E-12,1131.97118862467,1.84933466159934,7.60740333364486,-3.94093125913118
6660.0,-6117756.80934368,757296.211600068,2725909.57882901,-1142551.17781939,-6057137.06573339,2727030.68103545,4720.1501830523,-3167.08974166729,-5195.33443833366,1.48725203533108,7.88453909476882,-3.54975952895246,6759053.07578982,1.50897433272355,-0.376175476897423,-0.0827883616775089,0.68685104961242,2.92842026040303,1.23225306928495,-1.57945256099224,-6.857127575903E-4,-8.702972708583E-4,-2.125017054489E-4,365628.182379199,9.7207E-12,1137.73336705232,1.48725203533108,7.88453909476882,-3.54975952895246
6720.0,-6272820.85685495,488244.453680243,2408258.64903709,-856886.136843011,-6232820.31018615,2409163.96262754,4798.31553970711,-2686.6115515758,-5396.13117096129,1.11705011239196,8.12520162091006,-3.14062365991664,6759053.07578981,1.51334960196536,-0.374377437796678,-0.0829436526223913,0.690505794696893,2.88812380777393,1.28584697745603,-1.57835065658974,-6.921302323362E-4,-8.653010583207E-4,-2.114374879103E-4,361547.40792108,1.05916E-11,1142.9009441434,1.11705011239196,8.12520162091006,-3.14062365991664
6780.0,-6400936.62781147,218150.918906751,2079310.54979678,-567201.629301236,-6379264.18691436,2079995.82798726,4854.06862470915,-2192.82269569014,-5571.88738237111,0.740471342795849,8.3280126052408,-2.71539647313228,6759053.0757898,1.51772487121575,-0.372718100227316,-0.0829134707328386,0.693998111213311,2.83864255357438,1.33909643843569,-1.58636735478842,-6.984522102655E-4,-8.603157515779E-4,-2.103134276726E-4,357639.837499477,1.1487E-11,1147.45604316962,0.740471342795849,8.3280126052408,-2.71539647313228
6840.0,-6501467.2879933,-51962.5710144022,1740594.4784545,-274852.800215055,-6495738.93708984,1741056.50208386,4887.0804293055,-1688.03123163918,-5721.69637647356,0.359310440103685,8.491770192838,-2.27605386417612,6759053.0757898,1.52210014046327,-0.371201654319369,-0.0826918360349604,0.697349079990638,2.77204187360271,1.39183618405799,-1.61138068278541,-7.04677497984E-4,-8.553444673508E-4,-2.091302526141E-4,353934.121214831,1.23945E-11,1151.38291240044,0.359310440103685,8.491770192838,-2.27605386417612
