time,gePosition_m_X,gePosition_m_Y,gePosition_m_Z,eiPosition_m_X,eiPosition_m_Y,eiPosition_m_Z,eiVelocity_m_s_X,eiVelocity_m_s_Y,eiVelocity_m_s_Z,eiAccel_m_s2_X,eiAccel_m_s2_Y,eiAccel_m_s2_Z,semiMajorAxis_m,gast_rad,eulerAngle_rad_Roll,eulerAngle_rad_Pitch,eulerAngle_rad_Yaw,eulerAngleWrtEi_rad_Roll,eulerAngleWrtEi_rad_Pitch,eulerAngleWrtEi_rad_Yaw,bodyAngularRateWrtEi_rad_s_Roll,bodyAngularRateWrtEi_rad_s_Pitch,bodyAngularRateWrtEi_rad_s_Yaw,altitudeMsl_m,airDensity_kg_m3,ambientTemperature_dgK,eiGravitation_m_s2_X,eiGravitation_m_s2_Y,eiGravitation_m_s2_Z
0.0,-1436381.46529,4185811.71036,5163944.67155,-4315967.74,960356.2,5167269.53,129.091037,-7491.513855,1452.515654,5.46941408349,-1.21701227671,-6.54822705894,6759053.07579,1.02334780893,-5.666859310097427E-17,-0.2024581932313422,1.310461215457521E-16,-2.4715939055627265,-0.03718896475792745,-1.428993135204757,0.0,0.0,0.0,434989.540812,1.61790350067E-12,978.31253865,5.46941408349,-1.21701227671,-6.54822705894
60.0,-1794950.03461,3943126.0299,5239239.62072,-4298383.75497,509016.725548,5242568.01442,456.873453274,-7547.42173401,1056.41305958,5.45257924199,-0.645697124725,-6.65029442685,6759053.07579,1.02772307802,-2.274825105926694E-6,-0.2024367838149694,-9.8448764171575E-5,-2.472066078054835,0.015546617880565078,-1.3871181068590448,-6.88961880254841E-7,-0.0011222532656531587,-3.2320057446939498E-6,433093.864999,1.72931058094E-12,985.41174162,5.45257924199,-0.645697124725,-6.65029442685
120.0,-2147547.17171,3685627.21378,5290617.60031,-4261177.84166,55353.9685752,5293934.33528,782.91011309,-7568.91571403,655.073376704,5.41122605044,-0.0702934371387,-6.72271293264,6759053.07579,1.03209834711,-2.4281788758670046E-5,-0.2023698705268951,-3.9172253067392787E-4,-2.470369181584864,0.06813689222499557,-1.3450234227497326,-1.5312656128409507E-6,-0.0011222708974038494,-6.4730951110337344E-6,430905.280808,1.86248837629E-12,993.229374722,5.41122605044,-0.0702934371387,-6.72271293264
180.0,-2492684.25219,3414408.9038,5317818.00015,-4204498.84972,-398561.363029,5321107.91929,1105.73160266,-7555.82484025,250.289448679,5.3454273793,0.506714568946,-6.7650383498,6759053.07579,1.0364736162,-8.887695772665563E-5,-0.20225357920043746,-8.755368662179724E-4,-2.4664803993587814,0.12048890062615737,-1.3024769451449836,-2.5267258112605753E-6,-0.0011222824805083233,-9.722554638440801E-6,428429.879583,2.0200445447E-12,1001.71491968,5.3454273793,0.506714568946,-6.7650383498
240.0,-2828892.49297,3130615.64088,5320688.44124,-4128583.60235,-850652.79475,5323936.49263,1423.8758901,-7508.12814382,-156.122774234,5.25535668535,1.08281296502,-6.77694529983,6759053.07579,1.04084888529,-2.1894266482639824E-4,-0.2020842699409695,-0.0015440559269378673,-2.4603504337490145,0.17250619532426847,-1.259242343405524,-3.675122156247492E-6,-0.0011222875114844692,-1.2979664594949715E-5,425676.596117,2.20464493186E-12,1010.78109632,5.25535668535,1.08281296502,-6.77694529983
300.0,-3154729.04304,2835438.4175,5299185.94612,-4033756.27142,-1298847.13302,5302377.25117,1735.89440574,-7425.95617001,-562.331476724,5.14128947641,1.65546667848,-6.75823092103,6759053.07579,1.04522415437,-4.3728134164715114E-4,-0.20185857252119624,-0.0023899189884437175,-2.4519031615395583,0.22408688243029176,-1.2150757785135635,-4.9761988945608064E-6,-0.0011222854295510178,-1.6243698438425026E-5,422657.223054,2.41895697489E-12,1020.30840998,5.14128947641,1.65546667848,-6.75823092103
360.0,-3468783.08035,2530110.05102,5253377.66861,-3920427.38526,-1741083.58876,5256497.58981,2040.35820271,-7309.59197714,-966.496434168,5.00360451249,2.22212857049,-6.70881831892,6759053.07579,1.04959942346,-7.665074809754931E-4,-0.201573418950744,-0.0034042745618368653,-2.4410350170044475,0.27512154480070855,-1.1697227155552932,-6.42966427677077E-6,-0.0011222756172593485,-1.95139222854052E-5,419386.386708,2.66562931551E-12,1030.15596761,5.00360451249,2.22212857049,-6.70881831892
420.0,-3769681.89227,2215900.38876,5183441.17035,-3789092.46489,-2175322.94418,5186475.37826,2335.86418043,-7159.47157517,-1366.77666754,4.84278469881,2.780249035,-6.62875974534,6759053.07579,1.05397469255,-0.001228938086691405,-0.20122607242942728,-0.004576821958537531,-2.4276142217114116,0.3254909958218095,-1.1229149292874123,-8.03518993572434E-6,-0.0011222574012125666,-2.278959438926665E-5,415881.483384,2.94730746813E-12,1040.17567346,4.84278469881,2.780249035,-6.62875974534
480.0,-4056096.91578,1894111.35661,5089664.23286,-3640330.28535,-2599556.72836,5092598.77217,2621.04135142,-6976.18377267,-1761.33827946,4.65941762361,3.32728612084,-6.51823944782,6759053.07579,1.05834996164,-0.001846482032063875,-0.20081415192322993,-0.005895860114353945,-2.411480039213922,0.375063822391897,-1.0743678329019812,-9.792410207838999E-6,-0.0011222300528334487,-2.6069964629226212E-5,412162.575825,3.26666590153E-12,1050.22576068,4.65941762361,3.32728612084,-6.51823944782
540.0,-4326749.71204,1566071.86402,4972444.19482,-3474800.76039,-3011816.36507,4975265.54902,2894.55712843,-6760.469401,-2148.3624498,4.45419569214,3.86071616874,-6.37757612705,6759053.07579,1.06272523073,-0.002640528811733083,-0.20033565176784346,-0.007348343433513572,-2.3924423223302385,0.4236936869225612,-1.0237783544441803,-1.1700921399226704E-5,-0.0011221927892266323,-2.935427401220674E-5,408252.249936,3.62642665043E-12,1060.18042342,4.45419569214,3.86071616874,-6.37757612705
600.0,-4580417.84864,1233132.57931,4832286.8057,-3293242.44988,-3410182.25456,4834981.96025,3155.12360624,-6513.21988518,-2526.05356531,4.22791580717,4.37804494471,-6.20722493659,6759053.07579,1.06710049981,-0.003631837235768598,-0.19978895568191538,-0.00891994436643115,-2.3702817474015023,0.4712163790185522,-0.9708237183002173,-1.3760280999196172E-5,-0.001122144774110626,-3.264175418981724E-5,404175.432484,4.02933770337E-12,1069.93433334,4.22791580717,4.37804494471,-6.20722493659
660.0,-4815940.66127,896660.590704,4669804.5887,-3096469.69121,-3792792.74939,4672361.09222,3401.50380953,-6235.4751326,-2892.64745382,3.98147854685,4.87681923941,-6.00777895699,6759053.07579,1.0714757689,-0.004840424674555234,-0.19917284475367605,-0.01059512239463277,-2.344751306408619,0.5174466431743125,-0.9151616702575371,-1.597000684371656E-5,-0.0011220851188178792,-3.593162699095368E-5,399959.171112,4.47809600146E-12,1079.40272871,3.98147854685,4.87681923941,-6.00777895699
720.0,-5032224.8657,558033.969582,4485714.70755,-2885369.35763,-4157852.98233,4488120.73091,3632.51787503,-5928.42071291,-3246.41968936,3.71588679137,5.35463889108,-5.77997007488,6759053.07579,1.07585103799,-0.006285457517717715,-0.19848649906234953,-0.012357199059283923,-2.31557985889182,0.5621748673730051,-0.8564329202641507,-1.8329576231530394E-5,-0.0011220128833786345,-3.922310397307485E-5,395632.378601,4.97521200477E-12,1088.51872962,3.71588679137,5.35463889108,-5.77997007488
780.0,-5228249.98959,218636.25383,4280836.33417,-2660897.24845,-4503643.50324,4283080.727,3847.04913363,-5593.38430506,-3585.69393051,3.43224375272,5.80916917685,-5.52466919803,6759053.07579,1.08022630708,-0.007985143557520422,-0.19772949271792764,-0.014188438640360625,-2.2824788261086466,0.6051638086900109,-0.7942668614572063,-2.0838424996336507E-5,-0.0011219270776850602,-4.251538599302589E-5,391225.543994,5.52282073612E-12,1097.22954879,3.43224375272,5.80916917685,-5.52466919803
840.0,-5403073.59288,-120149.129324,4056087.51628,-2424074.11829,-4828528.68027,4058159.86081,4044.05005535,-5231.83139154,-3908.85024995,3.13175036477,6.23815350432,-5.24288573872,6759053.07579,1.08460157617,-0.009956627045256345,-0.19690178221982416,-0.016070134070272406,-2.2451534090504546,0.6461456665817229,-0.7282919267844543,-2.349594653760873E-5,-0.00112182666272869,-4.5807662800551114E-5,386770.413852,6.1224476576E-12,1105.49276648,3.13175036477,6.23815350432,-5.24288573872
900.0,-5555836.24484,-456944.480378,3812481.54702,-2175981.35466,-5130964.8197,3814372.20879,4222.54801743,-4845.36018411,-4214.33340949,2.81570199584,6.6394263225,-4.93576630063,6759053.07579,1.08897684525,-0.012215887195970302,-0.19600368825658118,-0.017982697647646883,-2.203319950890544,0.6848200005559041,-0.6581521859998403,-2.6301490814099407E-5,-0.0011217105519181463,-4.9099112653972514E-5,382299.647578,6.77474051576E-12,1113.27333253,2.81570199584,6.6394263225,-4.93576630063
960.0,-5685766.22542,-790383.462502,3551122.84112,-1917756.31589,-5409507.95802,3552823.01637,4381.65085415,-4435.69577058,-4500.66103092,2.4854844516,7.01092615838,-4.60459250912,6759053.07579,1.09335211434,-0.014777640932080765,-0.19503587111068932,-0.01990575610651368,-2.1567310849446586,0.7208532236527048,-0.5835318091599757,-2.9254363303797705E-5,-0.0011215776124788937,-5.238890196222274E-5,377846.4514,7.47917593202E-12,1120.54132281,2.4854844516,7.01092615838,-4.60459250912
1020.0,-5792183.91829,-1119116.73102,3273202.32557,-1650587.3436,-5662821.27932,3274704.08507,4520.5521448,-4004.68347827,-4766.43160951,2.14256924321,7.35070867344,-4.25077793096,6759053.07579,1.09772738343,-0.017655250657668917,-0.19399930007692867,-0.02181824958755586,-2.1052098527162713,0.7538806599819012,-0.5041885682714909,-3.235382393334463E-5,-0.0011214266669367704,-5.567618495445421E-5,373444.196214,8.23375872326E-12,1127.27057955,2.14256924321,7.35070867344,-4.25077793096
1080.0,-5874505.86327,-1441817.53295,2979992.3559,-1375708.46692,-5889682.11101,2981288.68486,4638.53619533,-3554.28145632,-5010.33231432,1.78850810379,7.65695962306,-3.87586403722,6759053.07579,1.10210265252,-0.02086063784483627,-0.19289521736372364,-0.023698534057817786,-2.048692694183493,0.7835123633364623,-0.4199962677862768,-3.5599085982140816E-5,-0.0011212564946835456,-5.8960103376526446E-5,369126.025053,9.03472926468E-12,1133.43790615,1.78850810379,7.65695962306,-3.87586403722
1140.0,-5932248.43619,-1757187.2509,2672841.17243,-1094393.81814,-6088988.45127,2673926.00637,4734.98266817,-3086.55248662,-5231.14651659,1.42492674576,7.92800759199,-3.4815151726,6759053.07579,1.10647792161,-0.024404203185694265,-0.19172509718437097,-0.0255244867230767,-1.987278774050046,0.8093439247425178,-0.3309935580084015,-3.898931496376498E-5,-0.001121065833612297,-6.22397862211781E-5,364924.456417,9.87630264166E-12,1139.02268004,1.42492674576,7.92800759199,-3.4815151726
1200.0,-5965031.12518,-2063960.8648,2353166.91479,-807951.782221,-6259764.98247,2354035.17104,4809.37081475,-2603.65504054,-5427.76098574,1.05351786143,8.16233637022,-3.06951250521,6759053.07579,1.11085319069,-0.028294754030352944,-0.19049060075372462,-0.027273613977853245,-1.9212794755129423,0.8309731630045969,-0.2374329541741172,-4.252362749168448E-5,-0.0011208533818644814,-6.551434948786968E-5,360870.990095,1.07504659866E-11,1144.00668727,1.05351786143,8.16233637022,-3.06951250521
1260.0,-5972579.37343,-2360912.30404,2022451.21642,-517718.905445,-6401168.52591,2023098.82109,4861.28326571,-2107.83360755,-5599.1726915,0.676033380941,8.35859682742,-2.64174694339,6759053.07579,1.11522845978,-0.03253943977381978,-0.1891935281502699,-0.028923161441264934,-1.8512577391809677,0.8480227085941973,-0.13981973158129093,-4.620109013100314E-5,-0.0011206177996293724,-6.878289597788193E-5,356995.722332,1.16468626054E-11,1148.37400724,0.676033380941,8.35859682742,-2.64174694339
1320.0,-5954726.96024,-2646859.66204,1682232.4044,-225053.590989,-6512492.89535,1682656.31463,4890.4093349,-1601.40833006,-5744.49514997,0.29427601265,8.51561813893,-2.20021101976,6759053.07579,1.11960372887,-0.03714369579968929,-0.18783576798955448,-0.030450225620050078,-1.7780439783656148,0.8601670059894553,-0.03892742070244002,-5.002071824357696E-5,-0.0011203577110482127,-7.20445151262405E-5,353326.977325,1.25527894342E-11,1152.1107562,0.29427601265,8.51561813893,-2.20021101976
1380.0,-5911417.89408,-2920670.24494,1334098.33399,68670.3880715,-6593173.10883,1334296.55535,4896.54779513,-1086.76398782,-5862.9642521,-0.0899098960441,8.63241821494,-1.7469897572,6759053.07579,1.12397899796,-0.042111196514903644,-0.18641924601726034,-0.031831866744453055,-1.702716085227962,0.867160434673125,0.0642225890811001,-5.398147482894087E-5,-0.001120071706205635,-7.5298282868722E-5,349890.961953,1.34533530948E-11,1155.20522554,-0.0899098960441,8.63241821494,-1.7469897572
1440.0,-5842707.79365,-3181265.4259,979678.890618,362070.525485,-6642788.92137,979650.489396,4879.60908652,-566.338384237,-5953.94351428,-0.47464812762,8.70821318438,-1.2842505473,6759053.07579,1.12835426705,-0.0474438179304171,-0.1849458737511456,-0.033045222303462886,-1.62653753604349,0.8688617456968757,0.16842333450750296,-5.8082269370122606E-5,-0.0011197583431804248,-7.854326155074776E-5,346711.450415,1.43318190858E-11,1157.64867445,-0.47464812762,8.70821318438,-1.2842505473
1500.0,-5748764.736,-3427625.27674,620638.195746,653762.333107,-6661067.64437,620383.306138,4839.61692122,-42.6101956256,-6016.92869314,-0.85804093063,8.7424257886,-0.814232087702,6759053.07579,1.13272953613,-0.053141610159344876,-0.18341749836216945,-0.03406762080293045,-1.5508591716971256,0.8652496962604465,0.2723808815331088,-6.232195668451781E-5,-0.001119416150216709,-8.17784998739767E-5,343809.50501,1.51701321286E-11,1159.43578558,-0.85804093063,8.7424257886,-0.814232087702
1560.0,-5629869.55341,-3658792.94917,258666.556372,942366.169551,-6647886.22158,258186.382422,4776.70925287,481.913646959,-6051.55170992,-1.23817984887,8.7346925464,-0.339232440952,6759053.07579,1.13710480522,-0.059202780117608655,-0.1818358549397371,-0.03487669524513113,-1.477002554083017,0.8564261953552085,0.37483135063720235,-6.669933578960065E-5,-0.0011190436279475053,-8.500303288757878E-5,341203.238719,1.59495931367E-11,1160.56478921,-1.23817984887,8.7346925464,-0.339232440952
1620.0,-5486415.56481,-3873878.77828,-104527.798867,1226514.10726,-6603272.53591,-105230.986633,4691.13858358,1004.71096567,-6057.58383388,-1.61315695787,8.68486956074,0.138403706297,6759053.07579,1.14148007431,-0.06562368462028673,-0.18020252237850312,-0.035450495806174084,-1.4061496951796297,0.8426061719620509,0.4746515723377226,-7.12131487878329E-5,-0.0011186392517212474,-8.821588202157072E-5,338907.624413,1.66516624801E-11,1161.03736011,-1.61315695787,8.68486956074,0.138403706297
1680.0,-5318907.73071,-4072064.08257,-467227.151208,1504856.79758,-6527405.92614,-468150.024467,4583.27158689,1523.2576485,-6034.93807966,-1.98107641259,8.59303685006,0.616298489342,6759053.07579,1.1458553434,-0.07239883398065743,-0.1785188839461475,-0.035767601166191945,-1.3392615260759186,0.8240966122036772,0.5709410102506898,-7.586207977461145E-5,-0.001118201474008593,-9.141605516553038E-5,336934.354625,1.72588401533E-11,1160.8583641,-1.98107641259,8.59303685006,0.616298489342
1740.0,-5127961.22508,-4252604.63566,-827712.842534,1776070.29225,-6420616.89804,-828851.029179,4453.58803118,2035.04117495,-5983.67077935,-2.3400662012,8.45950110172,1.09205490778,6759053.07579,1.15023061249,-0.07952090613043639,-0.17678609364913564,-0.03580722790727645,-1.2770371205211262,0.8012694414047989,0.6630629416417241,-8.064475377867892E-5,-0.0011177287268790451,-9.460254679321325E-5,335291.754697,1.77555586388E-11,1160.03552918,-2.3400662012,8.45950110172,1.09205490778
1800.0,-4914299.42181,-4414833.78684,-1184273.89493,2038862.7791,-6283386.01996,-1185621.99837,4302.67899439,2537.57425735,-5903.98229722,-2.68828999194,8.28479676321,1.56327134181,6759053.07579,1.15460588158,-0.0869807711980267,-0.1750050493214867,-0.0355493373733563,-1.2199130041950244,0.7745334188073538,0.7506455687801543,-8.555973573709176E-5,-0.001117219424577061,-9.77743381351655E-5,333984.750972,1.81290159624E-11,1158.57911406,-2.68828999194,8.28479676321,1.56327134181
1860.0,-4678751.29767,-4558165.2095,-1535215.64684,2291981.18932,-6116341.99901,-1536767.27052,4131.24436819,3028.40849621,-5796.21686253,-3.0239589542,8.06968540626,2.02755640835,6759053.07579,1.15898115066,-0.09476752640690088,-0.1731763733114836,-0.034974739346768965,-1.1680925441780337,0.7443091672042389,0.8335530711192294,-9.06055295150434E-5,-0.0011166719661609861,-1.0093039739968274E-4,333014.894418,1.83698766295E-11,1156.5016412,-3.0239589542,8.06968540626,2.02755640835
1920.0,-4422248.25862,-4682095.25886,-1878868.35241,2534217.63371,-5920258.94013,-1880616.12945,3940.08965667,3505.14794438,-5660.86150438,-3.34534343127,7.81515332121,2.48254401346,6759053.07579,1.16335641975,-0.10286854108013732,-0.17130040144578174,-0.0340651918772542,-1.1215919132966323,0.7110096741715214,0.9118401082137474,-9.578057697124038E-5,-0.0011160847382292618,-1.0406968004281234E-4,332380.438837,1.84727775671E-11,1153.81774951,-3.34534343127,7.81515332121,2.48254401346
1980.0,-4145820.40067,-4786204.92279,-2213595.68989,2764415.62604,-5696052.79669,-2215531.31771,3730.12208223,3965.46247331,-5498.54408123,-3.65078433973,7.52240732274,2.92590844975,6759053.07579,1.16773168884,-0.11126951148233066,-0.16937718082278908,-0.03280349656977533,-1.0802905362822979,0.6750268867826308,0.9857018709747151,-1.010832570812235E-4,-0.0011154561177146955,-1.0719112908949411E-4,332076.471525,1.8436594037E-11,1150.54420514,-3.65078433973,7.52240732274,2.92590844975
2040.0,-3850592.22128,-4870161.3526,-2537803.12491,2981476.05246,-5444777.02776,-2539917.40465,3502.34601885,4407.10083406,-5310.03040723,-3.93870417168,7.1928687723,3.35537938303,6759053.07579,1.17210695793,-0.11995452516167819,-0.16740647679171433,-0.031173588631291365,-1.0439777592229518,0.6367238361975714,1.0554279443949715,-1.0651188511915745E-4,-0.001114784474759018,-1.1029367550496633E-4,332095.093073,1.82644443399E-11,1146.7000883,-3.93870417168,7.1928687723,3.35537938303
2100.0,-3537777.80187,-4933718.96329,-2849946.07462,3184362.84734,-5167617.48352,-2852228.9552,3257.85778014,4827.9033068,-5096.22048649,-4.20761747786,6.82816584821,3.76875657018,6759053.07579,1.17648222702,-0.12890613441891663,-0.16538778928518358,-0.029160620970145122,-1.0123915213502865,0.5964311500465281,1.1213642072210561,-1.1206471190838641E-4,-0.001114068175648529,-1.1337623861975339E-4,332425.641892,1.79634385026E-11,1142.307153,-4.20761747786,6.82816584821,3.76875657018
2160.0,-3208675.48644,-4976720.09638,-3148537.81989,3372108.33799,-4865886.54667,-3150978.44646,2997.83979695,5225.81383539,-4858.14387639,-4.45614071542,6.43012411936,4.1639241511,6759053.07579,1.1808574961,-0.13810543847515433,-0.16332037846824982,-0.026751041653426393,-0.985247870070616,0.5544466950457764,1.1838839319868584,-1.1773992314459545E-4,-0.0011133055858247877,-1.1643772660509355E-4,333054.958087,1.75442010788E-11,1137.39033624,-4.45614071542,6.43012411936,4.1639241511
2220.0,-2864662.08548,-4999095.24134,-3432157.11416,3543818.22264,-4541016.56366,-3434743.88065,2723.55422592,5598.8915474,-4596.9542099,-4.68300135086,6.00075550322,4.5388643611,6759053.07579,1.18523276519,-0.14753217388062476,-0.1612032994669544,-0.023932664055943333,-0.9622619866444329,0.5110372402545713,1.2433674220163784,-1.235356387978606E-4,-0.0011124950729511582,-1.1947703700264628E-4,333967.680488,1.70202181434E-11,1131.97837515,-4.68300135086,6.00075550322,4.5388643611
2280.0,-2507186.63844,-5000862.81521,-3699455.43968,3698676.14909,-4194552.6056,-3702176.04521,2436.33603669,5945.32156562,-4313.92291635,-4.88704611809,5.54224571226,4.89167051695,6759053.07579,1.18960803428,-0.15716481267147991,-0.15903544572562184,-0.020694729073705415,-0.9431622106364962,0.46644128135647167,1.3001887005811745,-1.294499126012675E-4,-0.0011116350100439285,-1.224930573063851E-4,335146.570037,1.64070709884E-11,1126.1044755,-4.88704611809,5.54224571226,4.89167051695
2340.0,-2137763.77156,-4982128.50339,-3949163.86436,3835947.86426,-3828144.60383,-3952005.37318,2137.58563129,6263.4250242,-4010.43218819,-5.06724834292,5.05694031478,5.22055913873,6759053.07579,1.19398330337,-0.16698066774893086,-0.15681560035095582,-0.017027958837827394,-0.9276987278349802,0.42087242012989823,1.3547075898317653,-1.35480731630636E-4,-0.0011107237786557934,-1.254846655977229E-4,336572.852288,1.57216228738E-11,1119.80695984,-5.06724834292,5.05694031478,5.22055913873
2400.0,-1757966.69114,-4943084.16797,-4180099.45578,3954984.90837,-3443538.91046,-4183048.36043,1828.76105392,6551.66821047,-3687.96724962,-5.22271425802,4.54732955557,5.52388108175,6759053.07579,1.19835857246,-0.17695600493374913,-0.15454249460325825,-0.012924601440703256,-0.9156484284679499,0.3745229060719973,1.4072656733641207,-1.4162601598023816E-4,-0.0011097597721116922,-1.2845073123456788E-4,338226.571559,1.49812208898E-11,1113.12980628,-5.22271425802,4.54732955557,5.52388108175
2460.0,-1369419.85535,-4884006.3332,-4391171.21226,4055227.83087,-3042569.33836,-4394213.49952,1511.36985379,6808.67076269,-3348.10798978,-5.3526882467,4.01603209892,5.80013156679,6759053.07579,1.20273384154,-0.18706616111667942,-0.15221487252440077,-0.008378466278923566,-0.9068171567425262,0.3275671065477809,1.4581849196470666,-1.4788361854323559E-4,-0.0011087413987847933,-1.313901155909941E-4,340086.949209,1.4202964221E-11,1106.12296679,-5.3526882467,4.01603209892,5.80013156679
2520.0,-973791.36975,-4805254.26115,-4581385.47492,4136208.90944,-2627147.73915,-4584506.69429,1186.96066657,7033.2128646,-2992.52002966,-5.45655696921,3.46577787028,6.04795901291,6759053.07579,1.20710911063,-0.19728566789843643,-0.14983156053178148,-0.003384949730576874,-0.901040272961332,0.28016478260732613,1.5077680398619042,-1.5425132489997858E-4,-0.0011076670854213465,-1.3430167285188993E-4,342132.738713,1.34030754251E-11,1098.84232518,-5.45655696921,3.46577787028,6.04795901291
2580.0,-572785.153879,-4707267.63332,-4749850.78901,4197554.35713,-2199254.18077,-4753036.12329,857.11458264,7224.24138794,-2622.94529694,-5.53385234125,2.89939018337,6.26617259505,6759053.07579,1.21148437972,-0.2075883800827644,-0.14739154068026558,0.0020589489964450897,-0.898182187254293,0.232464119688935,1.5562999108152455,-1.6072685331852967E-4,-0.001106535280498696,-1.3718425085752276E-4,344342.570476,1.25963955879E-11,1091.34912753,-5.53385234125,2.89939018337,6.26617259505
2640.0,-168132.927473,-4590563.85722,-4895782.18731,4238986.00693,-1760926.78911,-4899016.52483,523.436371451,7380.87494608,-2241.19218712,-5.58425335072,2.31976734681,6.45374846704,6759053.07579,1.21585964881,-0.21794760837224908,-0.14489402617978953,0.007954621874355248,-0.8981353149065769,0.18460450662138114,1.6040495957388152,-1.6730785487648742E-4,-0.001105344457599002,-1.4003669199889312E-4,346695.279831,1.17960102269E-11,1083.70870943,-5.58425335072,2.31976734681,6.45374846704
2700.0,238413.934225,-4455735.01921,-5018504.87327,4260322.46716,-1314251.31974,-5021772.88145,187.545631709,7502.40783335,-1849.12539243,-5.60758671499,1.72986394752,6.60983461059,6759053.07579,1.2202349179,-0.22833625555112363,-0.14233853768352833,0.014301855813688657,-0.9008187450825274,0.1367190812374129,1.6512726441534407,-1.7399191370411115E-4,-0.001104093118821359,-1.428578341638774E-4,349170.212256,1.10130028406E-11,1075.98838947,-5.60758671499,1.72986394752,6.60983461059
2760.0,645092.626255,-4303444.50744,-5117457.28626,4261479.74551,-861350.526997,-5120743.48606,-148.932063516,7588.31283656,-1448.65548146,-5.60382639698,1.13267200796,6.7337542903,6759053.07579,1.22461018698,-0.23872695542569405,-0.13972497881282986,0.021098845918729108,-0.9061767987229338,0.08893707335278501,1.6982134549104688,-1.8077654735694837E-4,-0.0011027797982078777,-1.4564651173171672E-4,351747.500551,1.02563282286E-11,1068.25453652,-5.60382639698,1.13267200796,6.7337542903
2820.0,1050137.17125,-4134423.33074,-5192193.5368,4242471.3432,-404373.398384,-5195482.37767,-484.373959199,7638.2429171,-1041.72831349,-5.57309201318,0.531202210827,6.82500811467,6759053.07579,1.22898545607,-0.24909221376840318,-0.13705370936941383,0.028342217849034023,-0.9141775666694687,0.04138598012666142,1.7451075534799194,-1.8765920731988613E-4,-0.0011014030651645308,-1.4840155661428013E-4,354408.309484,9.5327974771E-12,1060.56906823,-5.57309201318,0.531202210827,6.82500811467
2880.0,1451786.6593,-3949466.16093,-5242385.20403,4203407.82517,54515.6783472,-5245661.13888,-817.168783163,7652.03177315,-630.314370399,-5.51564618127,-0.0715346227637,6.88327472194,6759053.07579,1.23336072516,-0.2594045504417369,-0.13432561470365734,0.036027058763528685,-0.924811456475626,-0.005806392203531132,1.792183673800163,-1.9463727964733757E-4,-0.0010999615278959587,-1.5112179934340496E-4,357135.044295,8.84716777567E-12,1052.98594874,-5.51564618127,-0.0715346227637,6.88327472194
2940.0,1848293.42268,-3749427.12758,-5267822.49316,4144495.87575,513147.748719,-5271070.0531,-1145.7252214,7629.69330268,-216.398087948,-5.43189086714,-0.672545625168,6.90841012752,6759053.07579,1.23773599425,-0.26963664188341346,-0.1315421697564848,0.04414695620019368,-0.938089727736885,-0.05250999084431772,1.8396655533577806,-2.0170808574410245E-4,-0.0010984538368315536,-1.5380607020152082E-4,359911.520269,8.20232848815E-12,1045.5484784,-5.43189086714,-0.672545625168,6.90841012752
3000.0,2237931.09915,-3535215.39525,-5268414.75509,4066036.85297,969360.060599,-5271618.62336,-1468.48014593,7571.41999793,198.03273503,-5.32236280272,-1.26887338102,6.9004457868,6759053.07579,1.24211126334,-0.27976146305750266,-0.12870549637214085,0.052694044140033716,-0.9540429553143421,-0.09859066145195222,1.8877733520547273,-2.0886888328428287E-4,-0.001096878688034086,-1.5645320039451123E-4,362723.091517,7.59956698501E-12,1038.28812062,-5.32236280272,-1.26887338102,6.9004457868
3060.0,2619002.53985,-3307790.55367,-5244190.37524,3968424.85797,1421006.70587,-5247335.46012,-1783.90654191,7477.58031148,610.997374296,-5.18772805519,-1.85761268475,6.85958544151,6759053.07579,1.24648653242,-0.28975242798659123,-0.12581841258681195,0.061659055414602676,-0.9727193229350264,-0.14390836428339968,1.936724594935708,-2.1611686728291544E-4,-0.0010952348265908796,-1.59062023264368E-4,365556.737966,7.03888547717E-12,1031.22520936,-5.18772805519,-1.85761268475,6.85958544151
3120.0,2989847.51966,-3068157.85217,-5195296.04281,3852144.33894,1865969.07438,-5198367.549,-2090.52108555,7348.71504243,1020.5323942,-5.02877583577,-2.43592642589,6.78620083147,6759053.07579,1.25086180151,-0.29958352793822707,-0.12288447273192932,0.07103137955511617,-0.9941826137594267,-0.18831546382288758,1.9867345179239402,-2.2344917130548447E-4,-0.0010935210499665895,-1.6163137553762552E-4,368401.110435,6.51933050858E-12,1024.37127668,-5.02877583577,-2.43592642589,6.78620083147
3180.0,3348850.21116,-2817363.30924,-5121995.41597,3717767.25214,2302166.06313,-5124978.9142,-2386.8913301,7185.53279856,1424.70157259,-4.84641164172,-3.00106048949,6.68082636401,6759053.07579,1.2552370706,-0.30922946633363385,-0.11990799734527259,0.08079912513613606,-1.0185097283417799,-0.23165511184762588,2.0380156680360377,-2.3086286883451467E-4,-0.0010917362113193269,-1.641600986095739E-4,371246.534488,6.03929708199E-12,1017.73225072,-4.84641164172,-3.00106048949,6.68082636401
3240.0,3694446.38566,-2556488.72799,-5024667.202,3565949.80423,2727563.98684,-5027548.69645,-2671.64246284,6988.90459627,1821.60547721,-4.64164982897,-3.55035757879,6.54415284235,6759053.07579,1.25961233969,-0.31866578943272966,-0.1168940920594466,0.09094918566314597,-1.0457875252490223,-0.2737597663021337,2.0907765779615195,-2.383549747792813E-4,-0.0010898792227766417,-1.6664703985988825E-4,374084.974545,5.59678072796E-12,1011.31164377,-4.64164982897,-3.55035757879,6.54415284235
3300.0,4025130.30821,-2286646.64772,-4903802.67502,3397428.80301,3140186.14053,-4906568.66827,-2943.46360173,6759.85766546,2209.39064011,-4.4156057145,-4.08126988692,6.37702036051,6759053.07579,1.26398760878,-0.32786901185297096,-0.1138486548212612,0.10146730805804939,-1.0761087490907073,-0.31444991630467756,2.145219305113661,-2.459224471373631E-4,-0.001087949058645185,-1.6909105399600847E-4,376909.960475,5.1895673726E-12,1005.11307205,-4.4156057145,-4.08126988692,6.37702036051
3360.0,4339461.29657,-2008975.26081,-4760002.6568,3213017.64477,3538121.96808,-4762640.21201,-3201.11360661,6499.56853001,2586.2582837,-4.16948730724,-4.59137056448,6.1804104765,6759053.07579,1.26836287786,-0.3368167360214316,-0.11077837099974808,0.11233816284688744,-1.1095667927562498,-0.3535331173193126,2.201535607229129,-2.535621888150211E-4,-0.0010859447585540452,-1.7149100442287373E-4,379716.479529,4.81536504641E-12,999.141821613,-4.16948730724,-4.59137056448,6.1804104765
3420.0,4636069.91756,-1724633.32313,-4593973.9887,3013601.968,3919535.79589,-4596470.78875,-3443.4263856,6209.35543712,2950.47255823,-3.9045867647,-5.07836394948,5.95543777733,6759053.07579,1.27273814695,-0.3454877646508015,-0.10769069613654798,0.12354541521795227,-1.146249047743637,-0.3908034790937329,2.259901531445876,-2.612710495767313E-4,-0.0010838654305282732,-1.7384576463447352E-4,382500.8371,4.47188921314E-12,993.405495471,-3.9045867647,-5.07836394948,5.95543777733
3480.0,4913663.79742,-1434795.08476,-4406525.52516,2800135.00424,4282675.09454,-4408869.92844,-3669.3156829,5890.67021055,3300.36825786,-3.62227166888,-5.54009454489,5.70334094941,6759053.07579,1.27711341604,-0.3538622054102721,-0.10459382630515864,0.1350717962074841,-1.1862286465721505,-0.4260417896265183,2.3204702421867363,-2.690458281692503E-4,-0.0010817102539786322,-1.761542196226773E-4,385260.490297,4.15691511048E-12,987.913952513,-3.62227166888,-5.54009454489,5.70334094941
3540.0,5171033.0263,-1140645.26632,-4198563.68078,2573632.65745,4625878.23626,-4200744.7735,-3877.77934009,5545.08960263,3634.35798889,-3.32397621037,-5.97455474653,5.4254734655,6759053.07579,1.28148868513,-0.3619215669640244,-0.10149665623996244,0.14689917338079353,-1.2295545171807036,-0.45901649519743415,2.3833630269367405,-2.768832745643634E-4,-0.0010794784825901166,-1.7841526730369227E-4,387993.858758,3.86830849713E-12,982.678793087,-3.32397621037,-5.97455474653,5.4254734655
3600.0,5407055.14017,-843374.104543,-3971087.5644,2335168.34355,4947581.72038,-3973095.2091,-4067.90302771,5174.30621967,3950.93877037,-3.01119236341,-6.37989134055,5.12329399539,6759053.07579,1.28586395422,-0.36964884568442136,-0.09840872560294925,0.15900862050667794,-1.2762398745653474,-0.48948577962703843,2.448658622175929,-2.8478009237791087E-4,-0.0010771694471214605,-1.8062781995377108E-4,390700.117498,3.60404302284E-12,977.712612646,-3.01119236341,-6.37989134055,5.12329399539
3660.0,5620699.6667,-544172.48899,-3725183.73478,2085867.62197,5246326.84327,-3727008.61497,-4238.86344901,4780.11909369,4248.69805362,-2.68546112793,-6.75441080424,4.79835664237,6759053.07579,1.2902392233,-0.37702860234003077,-0.09534015392761572,0.17138048585110785,-1.326249586084252,-0.5172009810501628,2.5163813107050905,-2.9273294139527974E-4,-0.0010747825580807282,-1.827908056457923E-4,393378.976818,3.36220951559E-12,973.028183925,-2.68546112793,-6.75441080424,4.79835664237
3720.0,5811032.22481,-244227.209722,-3462020.61283,1826902.6506,5520765.79381,-3463654.27352,-4389.93102205,4364.42397074,4526.31915317,-2.34836390665,-7.09658345672,4.45230110012,6759053.07579,1.29461449239,-0.3840470281999701,-0.092301564970985,0.18399445886224347,-1.3794872595537877,-0.5419115340198929,2.5864886525570823,-3.007384402592104E-4,-0.0010723173082892012,-1.8490316970695957E-4,396030.45451,3.14102032077E-12,968.637667816,-2.34836390665,-7.09658345672,4.45230110012
3780.0,5977218.17013,55283.6658727,-3182842.58594,1559486.49531,5769667.15933,-3184277.46993,-4520.47204981,3929.20338342,4782.58608683,-2.00151407727,-7.40504651712,4.08684281729,6759053.07579,1.29898976148,-0.39069200007111937,-0.08930400134850588,0.1968296351640527,-1.4357833740043036,-0.5633715113052924,2.658860180918141,-3.0879316928152215E-4,-0.001069773275314369,-1.869638761499715E-4,398654.645626,2.93881044968E-12,964.551906322,-2.00151407727,-7.40504651712,4.08684281729
3840.0,6118525.78184,353195.271094,-2888963.83958,1284867.3242,5991920.83096,-2890193.31942,-4629.95039201,3476.51657091,5016.38782793,-1.64654881108,-7.67860613658,3.70376324796,6759053.07579,1.30336503057,-0.39695312387026566,-0.08635883047913198,0.20986457990600307,-1.4948862049017662,-0.5813476535962762,2.733288824567649,-3.168936733839932E-4,-0.0010671501237650355,-1.8897190912164493E-4,401251.49508,2.75403650207E-12,960.779819016,-1.64654881108,-7.67860613658,3.70376324796
3900.0,6234328.98838,648360.258607,-2581761.95138,1004322.51621,6186542.30124,-2582780.35695,-4717.92865433,3008.48930614,5226.72197682,-1.28512118071,-7.91623847754,3.3049002569,6759053.07579,1.30774029966,-0.40282176642923856,-0.08347764298935696,0.22307738964929566,-1.556457536879098,-0.5956285235897313,2.8094770583973903,-3.250364651631586E-4,-0.0010644476074468023,-1.9092627432361293E-4,403820.578217,2.58527391582E-12,957.327904974,-1.28512118071,-7.91623847754,3.3049002569
3960.0,6324109.63214,939652.947547,-2262671.28216,719152.712274,6352676.34982,-2263473.92368,-4784.06891379,2527.30368474,5412.69786296,-0.918892590997,-8.11708991876,2.89213873894,6759053.07579,1.31211556874,-0.4082910753899177,-0.08067214482865392,0.23644575307692148,-1.6200750316086658,-0.6060341375156902,2.887039657209495,-3.3321802806506425E-4,-0.001061665571362214,-1.928260004365136E-4,406360.894278,2.43121290225E-12,954.199841583,-0.918892590997,-8.11708991876,2.89213873894
4020.0,6387459.2751,1225973.28866,-1933176.19752,430675.836456,6489600.11669,-1933759.38411,-4828.13300025,2035.18792601,5573.53909174,-0.549525558554,-8.28047646755,2.4674015018,6759053.07579,1.31649083783,-0.4133559870774136,-0.07795404443550995,0.24994701091954097,-1.68524249244664,-0.6124251744090164,2.965514300633682,-3.414348196804485E-4,-0.0010588039535451015,-1.946701405092719E-4,408870.677352,2.29065334058E-12,951.396166651,-0.549525558554,-8.28047646755,2.4674015018
4080.0,6424080.54918,1506250.63887,-1594804.15299,140221.112943,6596725.56493,-1595165.20658,-4849.98235563,1534.4062307,5708.58555321,-0.178676857557,-8.4058824621,2.03264045201,6759053.07579,1.32086610692,-0.41801322242472355,-0.07533493635939525,0.2635582155392797,-1.7514081377335569,-0.6147107222017661,3.0443801466942677,-3.4968327513591686E-4,-0.0010558627867430768,-1.9645777333092876E-4,411347.229036,2.1624988666E-12,948.914028522,-0.178676857557,-8.4058824621,2.03264045201
4140.0,6433788.05692,1779447.33834,-1249118.67426,-150876.896398,6673601.33771,-1249255.93899,-4849.5774931,1027.24873609,5817.29491192,0.192008958426,-8.49295864643,1.58982811405,6759053.07579,1.32524137601,-0.42226127108325384,-0.07282618278537015,0.2772561906967832,-1.817989554539815,-0.6128535620234026,3.12308305036923,-3.579598105758741E-4,-0.0010528421999115374,-1.9818800478327097E-4,413786.776534,2.04575036609E-12,946.746988592,0.192008958426,-8.49295864643,1.58982811405
4200.0,6416508.82913,2044562.08467,-897712.26312,-441284.210585,6719914.01633,-897625.110148,-4826.97707905,516.021603133,5899.24359832,0.560905655685,-8.54151969878,1.14094950349,6759053.07579,1.3296166451,-0.4261003640106793,-0.07043879443421303,0.29101759200069544,-1.8844026270616951,-0.6068722484255703,-3.0821205816333936,-3.6626082674743004E-4,-0.0010497424195383697,-1.9985996914982833E-4,416184.359369,1.93949905693E-12,944.884860768,0.560905655685,-8.54151969878,1.14094950349
4260.0,6372282.3474,2300633.10031,-542199.258236,-729673.282247,6735488.78823,-541888.086009,-4782.33666022,3.03726656842,5954.12732361,0.926411044271,-8.55154129087,0.687994366592,6759053.07579,1.33399191418,-0.42953243489916587,-0.06818331231549093,0.30481896858759483,-1.9500908507142007,-0.5968396769659439,-3.005393042181797,-3.7458271263941155E-4,-0.0010465637707801586,-2.014728303951998E-4,418533.747289,1.84291930921E-12,943.313572165,0.926411044271,-8.55154129087,0.687994366592
4320.0,6301260.14053,2546741.09072,-184208.67878,-1014728.76389,6720289.53563,-183674.908837,-4715.90705864,-509.395126459,5981.76114001,1.28695233576,-8.52315675145,0.232949790486,6759053.07579,1.33836718327,-0.4325610709658133,-0.06606969179406408,0.31863682649489894,-2.014551357882215,-0.5828783421085072,-2.9304009603126793,-3.8292184920864003E-4,-0.0010433066784116467,-2.030257833990015E-4,420827.391291,1.75526320069E-12,942.015248625,1.28695233576,-8.52315675145,0.232949790486
4380.0,6203704.96422,2782011.99167,174622.922551,-1295153.16846,6674418.35662,175376.854216,-4628.03245557,-1018.97906735,5982.07906873,1.64099114903,-8.45665340193,-0.222206818869,6759053.07579,1.34274245236,-0.43519145368825435,-0.06410719039700521,0.3324476941962332,-2.0773547249465967,-0.5651529478677654,-2.8575541067491113,-3.912746131568245E-4,-0.0010399716675779714,-2.0451805516188897E-4,423056.40901,1.67593472609E-12,940.977980295,1.64099114903,-8.45665340193,-0.222206818869
4440.0,6079989.57449,3005619.50558,532658.571844,-1569672.40608,6598114.53198,533629.227771,-4519.14818534,-1523.43980887,5955.13331744,1.98702818223,-8.35246862583,-0.675514400543,6759053.07579,1.34711772145,-0.4374302902149606,-0.06230426073607944,0.3462281906186568,-2.1381569435847876,-0.5438613317196431,-2.7871785914621725,-3.9963738075457744E-4,-0.0010365593643531699,-2.0594890592954946E-4,425210.605012,1.6044993592E-12,940.199593815,1.98702818223,-8.35246862583,-0.675514400543
4500.0,5930595.10512,3216787.42732,888267.927635,-1837041.18025,6491752.95185,889450.886141,-4389.77825826,-2020.53324557,5901.09310826,2.32360757277,-8.21118572715,-1.1250345593,6759053.07579,1.35149299054,-0.4392857362443794,-0.0606684498484974,0.35995509594368896,-2.196703401744661,-0.5192247481842416,-2.7195127627755276,-4.0800653171255526E-4,-0.0010330704960909909,-2.0731763030796714E-4,427278.525857,1.5405615638E-12,939.674593845,2.32360757277,-8.21118572715,-1.1250345593
4560.0,5756109.0603,3414791.76093,1239834.25317,-2096048.22773,6355842.01712,1241224.12976,-4240.53263073,-2508.05454059,5820.24313635,2.6493209692,-8.033529625,-1.56885756298,6759053.07579,1.35586825962,-0.4407673112926884,-0.059206306177323996,0.37360542531256374,-2.25282593267673,-0.4914784502001638,-2.654710055568233,-4.1637845307179733E-4,-0.0010295058915872097,-2.086235582844408E-4,429247.549097,1.48375757832E-12,939.393347274,2.6493209692,-8.033529625,-1.56885756298
4620.0,5557222.93331,3598962.6291,1585761.28567,-2345521.38744,6191021.03107,1587351.75851,-4072.10423905,-2983.84649016,5712.98167777,2.96281134126,-7.82036242475,-2.00510804031,6759053.07579,1.36024352871,-0.4418858073031209,-0.05792329530663298,0.3871565055002889,-2.3064347214758896,-0.4608632700681005,-2.592846997728332,-4.2474954310628215E-4,-0.0010258664810202866,-2.0986605620845883E-4,431104.004757,1.43375555587E-12,939.342115213,2.96281134126,-7.82036242475,-2.00510804031
4680.0,5334729.46254,3768685.97807,1924479.98215,-2584332.48475,5998057.0971,1926263.82142,-3885.2658118,-3445.80761963,5579.81836374,3.26277655495,-7.57267889759,-2.43195040586,6759053.07579,1.3646187978,-0.44265319167721706,-0.056823725456717336,0.4005860544206297,-2.3575070757726286,-0.42761861891949215,-2.5339343678682344,-4.3311621525515386E-4,-0.0010221532956982957,-2.1104452771148784E-4,432833.327207,1.39025113145E-12,939.502461981,3.26277655495,-7.57267889759,-2.43195040586
4740.0,5089519.53597,3923405.08071,2254455.12217,-2811402.0181,5777841.53899,2256424.22324,-3680.86647401,-3891.90000602,5421.37163698,3.54797273996,-7.29160189264,-2.84759404108,6759053.07579,1.36899406689,-0.4430825057961459,-0.055910683614637934,0.4138722632770113,-2.406074884809324,-0.3919770616624917,-2.4779296791587053,-4.414749020113162E-4,-0.001018367467594666,-2.1215841454996654E-4,434420.234839,1.35294485203E-12,939.847978113,3.54797273996,-7.29160189264,-2.84759404108
4800.0,4822578.75529,4062621.84103,2574191.74889,-3025703.63598,5531385.86001,2576337.16915,-3459.82815497,-4320.15682378,5238.3659036,3.81721747658,-6.97837769815,-3.25029826144,6759053.07579,1.37336933598,-0.44318776020844736,-0.055185983044493514,0.42699388098758523,-2.4522121844929146,-0.35416042322570646,-2.4247495718123293,-4.4982205883620593E-4,-0.0010145102286814658,-2.1320719738546803E-4,435848.934435,1.32158367152E-12,940.350092943,3.81721747658,-6.97837769815,-3.25029826144
4860.0,4534983.6708,4185897.90327,2882241.43071,-3226268.39277,5259817.25767,2884553.42983,-3223.14180946,-4728.6896109,5031.62839281,4.06939282796,-6.63437136001,-3.63837710015,6759053.07579,1.37774460506,-0.44298382759247984,-0.05465012277117286,0.43993030039751335,-2.49602377409572,-0.3143772533522685,-2.374281168370157,-4.581541680099889E-4,-0.0010105829100549933,-2.1419039649679417E-4,437103.346736,1.29653599368E-12,941.064712002,4.06939282796,-6.63437136001,-3.63837710015
4920.0,4227897.69816,4292855.56917,3177208.32593,-3412188.77242,4964373.71099,3179676.40951,-2971.86346115,-5115.69525288,4802.08573416,4.30344824216,-6.26106195903,-4.01020393882,6759053.07579,1.38211987415,-0.44248633470483195,-0.054302259488233334,0.4526616457251992,-2.5376354024261385,-0.2728214143631794,-2.32639187482501,-4.6646774245906746E-4,-0.0010065869408693792,-2.151075724082939E-4,438167.34937,1.27822735009E-12,942.052794687,4.30344824216,-6.26106195903,-4.01020393882
4980.0,3902566.72819,4383178.5266,3457755.03415,-3582622.46958,4646398.65725,3460368.00046,-2707.1100752,-5479.46268201,4550.76026094,4.51840334631,-5.86003784084,-4.36421601369,6759053.07579,1.38649514324,-0.44171155440552795,-0.054140192183469986,0.46516886055480766,-2.5771857102718085,-0.22967154255044842,-2.280937441424635,-4.747593295382087E-4,-0.0010025238470520268,-2.159583264553502E-4,439025.033058,1.26705098925E-12,943.363942476,4.51840334631,-5.86003784084,-4.36421601369
5040.0,3560314.44068,4456612.39282,3722608.21792,-3736795.91817,4307335.27534,3725354.20763,-2430.05526591,-5818.37928869,4278.7660462,4.7133506522,-5.43299178598,-4.69891882477,6759053.07579,1.39087041233,-0.44067629885784043,-0.054160359625292406,0.4774337956001463,-2.6148198912764955,-0.18509115135921272,-2.2377683224245994,-4.830255147411146E-4,-9.98395249841023E-4,-2.1674230125910942E-4,439660.966818,1.26343843623E-12,945.043435177,4.7133506522,-5.43299178598,-4.69891882477
5100.0,3202537.33366,4512965.07563,3970563.97883,-3874007.55751,3948720.39332,3973430.52753,-2141.92484436,-6130.93704072,3987.3046765,4.88745819009,-4.98171610154,-5.01289047228,6759053.07579,1.39524568142,-0.43939781494816127,-0.054357850696993705,0.4894392954702186,-2.6506849040307214,-0.13922917814144684,-2.1967345042624227,-4.912629253359428E-4,-9.942028641253325E-4,-2.1745918113139778E-4,440060.467782,1.27553912474E-12,947.134897068,4.88745819009,-4.98171610154,-5.01289047228
5160.0,2830699.47928,4552106.95507,4200492.97253,-3993630.82666,3572178.03751,4203467.0658,-1843.99220974,-6415.73830514,3677.66076718,5.03997208328,-4.50809761017,-5.30478594146,6759053.07579,1.3996209505,-0.4378936828422298,-0.05472642742305392,0.5011692835253867,-2.68492600731394,-0.09222081512938551,-2.157689032361841,-4.994682339327592E-4,-9.899484965895117E-4,-2.1810869239411658E-4,440209.871227,1.28932716213E-12,949.681935827,5.03997208328,-4.50809761017,-5.30478594146
5220.0,2446327.01825,4573970.88854,4411345.24709,-4095116.87764,3179412.64155,4414413.37799,-1537.57358784,-6671.50136565,3351.19722158,5.17021907258,-4.01411250769,-5.57334135339,6759053.07579,1.40399621959,-0.436181718531183,-0.055258560384488516,0.5126088439986034,-2.717684378749858,-0.04418850285127741,-2.1204904805468097,-5.07638161939291E-4,-9.856340436891274E-4,-2.1869060361835233E-4,440096.796396,1.31256729092E-12,952.729244057,5.17021907258,-4.01411250769,-5.57334135339
5280.0,2051002.40476,4578552.04154,4602154.78958,-4177996.99836,2772201.93365,4605303.01821,-1224.02311939,-6897.06562669,3009.35023591,5.27760899537,-3.5018210563,-5.81737819459,6759053.07579,1.40837148868,-0.43427988106032495,-0.05594547608882959,0.523744300477633,-2.7490955915703257,0.004757002933658793,-2.0850045924189455,-5.157694829241747E-4,-9.812614894394239E-4,-2.1920472578494706E-4,439710.403817,1.33671748247E-12,956.323129023,5.27760899537,-3.5018210563,-5.81737819459
5340.0,1646358.41437,4565907.54622,4772043.76549,-4241884.73652,2352389.5213,4775257.78059,-904.727800986,-7091.39649329,2653.6240508,5.36163721947,-2.97336207735,-6.03580753351,6759053.07579,1.41274675777,-0.4322061850654416,-0.05677721573867796,0.5345632898755949,-2.779288754150564,0.054515552882334194,-2.051105297086791,-5.238590258650151E-4,-9.768329030504026E-4,-2.196509123578021E-4,439041.639925,1.38134194825E-12,960.511179722,5.36163721947,-2.97336207735,-6.03580753351
5400.0,1234071.92822,4536155.98949,4920226.43591,-4286477.71557,1921877.19323,4923491.61811,-581.10228154,-7253.58991356,2285.58545013,5.42188702733,-2.43094720503,-6.22763422669,6759053.07579,1.41712202686,-0.4299786190041254,-0.05774270472181273,0.5450548310922171,-2.808386150366621,0.10499655548130557,-2.0186752686834644,-5.31903678274269E-4,-9.723504363751503E-4,-2.2002905927515144E-4,438083.464978,1.43896898494E-12,965.340602005,5.42188702733,-2.43094720503,-6.22763422669
5460.0,815857.50743,4489476.73228,5046012.73733,-4311559.13418,1482616.95938,5049314.2239,-254.583517252,-7382.87656815,1906.85800787,5.45803194134,-1.87685486137,-6.39196111156,6759053.07579,1.42149729594,-0.42761506943292044,-0.05882983205718265,0.5552093875454922,-2.8365032532089374,0.1561179837523218,-1.9876061684089223,-5.399003891889951E-4,-9.678163212307585E-4,-2.2033910486404066E-4,436831.060472,1.5112874095E-12,970.854682908,5.45803194134,-1.87685486137,-6.39196111156
5520.0,393460.772456,4426109.06113,5148811.50896,-4316998.94089,1036602.85042,5152134.25972,73.3747107215,-7478.62568895,1519.11608399,5.46983797588,-1.31342391202,-6.52799317687,6759053.07579,1.42587256503,-0.42513325140882785,-0.06002553893336465,0.5650189228616435,-2.8637490149607876,0.20780545146229173,-1.9577986803441156,-5.47846172027957E-4,-9.63232866562164E-4,-2.2058102966928455E-4,435282.012521,1.60026441778E-12,977.087008924,5.46983797588,-1.31342391202,-6.52799317687
5580.0,-31348.3966214,4346351.17324,5228133.35252,-4302754.67579,585862.499869,5231462.21682,401.307411114,-7540.34848648,1124.07857116,5.45716579717,-0.743046963407,-6.63504169538,6759053.07579,1.43024783412,-0.4225506450675316,-0.06131591540800741,0.5744769490636654,-2.890226363779362,0.25999136511963694,-1.9291624299441124,-5.557381072986301E-4,-9.586024554593807E-4,-2.207548562003945E-4,433436.467923,1.70812841678E-12,984.053613052,5.45716579717,-0.743046963407,-6.63504169538
5640.0,-456782.821921,4250558.99592,5283593.10973,-4268871.97156,132448.532866,5286912.89411,727.744123606,-7567.70116342,723.50239512,5.4199727668,-0.16816326325,-6.71252829728,6759053.07579,1.43462310321,-0.41988443817937643,-0.06268630427726211,0.583578566654555,-2.916032860916946,0.3126141526656475,-1.9016158575191813,-5.635733451488717E-4,-9.539275420665218E-4,-2.2086064860520185E-4,431297.259978,1.83732391633E-12,991.744204928,5.4199727668,-0.16816326325,-6.71252829728
5700.0,-881045.133327,4139144.84105,5314911.94281,-4215484.70635,-321570.212899,5318207.47909,1051.21477831,-7560.48748941,319.175773169,5.35831484034,0.408748830566,-6.75998895603,6759053.07579,1.4389983723,-0.4171514744370078,-0.06412141107306416,0.5923204960978159,-2.9412614924022713,0.3656175662941608,-1.8750861074238376,-5.713491077562776E-4,-9.492106483564311E-4,-2.208985122666868E-4,428870.001421,1.99044295217E-12,1000.11477243,5.35831484034,0.408748830566,-6.75998895603
5760.0,-1302334.99809,4012575.8955,5321919.00358,-4142814.80182,-774117.606858,5325175.21719,1370.25566403,-7518.66091023,-87.0887630624,5.27234828788,0.985179843748,-6.77707785215,6759053.07579,1.44337364138,-0.41436820705055766,-0.06560541911925168,0.6007011002589019,-2.9660015885846844,0.4189500546112503,-1.8495089888043867,-5.790626915604579E-4,-9.444543608040857E-4,-2.2086859330905034E-4,426163.142243,2.17014860835E-12,1009.08444902,5.27234828788,0.985179843748,-6.77707785215
5820.0,-1718856.45317,3871372.54814,5304552.67748,-4051171.66017,-1223119.25713,5307754.65559,1683.4154934,-7442.3261628,-493.461571985,5.16233119929,1.55859766783,-6.76357107406,6759053.07579,1.44774891047,-0.41155065717564693,-0.06712210855202497,0.6087203974620246,-2.9903398839155226,0.4725641981102248,-1.824829062900296,-5.867114693103085E-4,-9.396613269640051E-4,-2.2077107805491676E-4,423187.990535,2.37911350704E-12,1018.53884588,5.16233119929,1.55859766783,-6.76357107406
5880.0,-2128825.31748,3716106.55431,5262861.38889,-3940951.23457,-1666511.62342,5265994.44832,1989.26155102,-7331.74036612,-898.103322437,5.02862473314,2.12645655041,-6.71937010921,6759053.07579,1.45212417956,-0.40871437658079274,-0.06865497820204773,0.6163800649040181,-3.014361749639258,0.5264162011376989,-1.8009999199406777,-5.942928919437298E-4,-9.348342519516676E-4,-2.2060619239177917E-4,419958.694923,2.61999247039E-12,1028.33991707,5.02862473314,2.12645655041,-6.71937010921
5940.0,-2530476.65938,3547399.03901,5197003.95552,-3812634.72876,-2102251.17886,5200053.70985,2286.38590757,-7187.3135572,-1299.17261595,4.87169406533,2.68620660527,-6.64450507325,6759053.07579,1.45649944865,-0.40587441391717544,-0.07018736924055263,0.6236834322402537,-3.038152659241749,0.5804654331250727,-1.7779847238440978,-6.01804490289324E-4,-9.299758948551131E-4,-2.2037420107212245E-4,416492.187642,2.89543271279E-12,1038.33984445,4.87169406533,2.68620660527,-6.64450507325
6000.0,-2922072.29331,3365918.33996,5107249.48006,-3666786.92221,-2528323.58661,5110201.90586,2573.4116808,-7009.6086407,-1694.83379346,4.69210899059,3.23530384599,-6.53913761962,6759053.07579,1.46087471774,-0.4030452839415027,-0.07170258949896935,0.6306354652553391,-3.0617999807113985,0.6346740114722932,-1.7557571309773454,-6.092438765726133E-4,-9.250890650714977E-4,-2.2007540696467707E-4,412808.087759,3.20810492468E-12,1048.39495786,4.69210899059,3.23530384599,-6.53913761962
6060.0,-3301908.27719,3172377.69254,4993976.76872,-3504054.11881,-2942752.85504,4996818.27048,2848.99932093,-6799.34072098,-2083.26490554,4.49054412846,3.7712207365,-6.40356346811,6759053.07579,1.46524998683,-0.40024093899907437,-0.0731840373984716,0.6372427395941682,-3.0853952425175724,0.6890064179419392,-1.7343027360525094,-6.16608745747727E-4,-9.201766185965224E-4,-2.1971015021666088E-4,408928.564602,3.56072619458E-12,1058.37619421,4.49054412846,3.7712207365,-6.40356346811
6120.0,-3668322.38111,2967532.75876,4857673.26754,-3325161.71827,-3343610.43351,4860390.74114,3111.8528953,-6557.375786,-2462.66582119,4.26777868438,4.29145724209,-6.23821448707,6759053.07579,1.46962525591,-0.39747474210906064,-0.07461532445498638,0.6435134046475683,-3.109037099256614,0.7434291394268266,-1.7136212738720458,-6.238968766440811E-4,-9.152414542615047E-4,-2.1927880738286006E-4,404878.162011,3.95604667125E-12,1068.17450198,4.26777868438,4.29145724209,-6.23821448707
6180.0,-4019701.49553,2752179.00321,4698933.50908,-3130911.41127,-3729024.20909,4701514.4033,3360.72634414,-6284.7287138,-2831.26644658,4.02469571623,4.79355235222,-6.04366026157,6759053.07579,1.474000525,-0.39475944103239974,-0.07598039536098813,0.6494571377286802,-3.1328353510229356,0.7979103221863222,-1.6937299309932954,-6.311061329088586E-4,-9.102865099355412E-4,-2.1878179047442445E-4,400683.584632,4.39678255562E-12,1077.70160269,4.02469571623,4.79355235222,-6.04366026157
6240.00000001,-4354488.94585,2527148.9197,4518457.06368,-2922178.00077,-4097187.36259,4520889.43969,3594.42967625,-5982.56057446,-3187.33502067,3.76228085798,5.27509603514,-5.82060907841,6759053.07579,1.47837579409,-0.3921071427673015,-0.07726364469863284,0.6550850887687104,3.126268723931073,0.8524194252937665,-1.6746683324483165,-6.382344637766977E-4,-9.053147587049824E-4,-2.1821954597799268E-4,396373.44808,4.88549049787E-12,1086.88766956,3.76228085798,5.27509603514,-5.82060907841
6300.00000001,-4671191.67873,2293309.11278,4317045.99204,-2699905.85431,-4446367.04094,4319318.58037,3811.83507065,-5652.17520314,-3529.18645076,3.48162045381,5.73374157108,-5.56990825881,6759053.07579,1.48275106318,-0.38952928797493797,-0.07845002938538764,0.6604098158811209,3.1017529483200734,0.9069268529357435,-1.6565061330290312,-6.452799046491415E-4,-9.003292050389435E-4,-2.1759255380849444E-4,391977.99548,5.42438726398E-12,1095.67763864,3.48162045381,5.73374157108,-5.56990825881
6360.00000001,-4968387.28395,2051557.23974,4095601.79765,-2465104.99395,-4774912.80163,4097704.05248,4011.88284749,-5295.01502332,-3855.19064664,3.18389905968,6.1672181982,-5.29254377057,6759053.07579,1.48712633227,-0.38703662497578306,-0.07952517602260085,0.6654452121642647,3.0766137579252364,0.9614035339203755,-1.6393547959523516,-6.522405774716299E-4,-8.953328809478359E-4,-2.169013262253012E-4,387528.783533,6.01512279013E-12,1104.02742957,3.18389905968,6.1672181982,-5.29254377057
6420.00000001,-5244730.81453,1802818.81913,3855121.88067,-2218846.83276,-5081264.7836,3857044.03112,4193.58726913,-4912.65610392,-4163.7808083,2.87039627331,6.57334399256,-4.98963905461,6759053.07579,1.49150160135,-0.3846391830356025,-0.08047548237557695,0.670206424234653,3.0506056991176984,1.0158203952790397,-1.623386359567066,-6.591146909446837E-4,-8.903288421488781E-4,-2.1614640670648876E-4,383058.341937,6.65851644144E-12,1111.90077376,2.87039627331,6.57334399256,-4.98963905461
6480.00000001,-5498961.36682,1548043.91339,3596695.49745,-1962259.56947,-5363961.55818,3598428.59556,4356.04212998,-4506.80243876,-4453.46161809,2.54248285958,6.9500388905,-4.66245300466,6759053.07579,1.49587687044,-0.3823462447892523,-0.08128821229627499,0.6747097630545933,3.023395333777542,1.070147634430909,-1.6088643743253779,-6.659005405343769E-4,-8.853201642455698E-4,-2.153283687847026E-4,378599.810642,7.35426771503E-12,1119.26688618,2.54248285958,6.9500388905,-4.66245300466
6540.00000001,-5729908.3816,1288203.69388,3321499.23295,-1696523.2551,-5621647.61349,3323035.19808,4498.42609206,-4079.27944312,-4722.81728482,2.20161614478,7.29533774966,-4.3123770451,6759053.07579,1.50025213953,-0.38016631780926446,-0.08195158347392555,0.6789726076720444,2.9945075990601517,1.1243536061079478,-1.5961971154021566,-6.725965083187475E-4,-8.80309938940328E-4,-2.1444781485335275E-4,374186.560043,8.10065508754E-12,1126.09894085,2.20161614478,7.29533774966,-4.3123770451
6600.00000001,-5936497.62682,1024286.89809,3030791.99657,-1422864.54817,-5853080.42499,3032123.65605,4620.00772186,-3632.02666813,-4970.51938436,1.8493346616,7.60740333365,-3.94093125913,6759053.07579,1.50462740862,-0.3781071054012535,-0.08245484748071712,0.6830133026057285,2.963228946858713,1.1784029443631838,-1.5860340503658037,-6.792010626404772E-4,-8.753012702628301E-4,-2.135053749379019E-4,369851.799781,8.89424042947E-12,1132.37318547,1.8493346616,7.60740333365,-3.94093125913
6660.00000001,-6117756.82249,757296.189816,2725909.55538,-1142551.17782,-6057137.06573,2727030.68103,4720.15018305,-3167.08974167,-5195.33443833,1.48725203533,7.88453909477,-3.54975952895,6759053.07579,1.50900267771,-0.3761754768966665,-0.08278836167744144,0.6868510496120293,2.928420260408351,1.232253069285483,-1.5794525609925087,-6.857127575902737E-4,-8.702972708576988E-4,-2.1250170544970042E-4,365628.182319,9.72960085187E-12,1138.06849711,1.48725203533,7.88453909477,-3.54975952895
6720.00000001,-6272820.86867,488244.434366,2408258.62217,-856886.136842,-6232820.31019,2409163.96263,4798.31553971,-2686.61155157,-5396.13117096,1.11705011239,8.12520162091,-3.14062365992,6759053.07579,1.51337794679,-0.37437743779718136,-0.08294365262235247,0.6905057946976108,2.888123807779186,1.2858469774563086,-1.5783506565898364,-6.92130232336665E-4,-8.653010583210556E-4,-2.114374879101506E-4,361547.40786,1.05991140046E-11,1143.16619028,1.11705011239,8.12520162091,-3.14062365992
6780.00000001,-6400936.63819,218150.902132,2079310.51959,-567201.6293,-6379264.18691,2079995.82799,4854.06862471,-2192.82269569,-5571.88738237,0.740471342795,8.32801260524,-2.71539647313,6759053.07579,1.51775321588,-0.37271810022802776,-0.08291347073278406,0.6939981112137742,2.8386425535734956,1.3390964384362989,-1.5863673547882635,-6.984522102655505E-4,-8.603157515772181E-4,-2.1031342767312573E-4,357639.83744,1.14928253511E-11,1147.64990563,0.740471342795,8.32801260524,-2.71539647313
6840.00000001,-6501467.29684,-51962.5851176,1740594.445,-274852.800214,-6495738.93709,1741056.50208,4887.08042931,-1688.03123164,-5721.69637647,0.359310440102,8.49177019284,-2.27605386417,6759053.07579,1.52212848497,-0.37120165431982327,-0.08269183603494212,0.6973490799907356,2.77204187360319,1.3918361840577027,-1.6113806827851846,-7.046774979836199E-4,-8.553444673513885E-4,-2.091302526142277E-4,353934.121159,1.23984242755E-11,1151.50538093,0.359310440102,8.49177019284,-2.27605386417
6900.00000001,-6573896.1154,-321075.549605,1393690.36482,18788.722697,-6581655.33799,1393926.99716,4897.13097144,-1174.61176825,-5844.77288159,-0.0245946455997,8.6154595556,-1.82466584024,6759053.07579,1.52650375406,-0.36983134112979027,-0.0822740749350249,0.7005801674071784,2.6677864207449895,1.443667933159256,-1.6738705486099874,-7.108049841559624E-4,-8.50390316680741E-4,-2.0788871183226212E-4,350456.84849,1.33013681762E-11,1154.72042737,-0.0245946455997,8.6154595556,-1.82466584024
6960.00000001,-6617829.7401,-588172.777942,1040221.57054,312341.442734,-6636568.35348,1040231.66368,4884.11160299,-654.993949337,-5940.45840334,-0.409372393755,8.69826254692,-1.36338656341,6759053.07579,1.53087902315,-0.36860942784062706,-0.08165684803802588,0.703713102356759,2.454302941823001,1.4932066018922978,-1.8453556810211205,-7.168336382023068E-4,-8.454564015389556E-4,-2.0658957433326004E-4,347232.22738,1.4185200058E-11,1157.28569793,-0.409372393755,8.69826254692,-1.36338656341
7020.00000001,-6633000.89028,-852248.249004,681846.932094,604420.72862,-6660180.07678,681630.438656,4848.02671944,-131.65038945,-6008.22595132,-0.79312795814,8.73956629053,-0.894443443811,6759053.07579,1.53525429223,-0.3675371859822896,-0.08083816912295344,0.7067697530645134,1.76473660605164,1.5317599330114884,-2.4926370757795606,-7.227625088483975E-4,-8.405458115113646E-4,-2.0523362771799038E-4,344281.798482,1.50320407847E-11,1159.19521735,-0.79312795814,8.73956629053,-0.894443443811
7080.00000001,-6619270.45537,-1112309.05085,320252.887974,893645.632716,-6652341.93454,319810.83046,4788.99483915,392.915870197,-6047.68408435,-1.17395391808,8.73897056345,-0.420125342437,6759053.07579,1.53962956132,-0.36661487346033617,-0.07981741547640174,0.7097720046397925,0.5195347057107981,1.5199536184373834,2.5879712203085274,-7.285907225499626E-4,-8.356616205940196E-4,-2.0382167687121768E-4,341624.190274,1.58232410407E-11,1160.44655368,-1.17395391808,8.73897056345,-0.420125342437
7140.00000001,-6576628.9665,-1367379.26759,-42854.7855918,1178645.75439,-6613056.12594,-43520.317251,4707.24902451,916.184309294,-6058.58022307,-1.54994145227,8.69629384202,0.0572300400458,6759053.07579,1.54400483041,-0.3658417211360906,-0.07859532984923942,0.7127416382785345,0.10541432268760625,1.475367442240641,2.216868739363223,-7.34317481787527E-4,-8.308068840555893E-4,-2.0235454265968633E-4,339274.920048,1.65401662713E-11,1161.04074865,-1.54994145227,8.69629384202,0.0572300400458
7200.00000001,-6505197.42188,-1616503.81657,-405759.381047,1458068.1083,-6542476.27466,-406645.237271,4603.13662233,1435.63019564,-6040.80318364,-1.91919184086,8.61157789123,0.535249496955,6759053.07579,1.5483800995,-0.36521592470213493,-0.07717401438111832,0.7157002129281961,-0.050398808540350976,1.4259425218474486,2.1045194747628484,-7.399420632390529E-4,-8.259846354231763E-4,-2.0083306064057712E-4,337246.244864,1.71650681808E-11,1160.98208495,-1.91919184086,8.61157789123,0.535249496955
7260.00000001,-6405227.44953,-1858752.21585,-766741.793528,1730583.9563,-6440907.27774,-767843.778201,4477.1183068,1948.73808135,-5994.38489244,-2.27982819195,8.48509079267,1.01153826498,6759053.07579,1.55275536859,-0.36473464254078997,-0.07555691688724717,0.7186689501832877,-0.137587217870385,1.3756117885245596,2.0612938962639205,-7.454638158408787E-4,-8.211978835571443E-4,-1.9925807978218082E-4,335547.065491,1.76819806954E-11,1160.27776526,-2.27982819195,8.48509079267,1.01153826498
