time,gePosition_m_X,gePosition_m_Y,gePosition_m_Z,eiPosition_m_X,eiPosition_m_Y,eiPosition_m_Z,eiVelocity_m_s_X,eiVelocity_m_s_Y,eiVelocity_m_s_Z,eiAccel_m_s2_X,eiAccel_m_s2_Y,eiAccel_m_s2_Z,semiMajorAxis_m,gast_rad,eulerAngle_rad_Roll,eulerAngle_rad_Pitch,eulerAngle_rad_Yaw,eulerAngleWrtEi_rad_Roll,eulerAngleWrtEi_rad_Pitch,eulerAngleWrtEi_rad_Yaw,bodyAngularRateWrtEi_rad_s_Roll,bodyAngularRateWrtEi_rad_s_Pitch,bodyAngularRateWrtEi_rad_s_Yaw,altitudeMsl_m,airDensity_kg_m3,ambientTemperature_dgK,eiGravitation_m_s2_X,eiGravitation_m_s2_Y,eiGravitation_m_s2_Z
0.0,-1428622.31101,4163200.46562,5136049.67203,-4292653.41,955168.47,5139356.57,109.649663,-7527.72649,1484.521489,5.51382748437,-1.22706558048,-6.62051527043,6758662.11723,1.02334780893,5.666859310097427E-17,-0.2024581932313422,-1.0271182499535224E-16,-2.471593905353287,-0.03718896447605677,-1.4289931348888525,0.0,0.0,0.0,398252.763838,3.11591362917E-12,976.47737094,5.51382748437,-1.22706558048,-6.62051527043
60.0,-1789722.83699,3920281.517,5213135.36143,-4276158.4546,501645.019928,5216446.72621,439.970417602,-7583.89610774,1084.15697226,5.4926525016,-0.644535635282,-6.7198490541,6758338.67342,1.02772307802,-5.610280760655407E-6,-0.2024570134934876,-1.9356712640008136E-4,-2.4720592963860404,0.01612042366569264,-1.3866611796765804,-7.049068603766561E-7,-0.001134477987848274,-3.302852372534542E-6,398352.017552,3.20589255023E-12,983.703908642,5.4926525016,-0.644535635282,-6.7198490541
120.0,-2144776.2348,3662449.45909,5266054.17801,-4239897.51274,45802.1410039,5269354.70327,768.263830662,-7605.01080953,678.75805128,5.44627453044,-0.0590083943411,-6.7882649339,6758119.22613,1.03209834711,-3.8147419223626116E-5,-0.2024530454036574,-5.856754907215809E-4,-2.470307948697733,0.06928029515548614,-1.3441021824376438,-1.5682193695747527E-6,-0.0011344959082205722,-6.615080444266568E-6,398348.23424,3.31321747456E-12,991.665859421,5.44627453044,-0.0590083943411,-6.7882649339
180.0,-2492273.27519,3390831.04927,5294559.8701,-4184037.48377,-410253.062754,5297834.29902,1093.02331829,-7590.97009079,270.18996289,5.37489807257,0.526869883677,-6.82544631271,6758006.35087,1.0364736162,-1.2116750542498243E-4,-0.20244566768921504,-0.0011709972719697553,-2.4663158457375527,0.12219457297341439,-1.3010762842746364,-2.5897433371880404E-6,-0.0011345075693185744,-9.935939052561712E-6,398238.252821,3.43832604467E-12,1000.31066748,5.37489807257,0.526869883677,-6.82544631271
240.0,-2830728.87544,3106603.00228,5298518.51983,-4108835.22912,-864412.225434,5301751.71518,1412.75781134,-7541.83245392,-139.66707901,5.27883586912,1.11044686703,-6.8312110321,6758000.76372,1.04084888529,-2.781307947989677E-4,-0.20243430876530247,-0.001942605137008149,-2.4600313118668202,0.17476349162007102,-1.2573391714524293,-3.7692476844597157E-6,-0.0011345124437282144,-1.3264676401906132E-5,398020.789685,3.58114732597E-12,1009.54825622,5.27883586912,1.11044686703,-6.8312110321
300.0,-3158688.38419,2810986.95942,5277909.19864,-4014636.44633,-1314575.26446,5281086.21227,1725.99825932,-7457.81546352,-548.926032789,5.15850911539,1.68907466208,-6.80551406794,6758101.55846,1.04522415437,-5.322876968213067E-4,-0.20241846956025608,-0.002892006029399876,-2.4513746395741123,0.22688152919940394,-1.212638578679881,-5.106463907715847E-6,-0.0011345099435632596,-1.6600533489169586E-5,397696.49466,3.74108500984E-12,1019.25623465,5.15850911539,1.68907466208,-6.80551406794
360.0,-3474733.79743,2505244.30993,5232824.1296,-3901874.15295,-1758659.90952,5235930.27111,2031.30412504,-7339.29513692,-955.701321629,5.01444688648,2.26012140401,-6.74844952394,6758306.41192,1.04959942346,-9.065654592314258E-4,-0.20239774270724714,-0.0040091833867894324,-2.440237430159686,0.27843520853324666,-1.1667109306425738,-6.601085475827106E-6,-0.0011344994211529684,-1.9942743536966846E-5,397267.968598,3.9170849761E-12,1029.29154466,5.01444688648,2.26012140401,-6.74844952394
420.0,-3777489.87797,2190670.88258,5163468.34944,-3771066.78235,-2194611.17361,5166489.25378,2327.26981525,-7186.80461788,-1358.11721365,4.84728455835,2.82098346594,-6.66025150367,6758611.71689,1.05397469255,-0.0014234561196567346,-0.2023718276972304,-0.005282647706850566,-2.4264817776195184,0.32930071575502307,-1.1192781943573564,-8.252767163976442E-6,-0.0011344801697995635,-2.3290531437403787E-5,396739.73966,4.10776328629E-12,1039.50533525,4.84728455835,2.82098346594,-6.66025150367
480.0,-4065630.14964,1868591.529,5070158.86743,-3622815.89711,-2620410.7224,5073080.561,2612.53098587,-7001.03211436,-1754.31621539,4.6577612202,3.36909767504,-6.54129367141,6759012.62362,1.05834996164,-0.002104906310707631,-0.20234054168951335,-0.006699495083496596,-2.40993949275919,0.37934129187713267,-1.070045087132488,-1.0061124325786983E-5,-0.0011344514246142464,-2.664311320769178E-5,396118.197297,4.31154770188E-12,1049.75677683,4.6577612202,3.36909767504,-6.54129367141
540.0,-4337882.73846,1540354.62211,4953323.32231,-3457803.52939,-3034086.09821,4956132.28745,2885.77066617,-6782.81811798,-2142.46740089,4.44671627952,3.90195295386,-6.39208758234,6759502.99574,1.06272523073,-0.0029722094954152175,-0.20230382588395354,-0.008245473058449793,-2.3904116628473107,0.42840436585028874,-1.018696889844619,-1.2025732106073805E-5,-0.001134412363442219,-2.9999695459375573E-5,395411.48522,4.52678742147E-12,1059.92255102,4.44671627952,3.90195295386,-6.39208758234
600.0,-4593036.03526,1207326.49337,4813498.1436,-3276789.16015,-3433719.75662,4816181.38094,3145.72516348,-6533.15195256,-2520.77461123,4.21508559937,4.41710100192,-6.2132800961,6760075.30943,1.06710049981,-0.00404590118144863,-0.20226174733610083,-0.009905052930511554,-2.367668984746518,0.47631842124721674,-0.964898263413571,-1.4146124597064531E-5,-0.001134362107854033,-3.335947488424658E-5,394629.356742,4.7518071501E-12,1069.90095018,4.21508559937,4.41710100192,-6.2132800961
660.0,-4829944.15694,870885.831801,4651326.22601,-3080606.3513,-3817457.87756,4653871.31466,3391.18973141,-6253.16771342,-2887.4844822,3.96389754036,4.91216593171,-6.00565031653,6760720.54072,1.0714757689,-0.005345657621083004,-0.20221449611405606,-0.01166150757188739,-2.3414535056176056,0.5228896292502554,-0.908293668414397,-1.642179394093355E-5,-0.0011342997242294386,-3.672163775762219E-5,393782.997577,4.98490683636E-12,1079.61147207,3.96389754036,4.91216593171,-6.00565031653
720.0,-5047532.18625,532418.065065,4467554.12822,-2870159.04467,-4183518.91578,4469949.28331,3621.0240054,-5944.13965495,-3240.89428529,3.69426919928,5.38485308573,-5.77010649241,6761428.09141,1.07585103799,-0.0068901984574074975,-0.20216237764171174,-0.013496993834762784,-2.3114826627458736,0.5678983472276622,-0.848510249623177,-1.885218938147738E-5,-0.0011342242249250088,-4.0085359460649106E-5,392884.822148,5.22432451983E-12,1088.99169716,3.69426919928,5.38485308573,-5.77010649241
780.0,-5244801.17106,193309.740434,4263028.80683,-2646417.54156,-4530201.85917,4265262.93428,3834.15722202,-5607.4770626,-3579.35958944,3.40740296798,5.83295749311,-5.50768317635,6762185.79818,1.08022630708,-0.008697193736184711,-0.20210579999973619,-0.015392638785281356,-2.277456823660206,0.6110956857896566,-0.7851643614906788,-2.143671626894539E-5,-0.0011341345695115796,-4.344980402669232E-5,391948.249752,5.4681838122E-12,1097.99316231,3.40740296798,5.83295749311,-5.50768317635
840.0,-5420832.86431,-145057.078857,4038693.89578,-2410414.17499,-4855894.16399,4040756.64398,4029.59323993,-5244.71861463,-3901.30176252,3.1045833313,6.25437251234,-5.21953871541,6762980.05488,1.08460157617,-0.010783175672754936,-0.20204525599580644,-0.017328629245480485,-2.239071852014994,0.6522004999647085,-0.7178732380682341,-2.4174735020120254E-5,-0.0011340296661233877,-4.681412370814437E-5,390987.466467,5.71444355452E-12,1106.57738118,3.1045833313,6.25437251234,-5.21953871541
900.0,-5574794.18374,-481310.387487,3795585.5403,-2163238.6866,-5159079.33605,3797467.34851,4206.41536962,-4857.52620755,-4205.21532855,2.78717363957,6.64709912894,-4.90695290578,6763796.05671,1.08897684525,-0.013163455547782386,-0.20198129984700905,-0.019284304410374875,-2.196038465612824,0.6908973697244394,-0.6462735555547374,-2.7065560040001193E-5,-0.0011339083728613177,-5.017745857220708E-5,390017.17786,5.96086204763E-12,1114.71263519,2.78717363957,6.64709912894,-4.90695290578
960.0,-5705941.36827,-814093.767331,3534827.79395,-1906033.31963,-5438344.12407,3536519.93713,4363.79099946,-4447.67819708,-4489.67518048,2.45661248079,7.00925616174,-4.57132445183,6764618.15338,1.09335211434,-0.015852046104104723,-0.20191451850233555,-0.021238251580854295,-2.148110124636627,0.7268363965044108,-0.5700486092861767,-3.0108458605857893E-5,-0.0011337694993095895,-5.353893612198061E-5,389052.356478,6.20497896162E-12,1122.37152956,2.45661248079,7.00925616174,-4.57132445183
1020.0,-5813623.80476,-1142071.85542,3257627.58803,-1639987.64134,-5692385.28859,3259122.21788,4500.9759824,-4017.06199951,-4753.34362334,2.11440926795,7.33909134423,-4.21416777719,6765430.28004,1.09772738343,-0.01886158982413786,-0.2018454978024933,-0.02316840526250111,-2.09512058408405,0.7596359203553936,-0.4889652254875631,-3.330264972089827E-5,-0.0011336118081309936,-5.6897670947746615E-5,388107.987206,6.44412047806E-12,1129.52942528,2.11440926795,7.33909134423,-4.21416777719
1080.0,-5897287.49674,-1463935.73086,2965269.2849,-1366333.11074,-5920015.90664,2966559.46694,4617.31872648,-3567.66600924,-4994.97719578,1.76213874454,7.63499296941,-3.83710876108,6766216.42426,1.10210265252,-0.02220329347503736,-0.20177478398841428,-0.02505214997611228,-2.0370306703018306,0.7888894703331418,-0.40291995598085667,-3.664730294018546E-5,-0.0011334340167389126,-6.025276441071464E-5,387198.81301,6.67542463687E-12,1136.16341803,1.76213874454,7.63499296941,-3.83710876108
1140.0,-5956478.14581,-1778408.19766,2659108.8307,-1086337.4116,-6120171.17038,2660188.57714,4712.26391942,-3101.57081299,-5213.43319556,1.40143426835,7.89550159107,-3.44187909901,6766961.08501,1.10647792161,-0.025886869313495237,-0.20170284130197158,-0.026866427104085818,-1.9739809588099893,0.8141782427665314,-0.31199122237648286,-4.0141537173516505E-5,-0.0011332347990845408,-6.360330435870796E-5,386339.083441,6.89588634853E-12,1142.25174011,1.40143426835,7.89550159107,-3.44187909901
1200.0,-5990843.81708,-2084248.93749,2340567.52777,-801298.574654,-6291913.63771,2341431.82603,4785.35581405,-2620.93971478,-5407.67582203,1.03397991277,8.11932120331,-3.03030917065,6767649.68648,1.11085319069,-0.029920483322136676,-0.20163000667723194,-0.028587845929489528,-1.906342893843701,0.835089944884598,-0.21648994137984995,-4.3784419471894915E-5,-0.0011330127875121684,-6.694836487850138E-5,385542.308621,7.10241920014E-12,1147.77341095,1.03397991277,8.11932120331,-3.03030917065
1260.0,-6000137.16245,-2380259.50427,2011125.45239,-512538.917669,-6434437.89489,2011770.28904,4836.2410089,-2128.00861912,-5576.78184723,0.661501578828,8.30532937804,-2.60431948494,6768268.92199,1.11522845978,-0.034310710825587704,-0.20155644271081385,-0.03019279877124296,-1.8347564423309244,0.851243752447137,-0.11699671566313904,-4.757496380021514E-5,-0.0011327665747156955,-7.028700608411275E-5,384821.022053,7.29193017522E-12,1152.70799081,0.661501578828,8.30532937804,-2.60431948494
1320.0,-5984217.1792,-2665288.13202,1672314.54859,-221398.835055,-6547074.59461,1672736.92861,4864.67067289,-1625.07534681,-5719.94573603,0.285757404111,8.45258599293,-2.16591091358,6768807.01832,1.11960372887,-0.03906249977066761,-0.20148209022209296,-0.03165757979042497,-1.7601397529808154,0.8623194042314907,-0.014371054008297298,-5.15121298029657E-5,-0.0011324947157841587,-7.36182739450626E-5,384186.556343,7.46140151334E-12,1157.03527734,0.285757404111,8.45258599293,-2.16591091358
1380.0,-5943050.48564,-2938234.3277,1325711.43299,70769.5284227,-6629293.83834,1325909.39427,4870.50218111,-1114.48847427,-5836.48415092,-0.091472227176,8.56034037334,-1.71715399189,6769253.92473,1.12397899796,-0.044179141879936094,-0.20140662171225251,-0.03295850671704058,-1.683658332990719,0.8680864723403127,0.09027987352975848,-5.5594821569408794E-5,-0.0011321957303362675,-7.694120015547445E-5,383648.836509,7.60798875231E-12,1160.73554405,-0.091472227176,8.56034037334,-1.71715399189
1440.0,-5876712.10024,-3198053.22283,972929.949198,362608.683988,-6680707.87706,972902.572122,4853.70014587,-598.635792371,-5925.83979367,-0.468394816669,8.62803684187,-1.26017755798,6769601.44054,1.12835426705,-0.04966225179972116,-0.2013293970468827,-0.03407204445860202,-1.6066497274966174,0.868428418294561,0.1956769660676331,-5.9821886401028724E-5,-0.0011318681047544266,-8.025480204419036E-5,383216.195918,7.72913502112E-12,1163.790498,-0.468394816669,8.62803684187,-1.26017755798
1500.0,-5785385.71436,-3443759.65955,615613.512469,652762.248813,-6701073.11052,615360.924541,4814.33683995,-79.9324778161,-5987.584551,-0.843215856338,8.65531877437,-0.797156938713,6769843.29927,1.13272953613,-0.055511754249434324,-0.20124942258211515,-0.034974929357273976,-1.5305129958303005,0.8633561132684352,0.30048011965294963,-6.419211358962692E-5,-0.0011315102944972973,-8.355808253148673E-5,382895.219723,7.8226763845E-12,1166.18401576,-0.843215856338,8.65531877437,-0.797156938713
1560.0,-5669363.45322,-3674431.98979,255427.287154,939881.403253,-6690291.37025,254950.662674,4752.59201674,439.190937267,-6021.42192112,-1.21414882471,8.64203128514,-0.330301811203,6769975.22516,1.13710480522,-0.06172587908682666,-0.20116531485130223,-0.03564429278780804,-1.4565848510577377,0.8530075085816866,0.4034124909902382,-6.870423321112489E-5,-0.0011311207265135874,-8.685003012959792E-5,382690.620199,7.88693230482E-12,1167.90268393,-1.21414882471,8.64203128514,-0.330301811203
1620.0,-5529045.12208,-3889215.56826,-105949.759432,1222631.31936,-6648410.47674,-106648.204695,4668.7521342,956.3007178,-6027.18870406,-1.57942505866,8.58822262047,0.138156195767,6769994.97245,1.14148007431,-0.06830116409981754,-0.20107526983500534,-0.03605778283125165,-1.3860294783382345,0.8376335257598128,0.503371086758925,-7.335691494170737E-5,-0.0011306978017431083,-9.012961899141096E-5,382605.147443,7.92077702962E-12,1168.93622018,-1.57942505866,8.58822262047,0.138156195767
1680.0,-5364936.93849,-4087325.92253,-466832.882125,1499697.52515,-6575624.06573,-467749.901221,4563.20899023,1468.97212339,-6004.85594111,-1.93730350696,8.49414426327,0.605976118653,6769902.34952,1.1458553434,-0.07523246526170019,-0.200977038749787,-0.03619368292016172,-1.3197637698206797,0.8175735940690751,0.5995019456914294,-7.814876690119264E-5,-0.0011302398977068428,-9.339580900837845E-5,382639.537841,7.9236880721E-12,1169.27781262,-1.93730350696,8.49414426327,0.605976118653
1740.0,-5177649.75431,-4268051.58559,-825539.61663,1769792.1695,-6472270.68322,-826670.946633,4436.45777648,1974.80157201,-5954.52909238,-2.28608035265,8.36024968338,1.07092043182,6769699.22358,1.15023061249,-0.08251297413015453,-0.20086791117087743,-0.03603102657637515,-1.258427085458133,0.7932262108681627,0.6912308089177335,-8.307833453288025E-5,-0.0011297453711773013,-9.664754595782443E-5,382792.501488,7.8957692182E-12,1168.92440225,-2.28608035265,8.36024968338,1.07092043182
1800.0,-4967896.77455,-4430756.57807,-1180397.82593,2031660.15304,-6338832.15383,-1181738.20798,4289.09456011,2471.41868581,-5876.44744586,-2.6240984473,8.18719164169,1.53076786152,6769389.49721,1.15460588158,-0.09013424204885517,-0.20074470626713076,-0.03554970762802742,-1.202391374812693,0.7650199035374282,0.7782534483681932,-8.814409952284304E-5,-0.0011292125609570819,-9.988376170261002E-5,383060.748681,7.83774713027E-12,1167.87692609,-2.6240984473,8.18719164169,1.53076786152
1860.0,-4736490.78417,-4574882.53008,-1529753.68835,2284085.09116,-6175931.23207,-1531296.8924,4121.81320764,2956.49812999,-5770.98276067,-2.94975645262,7.97581798354,1.9833260698,6768979.04799,1.15898115066,-0.09808621081447724,-0.20060377282371444,-0.03473058553598425,-1.1517991043639049,0.7333884990761941,0.8604982136134945,-9.33444787680886E-5,-0.0011286397907115438,-1.0310337444280984E-4,383439.054612,7.75094237277E-12,1166.14053363,-2.94975645262,7.97581798354,1.9833260698
1920.0,-4484340.89759,-4699950.43479,-1871979.58161,2525895.07622,-5984328.55184,-1873718.43584,3935.40177242,3427.77115389,-5638.63715825,-3.26151755573,7.7271659299,2.42644400126,6768475.62531,1.16335641975,-0.10635724950384172,-0.20044099859358339,-0.033555585639270594,-1.1066144703140466,0.6987526095348556,0.93807532203184,-9.86778233993494E-5,-0.0011280253719096849,-1.0630528902149378E-4,383920.360647,7.63721735557E-12,1163.72478562,-3.26151755573,7.7271659299,2.42644400126
1980.0,-4212448.8495,-4805562.02879,-2205481.81868,2755968.20759,-5764918.89455,-2207408.24331,3730.73837532,3883.03674686,-5480.04028816,-3.55791762384,7.44245496576,2.85802368671,6767888.70391,1.16773168884,-0.11493419721685422,-0.20025182944199652,-0.03200779423188166,-1.066676039968099,0.6615075241457522,1.0112247542172077,-1.041424178644358E-4,-0.001127367606838326,-1.0948839728548656E-4,384495.909899,7.49890510398E-12,1160.64384183,-3.55791762384,7.44245496576,2.85802368671
2040.0,-3921904.84915,-4891400.79737,-2528708.19285,2973237.86034,-5518726.80153,-2530813.23824,3508.78661581,4320.17232957,-5295.94580618,-3.83757269185,7.12307850334,3.27603133844,6767229.299,1.17210695793,-0.12380241155878463,-0.20003129850049642,-0.030071548369921278,-1.031743419567272,0.6220166289571568,1.0802701616768746,-1.0973647908052968E-4,-0.0011266647916808707,-1.1265157850058144E-4,385155.414281,7.33872379639E-12,1156.91664212,-3.83757269185,7.12307850334,3.27603133844
2100.0,-3613883.02282,-4957232.60552,-2840155.29221,3176697.6654,-5246901.56047,-2842429.18101,3270.59055542,4737.14391379,-5087.22721061,-4.09918571936,6.77059453775,3.67850763716,6766509.75149,1.17648222702,-0.13294582276345082,-0.19977406544554455,-0.027732520213765377,-1.001534669187939,0.5806090365819053,1.1455820709885467,-1.1545815566030545E-4,-0.0011259152196903162,-1.1579369982469911E-4,385887.249652,7.15968258502E-12,1152.56708369,-4.09918571936,6.77059453775,3.67850763716
2160.0,-3289636.47153,-5002905.95835,-3138375.54651,3365406.17721,-4950711.59976,-3140807.71971,3017.26931837,5132.01567664,-4854.87308663,-4.34155259515,6.38671550629,4.06357717864,6765743.49349,1.1808574961,-0.14234699342973017,-0.1994744657045884,-0.024977795537335035,-0.9757540496178233,0.5375801051466138,1.207550804144351,-1.2130552721990702E-4,-0.0011251171844163643,-1.1891361683619878E-4,386678.675169,6.96498430749E-12,1147.62419509,-4.34155259515,6.38671550629,4.06357717864
2220.0,-2950491.97251,-5028351.89699,-3421983.97244,3538491.20685,-4631538.32691,-3424563.13896,2750.01135442,5502.95890693,-4599.98180864,-4.56356739277,5.97329752074,4.4294570956,6764944.80196,1.18523276519,-0.15198718390525873,-0.19912656925271363,-0.021795945830091347,-0.9541112435902543,0.49319374248582964,1.2665679767308224,-1.2727660377523836E-4,-0.0011242689830093322,-1.2201017411943619E-4,387516.072332,6.75793032598E-12,1142.12230425,-4.56356739277,5.97329752074,4.4294570956
2280.0,-2597844.35401,-5033583.53819,-3689664.5862,3695153.80208,-4290869.44993,-3692378.77592,2470.06840869,5848.26028953,-4323.75574934,-4.76422688395,5.53232908751,4.77446488546,6764128.54526,1.18960803428,-0.16184642338555968,-0.19872424841519476,-0.018177093220316538,-0.9363337861255657,0.447685674124448,1.3230148424526083,-1.3336932523215288E-4,-0.0011233689195816548,-1.2508220590879007E-4,388385.198774,6.54183195087E-12,1136.10119159,-4.76422688395,5.53232908751,4.77446488546
2340.0,-2233150.57396,-5018695.26774,-3940176.45537,3834671.8578,-3930291.82225,-3943013.07515,2178.74924305,6166.32949966,-4027.49504252,-4.94263430254,5.0659193928,5.09702545663,6763309.92312,1.19398330337,-0.17190358682058074,-0.1982612539324346,-0.014112967289508112,-0.9221744604109244,0.40126711643307844,1.3772557294587864,-1.3958156097926806E-4,-0.0011224153086269852,-1.281285367885392E-4,389271.451393,6.3199317939E-12,1129.60620848,-4.94263430254,5.0659193928,5.09702545663
2400.0,-1857923.53354,-4983861.59954,-4172359.36453,3956403.34352,-3551483.85325,-4175305.25713,1877.41315476,6455.70608292,-3712.590947,-5.09800233426,4.576286226,5.39567737162,6762504.19747,1.19835857246,-0.1821364777106703,-0.19773129835354128,-0.009596952765629961,-0.9114151695322789,0.3541285058206979,1.429635057966129,-1.4591110958584903E-4,-0.0011214064784916555,-1.3114798245068433E-4,390160.133289,6.09533704757E-12,1122.6883238,-5.09800233426,4.576286226,5.39567737162
2460.0,-1473725.65716,-4929335.71419,-4385139.07233,4059789.13706,-3156207.52792,-4388180.57773,1567.46333969,6715.06560253,-3380.51886125,-5.22965530267,4.06574364875,5.66907823626,6761726.41171,1.20273384154,-0.19252191685395195,-0.19712814570785453,-0.004624127096298701,-0.903868466784282,0.30644308619958666,1.480476753222843,-1.5235569861540732E-4,-0.001120340774901986,-1.3413935050896977E-4,391036.71905,5.87096520941E-12,1115.40403492,-5.22965530267,4.06574364875,5.66907823626
2520.0,-1082162.27061,-4855447.69233,-4577532.1405,4144355.45653,-2746300.07998,-4580655.15956,1250.34014884,6943.22504291,-3032.83104174,-5.33703054255,3.53668957262,5.91600918181,6760991.09837,1.20710911063,-0.2030358370592343,-0.1964457062588708,8.087129896002227E-4,-0.8993776135872983,0.2583702589772763,1.5300851770536246,-1.5891298455710944E-4,-0.0011192165645090497,-1.371014413692791E-4,391887.113239,5.64950129795E-12,1107.81504533,-5.33703054255,3.53668957262,5.91600918181
2580.0,-684874.808725,-4762602.45977,-4748650.31887,4209715.88579,-2323665.36309,-4751840.3788,927.514286011,7139.1474705,-2671.1490801,-5.4196789988,2.99159345809,6.13537842213,6760311.98032,1.21148437972,-0.2136533837994981,-0.19567813500713566,0.006703036626184808,-0.897815772155687,0.21005866419448824,1.5787469568373063,-1.6558055288372193E-4,-0.0011180322384997578,-1.4003304915570687E-4,392697.897553,5.43336433146E-12,1099.98757376,-5.4196789988,2.99159345809,6.13537842213
2640.0,-283533.882959,-4651277.4624,-4897704.47335,4255572.99104,-1890264.96438,-4900946.79482,600.479990423,7301.94596581,-2297.15619359,-5.47726515262,2.43298436023,6.32622393546,6759701.67692,1.21585964881,-0.22434902170874546,-0.19481993250918772,0.013058576088979876,-0.8990847371146748,0.16164899953469095,1.626733284875172,-1.7235591823818686E-4,-0.0011167862162062012,-1.4293296269073544E-4,393456.562735,5.22468004779E-12,1091.99113598,-5.47726515262,2.43298436023,6.32622393546
2700.0,120167.762008,-4522020.08959,-5024008.04737,4281719.52889,-1448109.10327,-5027287.61289,270.74823996,7430.8868534,-1912.58937783,-5.50956643689,1.86343950504,6.48771540063,6759171.43113,1.2202349179,-0.2350966467490749,-0.1938660464277963,0.019873336329772954,-0.9031134595906,0.11327660431477467,1.6743023995580029,-1.7923652475755513E-4,-0.0011154769487586248,-1.4579996652864453E-4,394151.722012,5.02525692668E-12,1083.89665748,-5.50956643689,1.86343950504,6.48771540063
2760.0,524522.375488,-4375444.86455,-5126980.04965,4288039.24785,-999247.3567,-5130281.67292,-60.1600000135,7525.39226481,-1519.23146104,-5.51647233659,1.28557348337,6.61915558242,6758730.87592,1.22461018698,-0.24586970381620257,-0.19281197214146586,0.027143616571704,-0.9098565077188095,0.06507384455269838,1.721702052912573,-1.8621974653759292E-4,-0.0011141029227349098,-1.4863284204005874E-4,394773.303313,4.83656393852E-12,1075.77387079,-5.51647233659,1.28557348337,6.61915558242
2820.0,927814.386428,-4212230.41947,-5206147.56321,4274507.28653,-545759.249687,-5209455.95922,-390.720469211,7585.042071,-1118.9030861,-5.49798336198,0.702028019993,6.71998138383,6758387.85613,1.22898545607,-0.25664130944134433,-0.19165385062250043,0.03486404346490996,-0.9192925275442585,0.017172336940513146,1.7691718269904175,-1.9330288823579314E-4,-0.0011126626638275124,-1.5143036854850606E-4,395312.717867,4.65971119321E-12,1067.68815084,-5.49798336198,0.702028019993,6.71998138383
2880.0,1328327.62361,-4033116.27184,-5261147.77196,4241190.17206,-89744.7480325,-5264447.62732,-719.412243084,7609.57521419,-713.454634804,-5.45421002761,0.1154621503,6.78976475078,6758148.31588,1.23336072516,-0.2673843791827981,-0.1903885618173547,0.043027615040774486,-0.9314227081911822,-0.030294953636919652,1.816945192747227,-2.0048318583705128E-4,-0.0011111547404999264,-1.5419132451287827E-4,395763.002846,4.49543814147E-12,1059.69721923,-5.45421002761,0.1154621503,6.78976475078
2940.0,1724352.54734,-3838899.41696,-5291729.50132,4188245.42258,366685.311291,-5295005.54475,-1044.72430373,7598.8904564,-304.758099322,-5.38537188105,-0.471457443806,6.82821353094,6758016.25221,1.23773599425,-0.2780717591522107,-0.18901381168794917,0.051625754490077495,-0.946269207214828,-0.07719171505381392,1.865251215555906,-2.0775780755163728E-4,-0.001109577767634423,-1.5691448875753918E-4,396118.935734,4.34411649437E-12,1051.84839636,-5.38537188105,-0.471457443806,6.82821353094
3000.0,2114193.46948,-3630430.75046,-5297754.27003,4115920.7571,821418.817271,-5300991.34256,-1365.16205289,7553.04654652,105.301096412,-5.29179652622,-1.05606619438,6.83517227615,6757993.72572,1.24211126334,-0.28867636104546657,-0.18752821126112254,0.06064837264211717,-0.9638734503261324,-0.1233763692007358,1.9143158069078419,-2.151238548850824E-4,-0.0011079304101605893,-1.5959864174624027E-4,396377.117986,4.20577442018E-12,1044.17712745,-5.29179652622,-1.05606619438,6.83517227615
3060.0,2496175.73811,-3408611.33364,-5279196.85007,4024552.91652,1272351.97429,-5282379.97467,-1679.25376287,7472.2617939,514.832319107,-5.17391850586,-1.63571168778,6.81062287149,6758080.9107,1.24648653242,-0.2991712999434128,-0.18593134608575462,0.07008393793286535,-0.9842941802218284,-0.16870022848843533,1.964362403626982,-2.2257836386165505E-4,-0.0011062113866559433,-1.6224256689635383E-4,396536.025691,4.08014387242E-12,1036.70723701,-5.17391850586,-1.63571168778,6.81062287149
3120.0,2868652.86145,-3174388.51451,-5236145.33268,3914566.09966,1717398.84769,-5239259.7831,-1985.55695203,7356.91302953,921.947976561,-5.03227787361,-2.20776403676,6.75468480856,6758276.16273,1.25086180151,-0.3095300339992865,-0.1842238347955441,0.07991955261895801,-1.0076050900506237,-0.2130057396062373,2.0156119291758845,-2.3011830640142555E-4,-0.0011044194729046598,-1.6484505193272467E-4,396596.025251,3.96672579262E-12,1029.45284319,-5.03227787361,-2.20776403676,6.75468480856
3180.0,3230013.54496,-2928751.91766,-5168800.6994,3786470.01966,2154500.82819,-5171832.06779,-2282.6646614,7207.53393697,1324.77176914,-4.86751830739,-2.76962648701,6.66761491891,6758576.08322,1.2552370706,-0.3197265050895631,-0.18240737559934386,0.09014103400636596,-1.0338918377936421,-0.25612484844454014,2.0682818589446375,-2.3774059186139178E-4,-0.0011025535054126636,-1.6740489027642873E-4,396559.352787,3.86486222419E-12,1022.42134706,-4.86751830739,-2.76962648701,6.66761491891
3240.0,3578688.61441,-2672729.3169,-5077475.89925,3640857.58745,2581635.97702,-5080410.16236,-2569.21160222,7024.81274508,1721.44690587,-4.68038468837,-3.31874604329,6.54980644849,6758975.56681,1.25961233969,-0.329735279358339,-0.180484779863041,0.10073299951076113,-1.063248201595551,-0.2978775477276309,2.1225841762783184,-2.4544206874066606E-4,-0.001100612384861636,-1.6992088246599454E-4,396430.056991,3.77380320326E-12,1015.61667044,-4.68038468837,-3.31874604329,6.54980644849
3300.0,3913157.7978,-2407382.40542,-4962594.43518,3478402.23106,2996828.21356,-4965418.01884,-2843.88014253,6809.58928906,2110.14424469,-4.47172016867,-3.85262385723,6.40178746546,6759467.8287,1.26398760878,-0.3395316865783829,-0.17845999209532226,0.11167895443850238,-1.0957711091680804,-0.3380707029507688,2.178721980342326,-2.5321952654972255E-4,-0.0010985950795001894,-1.7239183760707388E-4,396213.906388,3.69275971947E-12,1009.04202534,-4.47172016867,-3.85262385723,6.40178746546
3360.0,4231956.33968,-2133802.47861,-4824688.46579,3299854.86128,3398156.30826,-4827388.30733,-3105.40610517,6562.8514608,2489.07031977,-4.24246284351,-4.36882516751,6.2242187145,6760044.42124,1.26836287786,-0.34909195713853697,-0.17633809587132132,0.12296138145919419,-1.1315542682336077,-0.3764972921203478,2.236884498425165,-2.6106969783323396E-4,-0.0010965006284530123,-1.7481657484933933E-4,395918.263284,3.62093948023E-12,1002.70182019,-4.24246284351,-4.36882516751,6.2242187145
3420.0,4533681.42293,-1853106.04458,-4664396.42961,3106040.49559,3783762.64491,-4666960.03801,-3352.58435842,6285.73107867,2856.47522836,-3.99364219637,-4.86498871407,6.01789111802,6760695.26006,1.27273814695,-0.35839335545843093,-0.17412530537248447,0.13456183082838793,-1.1706801573104484,-0.41293623878348373,2.297240285786613,-2.689892603604598E-4,-0.0010943281449497277,-1.7719392488031147E-4,395551.927829,3.55756683046E-12,996.602639332,-3.99364219637,-4.86498871407,6.01789111802
3480.0,4816998.37417,-1566430.37655,-4482460.20118,2897854.55309,4151861.7185,-4484875.71467,-3584.27419071,5979.49920637,3210.66036264,-3.72637547784,-5.33883571856,5.78372314465,6761408.68615,1.27711341604,-0.3674143085860864,-0.1718289423635833,0.1464610105060871,-1.2132102299197862,-0.4471530605784008,2.3599284881380598,-2.769748394709688E-4,-0.0010920768194542687,-1.7952273144571538E-4,395124.956541,3.50189064422E-12,990.753448584,-3.72637547784,-5.33883571856,5.78372314465
3540.0,5080646.63,-1274929.02059,-4279721.78813,2676258.83349,4500748.33622,-4281978.02896,-3799.40446851,5645.56093994,3549.98598405,-3.44186410845,-5.78817868044,5.52275820403,6762171.59044,1.28148868513,-0.37613452871653985,-0.1694573985271132,0.1586388754013659,-1.2591733674192718,-0.47890158828077123,2.4250482207380517,-2.850230105826771E-4,-0.0010897459226825526,-1.8180185286983676E-4,394648.460017,3.45318450662E-12,985.165262304,-3.44186410845,-5.78817868044,5.52275820403
3600.0,5323445.44129,-979767.270572,-4057119.57878,2442277.19307,4828805.48974,-4059206.10488,-3996.97857887,5285.44966433,3872.87864306,-3.1413900807,-6.21093032349,5.23616209644,6762969.6198,1.28586395422,-0.38453512833993964,-0.16702008323309378,0.17107471505544217,-1.308552909070398,-0.5079270188924672,2.49264640995748,-2.931303018430035E-4,-0.0010873348085154357,-1.840301636020583E-4,394134.3846,3.41074287462E-12,979.850498556,-3.1413900807,-6.21093032349,5.23616209644
3660.0,5544299.29157,-682117.62195,-3815684.14929,2196990.93061,5134511.86658,-3817591.30272,-4176.07915256,4900.82076056,4177.83844476,-2.82631221112,-6.60511300825,4.92522038285,6763787.47122,1.2902392233,-0.39259872681309615,-0.16452735697256024,0.18374723915914537,-1.361272998565128,-0.5339705323603184,2.562704851139583,-3.012931969388493E-4,-0.0010848429167737866,-1.8620655574576808E-4,393595.282328,3.37387591046E-12,974.822198658,-2.82631221112,-6.60511300825,4.92522038285
3720.0,5742203.00373,-383155.215884,-3556533.64011,1941533.89691,5416448.96665,-3558252.59188,-4335.87255192,4493.44472894,4463.44614732,-2.49806199738,-6.96886879601,4.59133539229,6764609.26478,1.29461449239,-0.4003095471170441,-0.1619904509087059,0.19663466039636587,-1.4171854847294627,-0.5567756048474055,2.635127733597313,-3.0950813804795014E-4,-0.0010822697758696412,-1.8832994061693855E-4,393044.072933,3.34190474254E-12,970.093228859,-2.49806199738,-6.96886879601,4.59133539229
3780.0,5916246.50664,-84053.2863532,-3280868.71247,1677087.34284,5673307.78753,-3282391.50364,-4475.61309123,4065.19968908,4728.37006102,-2.15813880131,-7.3004701403,4.23602249719,6765418.97136,1.29898976148,-0.40765350168535436,-0.15942137325480313,0.20971477419652598,-1.4760591153330884,-0.5760959771122989,2.7097313826850087,-3.177715289350904E-4,-0.001079615005305515,-1.903992502677991E-4,392493.800991,3.3141581967E-12,965.675532784,-2.15813880131,-7.3004701403,4.23602249719
3840.0,6065619.23145,214021.375246,-2989967.09841,1404874.52336,5903895.04038,-2991286.67724,-4594.64694171,3618.06322533,4971.37269245,-1.80810411982,-7.59833094881,3.86090529222,6766200.85985,1.30336503057,-0.41461826631359167,-0.15683280348648124,0.22296503511193347,-1.5375731182116994,-0.5917049844301205,2.7862383228864096,-3.2607973817398044E-4,-0.0010768783180201244,-1.9241343902272565E-4,391957.390945,3.28997154608E-12,961.57946774,-1.80810411982,-7.59833094881,3.86090529222
3900.0,6189614.10607,509912.921105,-2685177.76191,1126155.07814,6107138.85653,-2686288.01681,-4692.41566183,3154.10356837,5191.31705958,-1.44957481412,-7.86101756572,3.46770941153,6766939.92454,1.30774029966,-0.4211933413104155,-0.1542379756886318,0.23636262964897486,-1.601317280466549,-0.603405651318629,2.8642777812548754,-3.344291024982894E-4,-0.0010740595225840117,-1.943714849931864E-4,391447.402584,3.26868749336E-12,957.81323521,-1.44957481412,-7.86101756572,3.46770941153
3960.0,6287631.11678,802480.894336,-2367914.69318,842219.213209,6282093.94557,-2368810.48137,-4768.45929012,2675.47013378,5387.17259221,-1.08421531521,-8.08725912821,3.05825488905,6767622.25676,1.31211556874,-0.427370099209646,-0.15165055261576565,0.24988454555419615,-1.6668001396873284,-0.6110406593683949,2.9433942519534715,-3.4281593028881246E-4,-0.0010711585252049282,-1.9627239157348926E-4,390975.789889,3.24965935814E-12,954.382402742,-1.08421531521,-8.08725912821,3.05825488905
4020.0,6359180.40824,1090604.60147,-2039650.36377,554381.711627,6427946.16761,-2040327.53541,-4822.41894348,2184.3834714,5558.02053224,-0.713728969737,-8.27595677503,2.63444716063,6768235.33516,1.31649083783,-0.433141818627906,-0.14908449226019568,0.2635076376987367,-1.733465830749754,-0.6145010952955251,3.0230646721448524,-3.5123650515139613E-4,-0.0010681753315796283,-1.9811518891209418E-4,390553.666751,3.2322562459E-12,951.289507709,-0.713728969737,-8.27595677503,2.63444716063
4080.0,6403884.89676,1373187.38803,-1701908.87462,263975.80419,6544016.48699,-1702364.29236,-4854.03887699,1683.12470657,5703.05875969,-0.339848795618,-8.42619132327,2.19826697365,6768768.22427,1.32086610692,-0.4385037040077856,-0.14655390886797748,0.27720869089796507,-1.8007186307054677,-0.6137328659673955,3.102723256665164,-3.59687089615291E-4,-0.001065110048537971,-1.9989893535849105E-4,390191.08385,3.21586979781E-12,948.5337306,-0.339848795618,-8.42619132327,2.19826697365
4140.0,6421482.3765,1649160.79522,-1356258.83341,-27653.0665653,6629764.27943,-1356490.38717,-4863.16797897,1174.02457175,5821.60598949,0.0356720453862,-8.5372292375,1.75175956603,6769211.6867,1.32524137601,-0.44345289121162235,-0.14407293039542626,0.29096448014802745,-1.8679526764543422,-0.6087398790714814,-3.101393836162514,-3.6816392891877064E-4,-0.0010619628855177204,-2.0162271887342603E-4,389896.821756,3.1999219595E-12,946.110624578,0.0356720453862,-8.5372292375,1.75175956603
4200.0,6411827.10342,1917488.57684,-1004305.99982,-319153.554877,6684789.97157,-1004312.61676,-4849.76069302,659.452130637,5913.10530634,0.411069786525,-8.60852693353,1.29702348065,6769558.22794,1.3296166451,-0.4479884391125051,-0.1416555543745908,0.3047518289180992,-1.9345831745895201,-0.5995835144272023,-3.023475841243174,-3.766632548872534E-4,-0.0010587341558194402,-2.0328565840771134E-4,389678.205775,3.18387306974E-12,944.011887825,0.411069786525,-8.60852693353,1.29702348065
4260.0,6374890.84644,2177170.55759,-647685.739048,-609174.758512,6708836.99695,-647467.388701,-4813.87737204,141.803289055,5977.12702494,0.78457942778,-8.63973362478,0.836199300746,6769802.1006,1.33399191418,-0.4521113074634988,-0.1393155040750851,0.318547666271521,-2.000075078947732,-0.5863784583283103,-2.9472203548857117,-3.851812898864729E-4,-0.001055424277681615,-2.0488690522867575E-4,389540.948132,3.16722947259E-12,942.225164781,0.78457942778,-8.63973362478,0.836199300746
4320.0,6310763.39946,2427246.31559,-288055.323964,-896372.570019,6701793.05839,-287613.018454,-4755.68407682,-376.510828119,6013.37087615,1.15444387879,-8.63069299004,0.371458457986,6769939.29578,1.33836718327,-0.4558243214674609,-0.1370660867262807,0.3323290836431043,-2.0639658014251907,-0.5692855014347509,-2.8730692224095415,-3.937142508332451E-4,-0.001052033775123645,-2.0642564420996265E-4,389489.022599,3.149549809E-12,940.733860958,1.15444387879,-8.63069299004,0.371458457986
4380.0,6219652.55068,2666798.67432,72913.8738097,-1179415.99957,6663690.69052,73578.0844682,-4675.45183209,-893.075571087,6021.66752441,1.51892291363,-8.58144390549,-0.095007875118,6769967.54313,1.34274245236,-0.4591321235501034,-0.13492005544151697,0.3460733921505083,-2.1258798363182847,-0.5485022770259075,-2.8013790699426897,-4.0225835327430224E-4,-0.0010485632785985982,-2.079010950602421E-4,389524.575709,3.13050434644E-12,939.520921994,1.51892291363,-8.58144390549,-0.095007875118
4440.0,6101883.5083,2894956.99013,433544.263905,-1456993.43713,6594707.11982,434427.301372,-4573.55534855,-1405.48447857,6001.9794191,1.87630203351,-8.49222036489,-0.560999898346,6769886.33019,1.34711772145,-0.4620411129681101,-0.1328894763803937,0.35975818127046383,-2.1855347745012894,-0.5242530660070965,-2.7324151596585513,-4.10809815503525E-4,-0.0010450135254155813,-2.093125135135251E-4,389647.877307,3.11006107096E-12,938.58204775,1.87630203351,-8.49222036489,-0.560999898346
4500.0,5957897.78346,3110900.22284,792159.948282,-1727818.82197,6495163.42257,793257.720303,-4450.4712136,-1911.35096169,5954.40097593,2.22490132639,-8.36345055673,-1.02432042374,6769696.93887,1.35149299054,-0.46455937395393115,-0.13098560260091066,0.3733613796076474,-2.2427395955518805,-0.4967787204239184,-2.6663529852860783,-4.1936486270709926E-4,-0.0010413853599544143,-2.1065919243046667E-4,389857.311629,3.08830550065E-12,937.912981565,2.22490132639,-8.36345055673,-1.02432042374
4560.0,5788251.53361,3313859.7772,1147094.62291,-1990637.6877,6365522.98388,1148402.04248,-4306.77554969,-2408.31990338,5879.15807794,2.56308434889,-8.19575493529,-1.48278631966,6769402.48522,1.35586825962,-0.46669659320359747,-0.1292187560057459,0.3868613183339089,-2.297387047312007,-0.46632752279771933,-2.603285797655357,-4.2791973113659817E-4,-0.0010376797336429419,-2.1194046287348835E-4,390149.408572,3.0653724126E-12,937.504952759,2.56308434889,-8.19575493529,-1.48278631966
4620.0,5593613.37246,3503122.10345,1496699.42886,-2244233.05082,6206389.26506,1498210.43809,-4143.14114064,-2894.0791062,5776.60688404,2.88926696024,-7.98994305923,-1.93424013575,6769007.94225,1.36024352871,-0.4684639676535232,-0.127598218743332,0.40023679768357057,-2.3494422670393,-0.43314749426759125,-2.5432359047969415,-4.364706722820648E-4,-0.001033897704740612,-2.1315569508067217E-4,390518.913467,3.04143994473E-12,937.344773578,2.88926696024,-7.98994305923,-1.93424013575
4680.0,5374761.65597,3678031.04634,1839350.7111,-2487431.111,6018502.89054,1841058.3096,-3960.33403317,-3366.37050834,5647.23193786,3.20192594463,-7.74700900138,-2.37656176612,6768520.12419,1.3646187978,-0.46987410358476667,-0.1261321353729012,0.41346715659380956,-2.3989296722739657,-0.39748037040494455,-2.486167718173293,-4.450139570538207E-4,-0.0010300404378672371,-2.1430429939078496E-4,390958.892693,3.01671472018E-12,937.414442474,3.20192594463,-7.74700900138,-2.37656176612
4740.0,5132581.25829,3837989.93279,2173457.64301,-2719106.73225,5802738.07107,2175353.92069,-3759.20963303,-3823.00107897,5491.64358154,3.49960720087,-7.46812524473,-2.80767991273,6767947.61615,1.36899406689,-0.47094090825204665,-0.12482742702552753,0.42653234540983886,-2.4459197372644463,-0.3595572304029157,-2.4320009287976223,-4.535458799363496E-4,-0.001026109203341515,-2.1538572708801795E-4,391460.871877,2.99138978934E-12,937.68883444,3.49960720087,-7.46812524473,-2.80767991273
4800.0,4868059.85568,3982463.39083,2497469.67552,-2938188.67539,5560098.38504,2499545.84964,-3540.70832831,-4261.85330317,5310.5746946,3.78093327662,-7.15463513657,-3.22558307263,6767300.64247,1.37336933598,-0.471679475276697,-0.12368971865636019,0.43941300123426114,-2.4905167595009026,-0.3195956115339864,-2.380622708795783,-4.620627631194919E-4,-0.0010221053762752015,-2.1639947116644065E-4,392015.003099,2.965593423E-12,938.132683362,3.78093327662,-7.15463513657,-3.22558307263
4860.0,4582283.74067,4110978.89454,2809883.77139,-3143664.55485,5291711.94506,2812130.22763,-3305.85068477,-4680.89517621,5104.87679412,4.0446100792,-6.80804412207,-3.62832980364,6766590.87817,1.37774460506,-0.47210596521029535,-0.12272328030347321,0.45209052532369515,-2.5328482413240305,-0.2777978617092688,-2.331898313949867,-4.7056096058600556E-4,-0.0010180304354561018,-2.1734506702289686E-4,392610.257486,2.94051259859E-12,938.786317452,4.0446100792,-6.80804412207,-3.62832980364
4920.0,4276433.19175,4223128.03284,3109251.38777,-3334585.4957,4998825.98127,3111657.72517,-3055.73226537,-5078.18964294,4875.51554487,4.28943268932,-6.43001007253,-4.0140581132,6765831.21766,1.38211987415,-0.47223748260763315,-0.12193098302545756,0.4645471617542552,-2.5730561334511286,-0.23435046099048445,-2.285679841341507,-4.7903686215025804E-4,-0.0010138859620285995,-2.1822209305914317E-4,393234.639462,2.91769117374E-12,939.716378716,4.28943268932,-6.43001007253,-4.0140581132
4980.0,3951777.42653,4318567.50245,3394185.17321,-3510070.46983,4682800.87606,3396740.25266,-2791.51812738,-5451.90343799,4623.56573365,4.51429030467,-6.02233303362,-4.38099393037,6765035.52008,1.38649514324,-0.47209195101925333,-0.12131426992511597,0.47676607642038954,-2.611289926526582,-0.1894240582104637,-2.2418131571920035,-4.874868974340865E-4,-0.0010096736379385696,-2.1903017121068357E-4,393875.418842,2.89847185722E-12,940.974973996,4.51429030467,-6.02233303362,-4.38099393037
5040.0,3609669.16703,4397019.82772,3663365.34868,-3669310.29363,4345103.68714,3666057.34484,-2514.43704659,-5800.31530005,4350.20576147,4.71817041637,-5.58694464718,-4.72745872374,6764218.35038,1.39087041233,-0.47168798724920435,-0.12087314238963617,0.48873143538271,-2.647701423005544,-0.14317400397400912,-2.2001431649641314,-4.959075397501551E-4,-0.0010053952441915392,-2.197689673778661E-4,394519.376616,2.88411614372E-12,942.608945811,4.71817041637,-5.58694464718,-4.72745872374
5100.0,3251538.84699,4458273.81178,3915545.74508,-3811571.27196,3987301.19678,3918362.20136,-2225.77551063,-6121.82354529,4056.71170136,4.90016234811,-5.12589737691,-5.05187638197,6763394.72982,1.39524568142,-0.47104477613464774,-0.12060616141215412,0.5004284815385612,-2.6824409484630087,-0.09574120335089398,-2.160517657216539,-5.042953099207358E-4,-0.001001052658896174,-2.20438191783675E-4,395153.059843,2.87584550353E-12,944.663050205,4.90016234811,-5.12589737691,-5.05187638197
5160.0,2878888.49074,4502184.72465,4149559.47262,-3936198.47564,3611052.52629,4152487.35898,-1926.87151638,-6414.95298879,3744.45096271,5.05946026007,-4.64135354315,-5.35277946363,6762579.89974,1.3996209505,-0.47018194703065214,-0.12051046364616512,0.5118436086239806,-2.7156547433214153,-0.047253152982093885,-2.1227900140573,-5.126467799760606E-4,-9.966478551157773E-4,-2.2103759923203966E-4,395763.040561,2.8748688707E-12,947.181822204,5.05946026007,-4.64135354315,-5.35277946363
5220.0,2493285.29395,4528674.23469,4364324.19924,-4042618.64176,3218101.35503,4367349.9726,-1619.10820212,-6678.3612006,3414.87559827,5.19536565306,-4.13557409382,-5.62881485631,6761789.09309,1.40399621959,-0.4691194530927505,-0.12058179166272638,0.5229644316220257,-2.747483289882748,0.002174936343811271,-2.0868209983546784,-5.209585767479548E-4,-9.921828985295495E-4,-2.2156698929109409E-4,396336.173207,2.88240623756E-12,950.210836337,5.19536565306,-4.13557409382,-5.62881485631
5280.0,2096354.93711,4537730.09074,4558847.01815,-4130342.68768,2810267.78443,4561956.685,-1303.90734533,-6910.84407821,3069.51529053,5.30728933057,-3.61090704027,-5.87874879209,6761037.29975,1.40837148868,-0.4678774543398798,-0.12081453776171183,0.5337798526821145,-2.778060360844842,0.05243900073589147,-2.052479867948193,-5.292273853552594E-4,-9.876599449088412E-4,-2.2202620636997146E-4,396859.844874,2.89970879864E-12,953.797375775,5.30728933057,-3.61090704027,-5.87874879209
5340.0,1689774.66354,4529405.56281,4732228.88604,-4198967.83174,2389439.88875,4735408.0671,-982.722761342,-7111.34071518,2709.9700595,5.39475272366,-3.0697755709,-6.10147108828,6760339.00988,1.41274675777,-0.46647620537036943,-0.12120180059291101,0.5442801217859258,-2.8075126125698526,0.10344501368406549,-2.019644990528113,-5.374499525321739E-4,-9.83081237418875E-4,-2.2241513971705875E-4,397322.212959,2.9280719503E-12,957.990222216,5.39475272366,-3.0697755709,-6.10147108828
5400.0,1275266.15458,4503818.65073,4883668.61718,-4248179.31591,1957564.99522,4886902.61367,-657.033644116,-7278.93755021,2337.90274334,5.45738848169,-2.51466599243,-6.29599845782,6759707.92263,1.41712202686,-0.46493594852510134,-0.1217354537738232,0.5544568914198368,-2.835959583112034,0.15510793439577564,-1.988204112625602,-5.456230898396623E-4,-9.784491037581505E-4,-2.2273372334145701E-4,397712.425354,2.96883427542E-12,962.838075114,5.45738848169,-2.51466599243,-6.29599845782
5460.0,854588.235139,4461151.07128,5012466.42109,-4277751.72835,1516640.73692,5015740.28242,-328.3378948,-7412.87179452,1955.03131112,5.4949402903,-1.94811578639,-6.46147678405,6759156.61769,1.42149729594,-0.4632768131279069,-0.12240622560983992,0.5643032646046399,-2.8635139889411674,0.20735072981749675,-1.9580544039440826,-5.537436767093071E-4,-9.73765953137279E-4,-2.2298193581924962E-4,398020.819358,3.02335328153E-12,968.386020737,5.4949402903,-1.94811578639,-6.46147678405
5520.0,429529.441904,4401647.03573,5118026.97602,-4287549.92638,1068705.9213,5121325.5685,1.85451698792,-7512.53415523,1563.12107009,5.50726198397,-1.37270214935,-6.59718237493,6758696.20045,1.42587256503,-0.46151872132854493,-0.12320378892721422,0.5738138356751596,-2.8902822444049017,0.2601034773913363,-1.9291023736706967,-5.618086633423015E-4,-9.690342731042305E-4,-2.2315980003693902E-4,398239.096682,3.09294857137E-12,974.669629895,5.50726198397,-1.37270214935,-6.59718237493
5580.0,1900.48509041,4325611.83084,5199862.0333,-4277529.5631,615831.255434,5203170.10964,332.028121941,-7577.47089457,1163.9768245,5.49431614224,-0.791031364993,-6.70252237046,6758335.94521,1.43024783412,-0.45968130084496533,-0.12411685990878721,0.5829847232373058,-2.9163651530362222,0.3133025496686239,-1.9012637374647645,-5.698150734321626E-4,-9.642566262421698E-4,-2.2326738283889028E-4,398360.473119,3.1788077582E-12,981.706837482,5.49431614224,-0.791031364993,-6.70252237046
5640.0,-426473.368392,4233410.21614,5257592.55122,-4247737.22265,160109.9663,5260894.82053,660.668427088,-7607.38528222,759.435027453,5.45617245442,-0.205729222677,-6.77703462563,6758082.97157,1.43462310321,-0.45778380475321256,-0.12513330468264186,0.5918135948173583,-2.941858742902933,0.3668898780354359,-1.8744633007127105,-5.777600067216392E-4,-9.594356467363944E-4,-2.2330479459797999E-4,398379.802469,3.28186176071E-12,989.488801332,5.45617245442,-0.205729222677,-6.77703462563
5700.0,-853759.965786,4125464.65001,5290950.3587,-4198310.16971,-296351.649532,5294231.55658,986.268294771,-7602.13850462,351.355945408,5.39300617132,0.380567525184,-6.82038747852,6757941.99281,1.4389983723,-0.45584503820279615,-0.12624025226934008,0.6002996827078106,-2.9668552385291593,0.4208122904461889,-1.848634917896798,-5.856406413693779E-4,-9.545740368103718E-4,-2.2327218869199746E-4,398293.674829,3.40265266507E-12,997.972160563,5.39300617132,0.380567525184,-6.82038747852
5760.0,-1278127.97199,4002253.35501,5299779.34934,-4129475.71902,-751443.715878,5303024.30788,1307.3342383,-7561.75008684,-58.3841700965,5.30509691279,0.965218928655,-6.83237980185,6757915.17104,1.44337364138,-0.4538832917817646,-0.1274242123769866,0.608443790639765,-2.9914441826359117,0.47502091658750567,-1.823721588343893,-5.934542361472931E-4,-9.496745630867286E-4,-2.2316976091546882E-4,398100.489494,3.54123156817E-12,1007.07577163,5.30509691279,0.965218928655,-6.83237980185
5820.0,-1697754.58658,3864308.23038,5284036.20572,-4041550.22894,-1203062.27853,5287229.92312,1622.39266065,-7486.39786042,-467.900929778,5.19282797195,1.54558930382,-6.81294161856,6758002.10126,1.44774891047,-0.45191628100614084,-0.12867119645744032,0.6162482909502617,-3.0157137440559203,0.5294706531896174,-1.7996757558286829,-6.011981324284964E-4,-9.447400528138481E-4,-2.2299774880246928E-4,397800.502241,3.69712401717E-12,1016.68424991,5.19282797195,1.54558930382,-6.81294161856
5880.0,-2110833.25572,3712212.61739,5243790.65168,-3934937.72162,-1649118.7914,5246918.36106,1929.99606584,-7376.41747785,-875.309710306,5.05668607919,2.11905497605,-6.7621353601,6758199.92832,1.45212417956,-0.44996109133332346,-0.12996684042722084,0.6237171120211451,-3.039752276783894,0.5841196815999048,-1.7764598975175783,-6.088697560024393E-4,-9.397733900488355E-4,-2.2275643089358487E-4,397395.846125,3.86938001845E-12,1026.65834812,5.05668607919,2.11905497605,-6.7621353601
5940.0,-2515581.35909,3546598.92057,5179225.22798,-3810128.13084,-2087549.55917,5182272.46528,2228.72926488,-7232.30144031,-1278.73364943,4.89726140882,2.6830128465,-6.6801576116,6758503.58072,1.45649944865,-0.4480341280083059,-0.1312965275231544,0.6308557158603094,-3.0636502340267544,0.6389290294382209,-1.7540475187714826,-6.164666186683991E-4,-9.347775117322723E-4,-2.2244612590164494E-4,396890.524044,4.05669179868E-12,1036.849452,4.89726140882,2.6830128465,-6.6801576116
6000.0,-2910247.8488,3368146.08659,5090634.58538,-3667695.1773,-2516325.10554,5093587.25591,2517.21558087,-7054.69757694,-1676.31175177,4.71524747665,3.23489014475,-6.56734098211,6758906.0868,1.46087471774,-0.4461510700445799,-0.13264550989754292,0.6376710658253244,-3.0875025991680287,0.6938621674869204,-1.7324247219960738,-6.239863196509405E-4,-9.297554037367906E-4,-2.2206719184778424E-4,396290.37079,4.2575355229E-12,1047.11396084,4.71524747665,3.23489014475,-6.56734098211
6060.0,-3293120.81287,3177576.94282,4978424.28833,-3508293.87227,-2933459.43185,4981268.73175,2794.12303459,-6844.40690054,-2066.20709866,4.511440528,3.7721554524,-6.42415561925,6759398.92741,1.46524998683,-0.44432682773234927,-0.1339990277426452,0.644171584548784,-3.1114120846945714,0.7488846318637282,-1.7115926034012396,-6.31426546798957E-4,-9.247100968318728E-4,-2.2162002509802127E-4,395602.982115,4.47028931021E-12,1057.323918,4.511440528,3.7721554524,-6.42415561925
6120.0,-3662534.93194,2975655.39836,4843109.12416,-3332657.65144,-3337019.12659,4845832.17756,3058.17046912,-6602.38076852,-2446.61512606,4.28673806587,4.29233078006,-6.25120988797,6759972.37641,1.46962525591,-0.4425755031696546,-0.1353424249482356,0.6503671023079751,-3.1354934944724935,0.803963659520197,-1.6915708732101344,-6.387850775805084E-4,-9.196446626486494E-4,-2.2110505936667518E-4,394837.608831,4.69329824698E-12,1067.37231734,4.28673806587,4.29233078006,-6.25120988797
6180.0,-4016878.79372,2763183.51274,4685310.91527,-3141595.14474,-3725132.28232,4687899.97409,3308.1335546,-6329.71729871,-2815.77190868,4.04213630578,4.7930042363,-6.04924985274,6760615.78738,1.474000525,-0.4409103534551243,-0.13666126050387625,0.6562687961163785,3.1233054199592467,0.8590678212321274,-1.6724033349353604,-6.460597798891633E-4,-9.145622095853569E-4,-2.2052276465171484E-4,394005.01503,4.92488290181E-12,1077.17360971,4.04213630578,4.7930042363,-6.04924985274
6240.00000001,-4354602.02833,2540998.44032,4505755.83636,-2935986.59105,-4095997.17469,4508198.91285,3542.85060683,-6027.65702166,-3171.9623726,3.77872652854,5.27184270681,-5.81915740709,6761317.80046,1.47837579409,-0.4393437563241872,-0.13794141503660676,0.6618891199436592,3.0984537082956525,0.9141666292565331,-1.6541662789867384,-6.532486126286839E-4,-9.094658787197767E-4,-2.1987364611076703E-4,393117.301163,5.16330656587E-12,1086.661082,3.77872652854,5.27184270681,-5.81915740709
6300.00000001,-4674222.22706,2309969.26032,4305271.24326,-2716779.91097,-4447890.65801,4307557.02217,3761.22815748,-5697.57778601,-3513.5283565,3.49769048343,5.72660399501,-5.56194712526,6762066.46322,1.48275106318,-0.43788717811180866,-0.13916919199605868,0.6672417265755312,3.0729353653666385,0.9692300836228298,-1.6369816046081451,-6.603496261057255E-4,-9.043588397112021E-4,-2.1915824291094424E-4,392187.694621,5.40672298874E-12,1095.78288636,3.49769048343,5.72660399501,-5.56194712526
6360.00000001,-4974331.60922,2070993.70511,4084782.02474,-2484986.4541,-4779176.2338,4086899.91608,3962.24622679,-5340.98896148,-3838.8764519,3.20029512244,6.15514804803,-5.27876210237,6762849.28056,1.48712633227,-0.43655114402080686,-0.14033141307753985,0.6723413816877072,3.0464864763406325,1.0242280957814827,-1.621037916441874,-6.67360962220077E-4,-8.992442867076411E-4,-2.1837712700711437E-4,391230.312376,5.65312382218E-12,1104.49800996,3.20029512244,6.15514804803,-5.27876210237
6420.00000001,-5253603.40436,1824994.79917,3845306.49211,-2241676.4397,-5088311.75189,3847246.68053,4144.9632683,-4959.52499944,-4146.48557262,2.88788698692,6.55544714857,-4.97086915059,6763653.22498,1.49150160135,-0.4353452106835316,-0.1414155074856771,0.6772038708425391,3.0187448809298036,1.0791296776873849,-1.6066256820030103,-6.742808544576803E-4,-8.941254342757089E-4,-2.1753090190795274E-4,390259.901868,5.90029875122E-12,1112.77287014,2.88788698692,6.55544714857,-4.97086915059
6480.00000001,-5510797.92024,1572917.42185,3587951.82364,-1987974.11086,-5373856.70748,3589705.31444,4308.52077333,-4554.93840993,-4434.91422564,2.56188651492,6.92559521796,-4.63965370232,6764464.74813,1.49587687044,-0.4342779410308683,-0.14240959464138106,0.6818459001972365,2.989188454376373,1.1339016772773973,-1.5941985050093292,-6.811076276881708E-4,-8.890055133549537E-4,-2.1662020138788938E-4,389291.567397,6.14581522682E-12,1120.57875443,2.56188651492,6.92559521796,-4.63965370232
6540.00000001,-5744768.26977,1315724.80519,3313909.08235,-1725052.6226,-5634479.10034,3315467.74371,4452.14753547,-4129.09219897,-4702.80747353,2.22378240931,7.26381657038,-4.28661465013,6765269.83414,1.50025213953,-0.43335688144064227,-0.14330255991395088,0.686284991810292,2.957021806070642,1.1885065989782297,-1.5844860174835607,-6.878396977704344E-4,-8.838877672505824E-4,-2.156456881763665E-4,388340.489681,6.38702031428E-12,1127.89005676,2.22378240931,7.26381657038,-4.28661465013
6600.00000001,-5954465.73103,1054394.97748,3024447.82542,-1454128.68422,-5868961.82475,3025804.4267,4575.16357871,-3683.95178677,-4948.90358688,1.87512604416,7.56847452905,-3.91335916366,6766054.12649,1.50462740862,-0.4325885411584414,-0.14408412296485196,0.690539374556657,2.920952917147887,1.2428984507705318,-1.578716865809404,-6.944755709766483E-4,-8.787754476733067E-4,-2.1460805262091644E-4,387421.645979,6.6210644325E-12,1134.68314778,1.87512604416,7.56847452905,-3.91335916366
6660.00000001,-6138944.71485,789917.161527,2720910.32412,-1176456.97605,-6076208.55885,2722058.57005,4676.9837472,-3221.5764042,-5172.04038166,1.5175257386,7.83808024603,-3.52159732736,6766803.14427,1.50900267771,-0.43197837393500715,-0.14474489833682078,0.6946278717302843,2.878711419055565,1.2970139233716516,-1.5791000854703738,-7.010138432278263E-4,-8.736718108420244E-4,-2.1350801132405953E-4,386549.537382,6.84494512971E-12,1140.93569488,1.5175257386,7.83808024603,-3.52159732736
6720.00000001,-6297367.31304,523288.136622,2404705.41359,-893324.361355,-6255249.12179,2405639.97414,4757.120941,-2744.10994949,-5371.16122197,1.15264063535,8.07130188163,-3.11313629409,6767502.58545,1.51337794679,-0.4315307619220814,-0.1452764480083467,0.6985697864597703,2.8258801543319767,1.350751060217778,-1.5899932207170544,-7.074531991583231E-4,-8.685801136318767E-4,-2.1234630577496576E-4,385737.928763,7.05556795289E-12,1146.62626467,1.15264063535,8.07130188163,-3.11313629409
6780.00000001,-6429007.39866,255508.573515,2077301.99349,-606043.915434,-6405244.26542,2078018.52931,4815.1889657,-2253.77128496,-5545.32064846,0.78217390901,8.26697405511,-2.68987359208,6768138.6971,1.51775321588,-0.43124900190350424,-0.14567132577425324,0.7023847861134548,2.752565976539162,1.4039080648241047,-1.6212312293140285,-7.137924110092949E-4,-8.635036098200455E-4,-2.1112370095319167E-4,384999.605668,7.24982049615E-12,1151.73406525,0.78217390901,8.26697405511,-2.68987359208
6840.00000001,-6533254.24852,-12420.6469195,1740222.20395,-315948.796509,-6525489.86694,1740717.38714,4850.90494896,-1752.84396617,-5693.6895716,0.407865096732,8.42410724398,-2.2537892673,6768698.67991,1.52212848497,-0.4311352940203867,-0.14592311348292217,0.7060927868406548,2.6314114511798383,1.4559581557914345,-1.7001145088157592,-7.200303373598457E-4,-8.584455463926368E-4,-2.098409839376527E-4,384346.1514,7.42465365902E-12,1156.23865326,0.407865096732,8.42410724398,-2.2537892673
6900.00000001,-6609615.65768,-279502.118535,1395034.30485,-24385.985976,-6615420.48842,1395305.83503,4864.09126812,-1243.66542044,-5815.55995335,0.0314814684006,8.54189664799,-1.80693667437,6769171.08876,1.52650375406,-0.43119073329055624,-0.14602644934117065,0.7097138392997218,2.3560107413527356,1.5048086346938276,-1.9329927584406448,-7.261659216976018E-4,-8.534091599440657E-4,-2.0849896249988795E-4,383787.746793,7.5771728806E-12,1160.11990028,0.0314814684006,8.54189664799,-1.80693667437
6960.00000001,-6657720.51717,-544745.5833,1043345.29176,267290.070906,-6674612.2718,1043391.9073,4854.67693251,-728.615623154,-5910.34889518,-0.34519150127,8.61972998221,-1.35143190686,6769546.19276,1.53087902315,-0.4314153043149729,-0.14597704866586692,0.7132680165311093,1.3965646865390788,1.5351877881234894,-2.849609666899121,-7.321981908391899E-4,-8.483976731689458E-4,-2.0709846370605133E-4,383332.994802,7.70475009657E-12,1163.35889222,-0.34519150127,8.61972998221,-1.35143190686
7020.00000001,-6677320.82933,-807171.576192,686793.286498,557723.889646,-6702785.14119,686614.770808,4822.6983715,-210.105350665,-5977.60205479,-0.720360369331,8.65719372492,-0.889442033369,6769816.26629,1.53525429223,-0.4318078796109397,-0.1457717175971568,0.7167753047625944,0.35080204743546056,1.5088644305216325,2.4310038550605078,-7.381262532163227E-4,-8.434142914552053E-4,-2.0564033252588429E-4,382988.771923,7.80513037397E-12,1165.93873504,-0.720360369331,8.65719372492,-0.889442033369
7080.00000001,-6668293.13973,-1065815.02314,327039.744421,845565.399707,-6699804.29027,326636.927274,4768.29959382,309.435886628,-6016.99632839,-1.09223439996,8.65407749294,-0.423172436416,6769975.79453,1.53962956132,-0.43236622212712267,-0.14540836037456686,0.7202554977749693,0.04859613929214889,1.4614599516458397,2.172405277854364,-7.439492970187692E-4,-8.384621995731982E-4,-2.0412543043470704E-4,382760.10856,7.87652431734E-12,1167.84513199,-1.09223439996,8.65407749294,-0.423172436416
7140.00000001,-6630639.37056,-1319728.77289,-34238.4759826,1129476.3879,-6665680.93893,-34863.7221021,4691.73170051,827.572113505,-6028.34175531,-1.45903638691,8.61037640004,0.0451463879694,6770021.58968,1.54400483041,-0.4330869924255802,-0.1448859808107603,0.7237280952278858,-0.08049849785719193,1.4110713221440665,2.087389147968431,-7.496665882151514E-4,-8.335445584852423E-4,-2.025546340450803E-4,382650.100558,7.91768263939E-12,1169.06683031,-1.45903638691,8.61037640004,0.0451463879694
7200.00000001,-6564487.04639,-1567987.04388,-395357.133877,1408136.89313,-6600572.35079,-396201.902419,4593.35175073,1341.87324044,-6011.58262322,-1.81901336174,8.52629142489,0.513272223331,6769952.82433,1.5483800995,-0.4339657610474209,-0.1442046785807926,0.7272122052495397,-0.15814420019909328,1.3601167342894167,2.0543479233426667,-7.552774684515674E-4,-8.286645022546406E-4,-2.0092883374893926E-4,382659.854057,7.92794905951E-12,1169.59597888,-1.81901336174,8.52629142489,0.513272223331
7260.00000001,-6470088.90963,-1809688.76793,-754632.669126,1680251.51393,-6504781.1101,-755693.033054,4473.62099376,1849.92737994,-5966.79777125,-2.17044698848,8.40222793323,0.978964435763,6769770.99581,1.55275536859,-0.43499702649493105,-0.14336564090142875,0.7307264514123661,-0.2145115731097382,1.3091801315849603,2.043166035523971,-7.607813528489861E-4,-8.23825135078622E-4,-1.9924893236496343E-4,382788.465571,7.90728869198E-12,1169.42842395,-2.17044698848,8.40222793323,0.978964435763
