time,gePosition_m_X,gePosition_m_Y,gePosition_m_Z,eiPosition_m_X,eiPosition_m_Y,eiPosition_m_Z,eiVelocity_m_s_X,eiVelocity_m_s_Y,eiVelocity_m_s_Z,eiAccel_m_s2_X,eiAccel_m_s2_Y,eiAccel_m_s2_Z,semiMajorAxis_m,gast_rad,eulerAngle_rad_Roll,eulerAngle_rad_Pitch,eulerAngle_rad_Yaw,eulerAngleWrtEi_rad_Roll,eulerAngleWrtEi_rad_Pitch,eulerAngleWrtEi_rad_Yaw,bodyAngularRateWrtEi_rad_s_Roll,bodyAngularRateWrtEi_rad_s_Pitch,bodyAngularRateWrtEi_rad_s_Yaw,altitudeMsl_m,airDensity_kg_m3,ambientTemperature_dgK,eiGravitation_m_s2_X,eiGravitation_m_s2_Y,eiGravitation_m_s2_Z
0.0,-1428622.31112709,4163200.4655738,5136049.67204027,-4292653.41,955168.47,5139356.57,109.649663,-7527.72649,1484.521489,5.5138275147784,-1.22706558198701,-6.62051531383762,6758662.11722884,1.02331944621101,-0.0,-0.202458193231342,-0.0,-2.4715939053549,-0.0371889644761344,-1.42899313488854,0.0,-0.0011344542745508,0.0,398252.763838142,3.1122E-12,976.192653674721,5.5138275147784,-1.22706558198701,-6.62051531383762
60.0,-1789722.83705792,3920281.51730932,5213135.36099227,-4276158.45453538,501645.019911278,5216446.72609388,439.970419835701,-7583.89610814561,1084.15696821473,5.49265253000184,-0.644535630696767,-6.71984909779847,6758338.67307801,1.02769471546425,-5.6102845536E-6,-0.202457013493829,-1.935672351987E-4,-2.47205929639209,0.0161204236657014,-1.38666117967647,-7.049068604E-7,-0.0011344779878485,-3.3028523725E-6,398352.017413773,3.2014E-12,983.370219220399,5.49265253000184,-0.644535630696767,-6.71984909779847
120.0,-2144776.23474635,3662449.45966339,5266054.17693205,-4239897.5124734,45802.140972783,5269354.70277994,768.263835093055,-7605.01080946222,678.758043038782,5.44627455669063,-0.0590083839662558,-6.7882649774958,6758119.22441047,1.0320699847175,-3.81474344556E-5,-0.202453045401394,-5.856757066935E-4,-2.47030794868962,0.069280295155486,-1.34410218243724,-1.5682193696E-6,-0.0011344959082197,-6.6150804443E-6,398348.233688352,3.308E-12,991.280034605589,5.44627455669063,-0.0590083839662558,-6.7882649774958
180.0,-2492273.27493215,3390831.0500066,5294559.86817164,-4184037.48317771,-410253.062743464,5297834.29791429,1093.02332470964,-7590.97008933455,270.18995057969,5.37489809660071,0.526869899498353,-6.82544635588559,6758006.34671265,1.03644525395931,-1.211675395529E-4,-0.202445667683327,-0.0011709975883733,-2.46631584574527,0.122194572973341,-1.30107628427383,-2.5897433372E-6,-0.0011345075693188,-9.9359390526E-6,398238.251580687,3.4323E-12,999.871407067495,5.37489809660071,0.526869899498353,-6.82544635588559
240.0,-2830728.8748046,3106603.00314213,5298518.51687368,-4108835.22808628,-864412.225274516,5301751.71322372,1412.75781940574,-7541.83245029245,-139.667094993459,5.278835890906,1.11044688792586,-6.83121107457361,6758000.7562193,1.04082052320969,-2.781308547474E-4,-0.202434308756033,-0.0019426055419911,-2.46003131186148,0.174763491620489,-1.25733917145186,-3.7692476845E-6,-0.0011345124437284,-1.32646764019E-5,398020.787497358,3.5742E-12,1009.05644415707,5.278835890906,1.11044688792586,-6.83121107457361
300.0,-3158688.38299441,2810986.96041501,5277909.19451712,-4014636.44477278,-1314575.26400488,5281086.20925886,1725.99826861029,-7457.8154571917,-548.926051849973,5.15850913492205,1.68907468768001,-6.80551410948709,6758101.54700752,1.04519579246293,-5.322877886393E-4,-0.202418469542554,-0.002892006506868,-2.45137463957029,0.226881529199867,-1.21263857867943,-5.1064639077E-6,-0.0011345099435635,-1.66005334892E-5,397696.4912883,3.7333E-12,1018.71505182047,5.15850913492205,1.68907468768001,-6.80551410948709
360.0,-3474733.79553247,2505244.31101997,5232824.12419639,-3901874.15081255,-1758659.90859921,5235930.26687634,2031.30413514343,-7339.29512766597,-955.701343090152,5.01444690378342,2.26012143393229,-6.74844956434806,6758306.39626919,1.04957106170188,-9.065655878241E-4,-0.202397742677098,-0.0040091839180874,-2.44023743015857,0.278435208532751,-1.16671093064184,-6.6010854758E-6,-0.001134499421153,-1.9942743537E-5,397267.963839443,3.9084E-12,1028.70635759901,5.01444690378342,2.26012143393229,-6.74844956434806
420.0,-3777489.87516449,2190670.88382558,5163468.34270494,-3771066.77958569,-2194611.17204342,5166489.24820084,2327.26982587244,-7186.80460574409,-1358.11723690213,4.84728457345216,2.82098349984123,-6.66025154277882,6758611.69718752,1.05394633095227,-0.0014234562887288,-0.202371827645026,-0.0052826482730834,-2.42648177762254,0.329300715754733,-1.11927819435689,-8.252767164E-6,-0.0011344801697988,-2.32905314375E-5,396739.733343176,4.0983E-12,1038.8834003207,4.84728457345216,2.82098349984123,-6.66025154277882
480.0,-4065630.14576813,1868591.53043657,5070158.85931846,-3622815.89370302,-2620410.72002742,5073080.55398507,2612.53099684184,-7001.03209955812,-1754.31623997926,4.6577612331475,3.36909771260616,-6.54129370907362,6759012.60032815,1.05832160020265,-0.0021049065228405,-0.202340541602954,-0.0066994956679323,-2.40993949275385,0.379341291876588,-1.07004508713299,-1.00611243258E-5,-0.0011344514246144,-2.66431132077E-5,396118.189279475,4.3014E-12,1049.10683478976,4.6577612331475,3.36909771260616,-6.54129370907362
540.0,-4337882.73338629,1540354.62374284,4953323.3128286,-3457803.52530875,-3034086.09486888,4956132.27892414,2885.77067749029,-6782.81810077967,-2142.46742661241,4.44671629036295,3.90195299486403,-6.39208761846062,6759502.9694794,1.06269686945303,-0.0029722097522869,-0.202303825744308,-0.0082454736486073,-2.39041166284383,0.428404365850198,-1.01869688984379,-1.20257321061E-5,-0.0011344123634425,-2.99996954594E-5,395411.475380387,4.5161E-12,1059.25438988278,4.44671629036295,3.90195299486403,-6.39208761846062
600.0,-4593036.02884402,1207326.49522707,4813498.13273475,-3276789.15537805,-3433719.75218588,4816181.37083964,3145.72517524984,-6533.15193313613,-2520.77463808594,4.21508560816684,4.41710104619952,-6.21328013062092,6760075.2808415,1.06707213870913,-0.0040459014842583,-0.202261747118191,-0.0099050535195314,-2.36766898474829,0.476318421246715,-0.964898263413453,-1.41461245971E-5,-0.0011343621078543,-3.33594748843E-5,394629.344973726,4.7407E-12,1069.22499179946,4.21508560816684,4.41710104619952,-6.21328013062092
660.0,-4829944.1490714,870885.833813999,4651326.2137607,-3080606.34580199,-3817457.8718912,4653871.30290954,3391.18974376545,-6253.16769178499,-2887.48451034626,3.96389754719815,4.912165979221,-6.00565034941201,6760720.51037323,1.0714474079538,-0.0053456579709804,-0.202214495789395,-0.0116615081589765,-2.34145350562307,0.522889629251059,-0.908293668414527,-1.64217939409E-5,-0.0011342997242303,-3.67216377576E-5,393782.983777238,4.9736E-12,1078.9384077345,3.96389754719815,4.912165979221,-6.00565034941201
720.0,-5047532.17677571,532418.067231767,4467554.11457134,-2870159.03841953,-4183518.90874895,4469949.26982879,3621.02401843143,-5944.13963091884,-3240.89431495125,3.6942692042261,5.38485313654348,-5.77010652365033,6761428.05968469,1.07582267720419,-0.0068901988559342,-0.202162377175841,-0.0134969944248264,-2.31148266273773,0.567898347227422,-0.84851024962313,-1.88521893815E-5,-0.0011342242249244,-4.00853594607E-5,392884.806215488,5.2129E-12,1088.33217411187,3.6942692042261,5.38485313654348,-5.77010652365033
780.0,-5244801.15983771,193309.742709693,4263028.79174649,-2646417.53450033,-4530201.85061275,4265262.91896703,3834.1572357399,-5607.47703582684,-3579.35962083084,3.40740297108641,5.83295754741696,-5.50768320592372,6762185.76527531,1.08019794645171,-0.0086971941857048,-0.202105799355135,-0.0153926393878159,-2.27745682365638,0.61109568578895,-0.785164361490176,-2.14367162689E-5,-0.001134134569512,-4.34498040266E-5,391948.23158267,5.4569E-12,1097.35751166918,3.40740297108641,5.83295754741696,-5.50768320592372
840.0,-5420832.85116096,-145057.076541823,4038693.87920958,-2410414.16709053,-4855894.15373486,4040756.62672951,4029.59325424615,-5244.71858466111,-3901.30179578286,3.1045833325975,6.25437257045064,-5.21953874325809,6762980.0208328,1.08457321569067,-0.0107831761767273,-0.202045255131348,-0.0173286298730389,-2.23907185201206,0.652200499964049,-0.71787323806903,-2.41747350201E-5,-0.001134029666123,-4.68141237082E-5,390987.445958251,5.7035E-12,1105.97537630128,3.1045833325975,6.25437257045064,-5.21953874325809
900.0,-5574794.16847005,-481310.385078154,3795585.52218756,-2163238.67782996,-5159079.3238898,3797467.32920573,4206.41538432777,-4857.52617389961,-4205.21536372224,2.78717363901517,6.64709919126813,-4.90695293180634,6763796.02145058,1.08894848494105,-0.0131634561109302,-0.201981298721932,-0.0192843050767482,-2.19603846560858,0.6908973697244,-0.646273555555516,-2.70655600399E-5,-0.001133908372861,-5.01774585723E-5,390017.154912072,5.9505E-12,1114.15327368176,2.78717363901517,6.64709919126813,-4.90695293180634
960.0,-5705941.35066937,-814093.764815198,3534827.7742475,-1906033.3099735,-5438344.1097638,3536519.9156586,4363.79101428036,-4447.67815927091,-4489.67521747593,2.45661247828013,7.00925622877993,-4.57132447582643,6764618.11677826,1.09332375419143,-0.0158520467324461,-0.201914517072403,-0.0212382522995297,-2.14811012464414,0.726836396504885,-0.570048609285883,-3.01084586058E-5,-0.0011337694993105,-5.3538936122E-5,389052.330997637,6.1953E-12,1121.86283616564,2.45661247828013,7.00925622877993,-4.57132447582643
1020.0,-5813623.78460755,-1142071.85272692,3257627.56668538,-1639987.63079377,-5692385.27187739,3259122.19413924,4500.97599698322,-4017.06195714298,-4753.3436619858,2.11440926328496,7.33909141649375,-4.21416779882975,6765430.24200729,1.09769902344753,-0.018861590524795,-0.201845496023318,-0.0231684060445316,-2.09512058408851,0.759635920356194,-0.488965225486745,-3.33026497209E-5,-0.0011336118081304,-5.68976709478E-5,388107.959113874,6.4353E-12,1129.0782789327,2.11440926328496,7.33909141649375,-4.21416779882975
1080.0,-5897287.47379854,-1463935.72795997,2965269.26186631,-1366333.09934093,-5920015.88724354,2966559.44083673,4617.31874048516,-3567.66596197672,-4994.97723583215,1.76213873742242,7.63499304742233,-3.83710877991698,6766216.38477039,1.10207429269791,-0.0222032942564726,-0.201774781815243,-0.025052150829633,-2.03703067030618,0.788889470332977,-0.402919955980441,-3.66473029402E-5,-0.0011334340167387,-6.02527644107E-5,387198.782243092,6.6677E-12,1135.77540788314,1.76213873742242,7.63499304742233,-3.83710877991698
1140.0,-5956478.11981478,-1778408.19455945,2659108.80594223,-1086337.39938191,-6120171.14799344,2660188.54860342,4712.26393252012,-3101.57076055798,-5213.43323674026,1.40143425837839,7.89550167531203,-3.44187911443408,6766961.04413793,1.10644956193401,-0.0258868701844298,-0.201702838687918,-0.0268664280329278,-1.97398095880797,0.814178242766206,-0.311991222376339,-4.01415371736E-5,-0.0011332347990845,-6.36033043587E-5,386339.049955528,6.8894E-12,1141.93105728132,1.40143425837839,7.89550167531203,-3.44187911443408
1200.0,-5990843.78781357,-2084248.93396339,2340567.50126695,-801298.561685409,-6291913.61202125,2341431.79499245,4785.35582595145,-2620.93965695286,-5407.67586404023,1.03397989943642,8.11932129416791,-3.03030918190783,6767649.64441906,1.11082483119011,-0.0299204842918966,-0.201630003573267,-0.0285878469329451,-1.90634289384416,0.835089944885254,-0.21648994137914,-4.3784419472E-5,-0.0011330127875123,-6.69483648785E-5,385542.272394074,7.0973E-12,1147.52278261546,1.03397989943642,8.11932129416791,-3.03030918190783
1260.0,-6000137.12964374,-2380259.5002396,2011125.42414157,-512538.904028909,-6434437.86555881,2011770.25546125,4836.24101935073,-2128.00855566794,-5576.78188975492,0.661501561513859,8.30532947578055,-2.60431949111939,6768268.87904222,1.11520010044049,-0.0343107119035734,-0.201556439068757,-0.0301927998437092,-1.83475644232819,0.851243752446994,-0.116996715663056,-4.75749638001E-5,-0.0011327665747159,-7.02870060841E-5,384820.983083998,7.2882E-12,1152.52866490236,0.661501561513859,8.30532947578055,-2.60431949111939
1320.0,-5984217.1425535,-2665288.12741362,1672314.51859996,-221398.820837336,-6547074.56129614,1672736.89247418,4864.67068166237,-1625.07527748014,-5719.9457787463,0.285757382120539,8.45258609765524,-2.16591091362364,6768806.97487427,1.11957536967945,-0.0390625009655394,-0.201482085989952,-0.0316575809220511,-1.76013975298198,0.862319404231171,-0.0143710540082631,-5.1512129803E-5,-0.0011324947157839,-7.36182739451E-5,384186.514647884,7.4591E-12,1156.92705351086,0.285757382120539,8.45258609765524,-2.16591091362364
1380.0,-5943050.44493155,-2938234.32229025,1325711.40128333,70769.543111033,-6629293.80068001,1325909.35557887,4870.50218798556,-1114.48839875818,-5836.48419345671,-0.0914722546155619,8.56034048493709,-1.71715398464412,6769253.88121958,1.12395063893269,-0.0441791432000735,-0.201406616836318,-0.0329585078943973,-1.6836583329902,0.868086472339898,0.0902798735298352,-5.55948215695E-5,-0.0011321957303366,-7.69412001555E-5,383648.792123112,7.6072E-12,1160.69678545148,-0.0914722546155619,8.56034048493709,-1.71715398464412
1440.0,-5876712.05516375,-3198053.21644135,972929.91581138,362608.699025152,-6680707.8346801,972902.530890802,4853.7001505975,-598.635710342535,-5925.83983561606,-0.468394850381899,8.62803695999646,-1.26017754216121,6769601.39743311,1.12832590818593,-0.0496622532519412,-0.201329391473132,-0.0340720456652705,-1.60664972749718,0.868428418293824,0.195676966068391,-5.98218864011E-5,-0.0011318681047543,-8.02548020443E-5,383216.148889445,7.7297E-12,1163.81819699747,-0.468394850381899,8.62803695999646,-1.26017754216121
1500.0,-5785385.66462044,-3443759.65201594,615613.47745903,652762.264062617,-6701073.06301362,615360.880822681,4814.33684225367,-79.9323888849986,-5987.58459186199,-0.843215897175602,8.65531889842732,-0.797156912996764,6769843.25699887,1.13270117743631,-0.0555117558392706,-0.201249416254631,-0.0349749305750445,-1.53051299583076,0.863356113269028,0.300480119652833,-6.41921135897E-5,-0.0011315102944968,-8.35580825316E-5,382895.170112006,7.8246E-12,1166.27393049194,-0.843215897175602,8.65531889842732,-0.797156912996764
1560.0,-5669363.39847958,-3674431.98090757,255427.250602628,939881.418559474,-6690291.31718895,254950.616550342,4752.59201626015,439.191033493655,-6021.4219603312,-1.21414887351717,8.64203141424199,-0.330301774210775,6769975.184133,1.13707644668384,-0.0617258808181564,-0.201165307712454,-0.0356442939973489,-1.45658485105687,0.853007508581553,0.403412490991037,-6.87042332112E-5,-0.0011311207265133,-8.68500301296E-5,382690.568072584,7.8901E-12,1168.04953085658,-1.21414887351717,8.64203141424199,-0.330301774210775
1620.0,-5529045.06196177,-3889215.55782208,-105949.797411669,1222631.33454616,-6648410.41767702,-106648.253104584,4668.75213052119,956.300821693511,-6027.18874091452,-1.57942511626391,8.58822275344096,0.138156245404902,6769994.93299915,1.14145171592279,-0.0683011659746908,-0.201075261828754,-0.0360577840134492,-1.386029478339,0.837633525759827,0.503371086758166,-7.33569149417E-5,-0.0011306978017434,-9.01296189915E-5,382605.092875882,7.9251E-12,1169.1339102681,-1.57942511626391,8.58822275344096,0.138156245404902
1680.0,-5364936.87272281,-4087325.91017706,-466832.921382027,1499697.5400086,-6575624.00019339,-467749.951752356,4563.20898284371,1468.97223525315,-6004.85597482573,-1.93730357410527,8.4941443986245,0.605976182263543,6769902.31191,1.14582698517889,-0.0752324672798096,-0.200977029817711,-0.0361936840565537,-1.31976376982,0.817573594069086,0.599501945691421,-7.81487669013E-5,-0.0011302398977062,-9.33958090084E-5,382639.480911521,7.929E-12,1169.51971800315,-1.93730357410527,8.4941443986245,0.605976182263543
1740.0,-5177649.68251361,-4268051.57103319,-825539.656972265,1769792.18378542,-6472270.61073421,-826670.999070533,4436.45776480291,1974.80169205765,-5954.52912205693,-2.28608042998732,8.36024981934313,1.07092051064568,6769699.18799871,1.15020225442927,-0.0825129762889739,-0.200867901254463,-0.0360310276498848,-1.25842708545743,0.793226210868653,0.691230808916919,-8.30783345329E-5,-0.001129745371178,-9.66475459579E-5,382792.442278769,7.9019E-12,1169.20363935819,-2.28608042998732,8.36024981934313,1.07092051064568
1800.0,-4967896.69637647,-4430756.56096064,-1180397.86712018,2031660.16647737,-6338832.07389363,-1181738.26204976,4289.09454349642,2471.41881411993,-5876.44747051305,-2.62409853533897,8.1871917761774,1.53076795665727,6769389.46379082,1.15457752367966,-0.0901342443437775,-0.200744695310956,-0.0355497086237898,-1.20239137481287,0.765019903537339,0.778253448368709,-8.81440995228E-5,-0.0011292125609568,-9.98837617027E-5,383060.687275586,7.8445E-12,1168.18664077179,-2.62409853533897,8.1871917761774,1.53076795665727
1860.0,-4736490.69928645,-4574882.51003498,-1529753.73008114,2284085.10343773,-6175931.14418773,-1531296.94777142,4121.81318540349,2956.49826646011,-5770.98277923295,-2.94975655171334,7.9758181142055,1.98332618219147,6768979.01679615,1.15895279293004,-0.0980862132382591,-0.2006037607712,-0.0347305864409185,-1.15179910436384,0.733388499076516,0.860498213614106,-9.33444787681E-5,-0.0011286397907108,-1.031033744428E-4,383438.991097963,7.7581E-12,1166.47417395458,-2.94975655171334,7.9758181142055,1.98332618219147
1920.0,-4484340.80561586,-4699950.41142864,-1871979.62353362,2525895.08697398,-5984328.45552631,-1873718.49211765,3935.401743839,3427.77129825605,-5638.63716962006,-3.26151766602257,7.72716605415758,2.42644413162404,6768475.59635582,1.16332806216899,-0.106357252046797,-0.200440985391529,-0.0335555864425486,-1.10661447031368,0.698752609535358,0.93807532203117,-9.86778233993E-5,-0.00112802537191,-1.063052890215E-4,383920.295114361,7.6447E-12,1164.07634892404,-3.26151766602257,7.72716605415758,2.42644413162404
1980.0,-4212448.75021627,-4805562.00159267,-2205481.86038616,2755968.21642694,-5764918.78935468,-2207408.30002793,3730.73833968595,3883.03689866194,-5480.04029120202,-3.55791774525418,7.4424550808196,2.85802383549793,6767888.67718168,1.16770333142223,-0.114934199866715,-0.200251815034858,-0.0320077949243391,-1.06667603996873,0.661507524145863,1.01122475421716,-1.041424178645E-4,-0.0011273676068379,-1.094883972854E-4,384495.842442332,7.5066E-12,1161.00808384187,-3.55791774525418,7.4424550808196,2.85802383549793
2040.0,-3921904.7423087,-4891400.76585457,-2528708.23386621,2973237.86680239,-5518726.68701266,-2530813.29485908,3508.78657242666,4320.17248814546,-5295.94579974459,-3.83757282406656,7.12307860625792,3.27603150580674,6767229.27443285,1.17207860067547,-0.123802414300578,-0.200031282838732,-0.0300715489438997,-1.03174341956706,0.622016628957735,1.08027016167671,-1.097364790806E-4,-0.0011266647916807,-1.126515785006E-4,385155.344996714,7.3465E-12,1157.28923814217,-3.83757282406656,7.12307860625792,3.27603150580674
2100.0,-3613882.9081374,-4957232.56923893,-2840155.33200007,3176697.66901883,-5246901.43625776,-2842429.23693551,3270.59050363202,4737.14407827774,-5087.22719357738,-4.09918586178631,6.77059462546179,3.67850782295527,6766509.7290256,1.17645386991157,-0.132945825579239,-0.199774048480661,-0.0277325206627679,-1.00153466918789,0.580609036582268,1.14558207098831,-1.154581556603E-4,-0.0011259152196897,-1.157936998247E-4,385887.178643609,7.1675E-12,1152.94473421801,-4.09918586178631,6.77059462546179,3.67850782295527
2160.0,-3289636.34892477,-5002905.91672565,-3138375.58448036,3365406.17745277,-4950711.46552796,-3140807.77426616,3017.26925757908,5132.01584599878,-4854.87305789932,-4.34155274692491,6.38671557570998,4.06357738234072,6765743.47303826,1.1808291391591,-0.142346996298872,-0.199474447390669,-0.0249777958552626,-0.975754049617838,0.537580105146178,1.20755080414478,-1.213055272199E-4,-0.0011251171844158,-1.189136168361E-4,386678.60254229,6.9727E-12,1148.00467122555,-4.34155274692491,6.38671557570998,4.06357738234072
2220.0,-2950491.84192097,-5028351.84947689,-3421984.00792622,3538491.2031634,-4631538.18239945,-3424563.1914149,2750.01128411175,5502.95907992197,-4599.98176717582,-4.56356755275781,5.97329756878458,4.42945731632507,6764944.78341348,1.18520440840948,-0.151987186803776,-0.199126549545608,-0.0217959460111532,-0.9541112435909,0.493193742486036,1.26656797673102,-1.272766037752E-4,-0.0011242689830089,-1.220101741194E-4,387515.998199996,6.7655E-12,1142.50443142333,-4.56356755275781,5.97329756878458,4.42945731632507
2280.0,-2597844.21547017,-5033583.48424171,-3689664.61850391,3695153.79387482,-4290869.2949694,-3692378.82547602,2470.06832844134,5848.26046475749,-4323.75569417815,-4.76422705073271,5.53232911119925,4.77446512194888,6764128.52852287,1.18957967766558,-0.16184642628638,-0.198724227274646,-0.0181770932589095,-0.936333786126099,0.447685674123789,1.32301484245315,-1.333693252322E-4,-0.0011233689195811,-1.250822059088E-4,388385.123253334,6.5493E-12,1136.48477349376,-4.76422705073271,5.53232911119925,4.77446512194888
2340.0,-2233150.42751496,-5018695.20683423,-3940176.48373793,3834671.84446915,-3930291.65674784,-3943013.12097061,2178.74915254084,6166.32967555703,-4027.49497278574,-4.9426344744482,5.06591938931942,5.09702570723792,6763309.90807105,1.1939549469131,-0.171903589693288,-0.198261231320083,-0.0141129671799236,-0.922174460410823,0.401267116432826,1.37725572945899,-1.395815609793E-4,-0.0011224153086262,-1.281285367886E-4,389271.374603906,6.3273E-12,1129.9918965188,-4.9426344744482,5.06591938931942,5.09702570723792
2400.0,-1857923.37931189,-4983861.53116714,-4172359.38816481,3956403.32444818,-3551483.6772114,-4175305.29830392,1877.41305377369,6455.70625779313,-3712.59086190784,-5.09800250936935,4.5762861927712,5.39567763434314,6762504.18398477,1.19833021615206,-0.182136480521507,-0.197731274234667,-0.0095969525023515,-0.911415169532024,0.354128505820047,1.429635057967,-1.459111095859E-4,-0.0011214064784925,-1.311479824508E-4,390160.0553583,6.1027E-12,1123.07744058997,-5.09800250936935,4.5762861927712,5.39567763434314
2460.0,-1473725.49548032,-4929335.63781061,-4385139.09038012,4059789.11160973,-3156207.34146231,-4388180.61332402,1567.46322812823,6715.06577454416,-3380.51876014345,-5.22965547885483,4.06574358347677,5.66907850872875,6761726.39964595,1.2027054854053,-0.192521919564681,-0.197128120052736,-0.0046241266745014,-0.903868466783819,0.306443086199658,1.48047675322365,-1.523556986154E-4,-0.0011203407749018,-1.34139350509E-4,391036.640105318,5.8782E-12,1115.79836354096,-5.22965547885483,4.06574358347677,5.66907850872875
2520.0,-1082162.10181785,-4855447.60747466,-4577532.15210157,4144355.42407205,-2746299.88333554,-4580655.18859711,1250.34002672196,6943.2252101235,-3032.83092408821,-5.3370307175048,3.53668947339697,5.91600946133102,6760991.08754133,1.20708075465283,-0.203035839628874,-0.1964456790405,8.087135734315E-4,-0.899377613586829,0.258370258977042,1.53008517705292,-1.589129845571E-4,-0.0011192165645095,-1.371014413692E-4,391887.033411282,5.6567E-12,1108.21659840079,-5.3370307175048,3.53668947339697,5.91600946133102
2580.0,-684874.633254587,-4762602.36599233,-4748650.32312425,4209715.84569118,-2323665.15660941,-4751840.40026971,927.51415348131,7139.14763086758,-2671.14894551742,-5.41967917006088,2.99159332342583,6.13537870572448,6760311.97052074,1.21145602389464,-0.213653386184879,-0.195678106203552,0.0067030373733963,-0.897815772156278,0.210058664193582,1.57874695683733,-1.655805528837E-4,-0.0011180322384994,-1.400330491557E-4,392697.816972688,5.4406E-12,1100.39835845016,-5.41967917006088,2.99159332342583,6.13537870572448
2640.0,-283533.701436111,-4651277.35928456,-4897704.46935089,4255572.94268446,-1890264.74853563,-4900946.8076973,600.479847740308,7301.94611718462,-2297.15604184987,-5.47726531763049,2.43298418911872,6.32622421990507,6759701.66789171,1.21583129314788,-0.224349023862287,-0.194819902102899,0.0130585769979599,-0.899084737115069,0.161648999534633,1.62673328487548,-1.723559182383E-4,-0.001116786216206,-1.429329626908E-4,393456.481532536,5.232E-12,1092.41293154452,-5.47726531763049,2.43298418911872,6.32622421990507
2700.0,120167.948918434,-4522019.97677625,-5024008.03420469,4281719.47167687,-1448108.87866775,-5027287.61614559,270.748087519529,7430.88699354273,-1912.58920890983,-5.50956659304241,1.86343929698627,6.48771568252799,6759171.42255054,1.22020656239826,-0.235096648620065,-0.193866014407157,0.0198733373953077,-0.903113459590058,0.113276604314671,1.67430239955725,-1.792365247581E-4,-0.0011154769487581,-1.457999665286E-4,394151.640314604,5.0326E-12,1084.33082100849,-5.50956659304241,1.86343929698627,6.48771568252799
2760.0,524522.566996912,-4375444.74173943,-5126980.02639568,4288039.18121584,-999247.124086879,-5130281.66553518,-60.1601616661284,7525.39239143824,-1519.23127512078,-5.51647248127965,1.28557323841134,6.61915585823851,6758730.86740021,1.22458183164864,-0.245869705350465,-0.192811938497166,0.0271436177844436,-0.90985650771881,0.0650738445527194,1.72170205291211,-1.862197465376E-4,-0.0011141029227348,-1.486328420401E-4,394773.221246637,4.844E-12,1076.22118399364,-5.51647248127965,1.28557323841134,6.61915585823851
2820.0,927814.581624187,-4212230.28642956,-5206147.52898573,4274507.20993522,-545759.00993942,-5209455.94017599,-390.720639365686,7585.04218180246,-1118.90288363162,-5.4979834926436,0.702027738737962,6.71998164996428,6758387.84725376,1.22895710090188,-0.256641310585842,-0.191653815355076,0.0348640448117008,-0.919292527544434,0.0171723369404682,1.7691718269986,-1.933028882366E-4,-0.0011126626638276,-1.514303685485E-4,395312.635554119,4.6672E-12,1068.14871542746,-5.4979834926436,0.702027738737962,6.71998164996428
2880.0,1328327.82155545,-4033116.12837636,-5261147.72590652,4241190.08502524,-89744.5021689461,-5264447.59564697,-719.412420850243,7609.57530687749,-713.454416490737,-5.45421014175474,0.11546183391329,6.7897650036151,6758148.30621948,1.23333237013798,-0.267384379881967,-0.19038852493017,0.0430276165052748,-0.931422708190663,-0.0302949536369427,1.81694519274257,-2.004831858369E-4,-0.0011111547404997,-1.541913245128E-4,395762.920411734,4.503E-12,1060.1704023314,-5.45421014175474,0.11546183391329,6.7897650036151
2940.0,1724352.74685499,-3838899.26300191,-5291729.44264063,4188245.32467039,366685.562117957,-5295005.49953289,-1044.72448803766,7598.89052880348,-304.757866153749,-5.38537197634501,-0.471457793607425,6.8282137669143,6758016.24136208,1.23770763938837,-0.27807175934748,-0.189013773192718,0.0516257560539017,-0.946269207215159,-0.0771917150539201,1.86525121555202,-2.077578075508E-4,-0.0011095777676338,-1.569144887575E-4,396118.853303103,4.3517E-12,1052.33282118967,-5.38537197634501,-0.471457793607425,6.8282137669143
3000.0,2114193.66937455,-3630430.5860001,-5297754.19797623,4115920.64796848,821419.071783264,-5300991.28293008,-1365.16224248503,7553.04659663475,105.301343187236,-5.29179660047754,-1.05606657534886,6.83517249180685,6757993.7133746,1.24208290863875,-0.288676360679943,-0.187528171172463,0.0606483742862535,-0.963873450325502,-0.123376369200803,1.9143158069156,-2.151238548851E-4,-0.0011079304101601,-1.595986417462E-4,396377.035689057,4.2134E-12,1044.67070056982,-5.29179660047754,-1.05606657534886,6.83517249180685
3060.0,2496175.93712922,-3408611.15873636,-5279196.76398071,4024552.79588863,1272352.23109272,-5282379.89986784,-1679.25395636726,7472.26181995768,514.832578018468,-5.17391855711953,-1.635712097159,6.81062306353328,6758080.89665962,1.2464581778777,-0.299171298958784,-0.185931304427963,0.070083939639327,-0.984294180221969,-0.168700228488507,1.96436240362256,-2.225783638623E-4,-0.0011062113866556,-1.622425668963E-4,396535.94366662,4.0877E-12,1037.20720300796,-5.17391855711953,-1.635712097159,6.81062306353328
3120.0,2868653.05818741,-3174388.32937462,-5236145.23198258,3914565.96734262,1717399.10529364,-5239259.69243663,-1985.55714794067,7356.91303001463,921.94824597061,-5.03227790015362,-2.2077644713406,6.75468497391069,6758276.14694215,1.25083344713094,-0.309530032339497,-0.184223791593888,0.0799195543718468,-1.00760509005141,-0.213005739607106,2.01561192918394,-2.301183064016E-4,-0.0011044194729047,-1.648450519328E-4,396595.943645751,3.9743E-12,1029.955859811,-5.03227790015362,-2.2077644713406,6.75468497391069
3180.0,3230013.73802867,-2928751.72254935,-5168800.5836315,3786469.8755557,2154501.08502527,-5171831.96069567,-2282.66485816698,7207.53391063634,1324.77204729972,-4.86751830778198,-2.76962694315679,6.66761505475391,6758576.0657407,1.25520871638133,-0.319726502696156,-0.182407330884804,0.0901410357922039,-1.03389183779296,-0.256124848444385,2.06828185893932,-2.377405918609E-4,-0.0011025535054127,-1.674048902765E-4,396559.271753803,3.8723E-12,1022.92357690507,-4.86751830778198,-2.76962694315679,6.66761505475391
3240.0,3578688.8023808,-2672729.11216453,-5077475.76802889,3640857.43155173,2581636.23144399,-5080410.03835599,-2569.21179824972,7024.81269092971,1721.44719094907,-4.6803846614747,-3.31874651702919,6.54980655232209,6758975.54777312,1.25958398563171,-0.329735276174545,-0.180484733671478,0.10073300131844,-1.06324820159631,-0.297877547728405,2.12258417626971,-2.454420687406E-4,-0.0011006123848618,-1.699208824659E-4,396429.976687665,3.7811E-12,1016.11388770357,-4.6803846614747,-3.31874651702919,6.54980655232209
3300.0,3913157.97920093,-2407382.19149995,-4962594.28825777,3478402.06346148,2996828.46388772,-4965417.87757314,-2843.88033620097,6809.58920629414,2110.14453480395,-4.47172011368648,-3.8526243442689,6.40178753513255,6759467.80825861,1.26395925488209,-0.339531682547105,-0.178459944466934,0.111678956258687,-1.09577110916839,-0.338070702950991,2.17872198034933,-2.532195265497E-4,-0.0010985950794999,-1.723918376071E-4,396213.826975443,3.6998E-12,1009.52973696546,-4.47172011368648,-3.8526243442689,6.40178753513255
3360.0,4231956.51305688,-2133802.25598602,-4824688.30300322,3299854.68217467,3398156.55274789,-4827388.14854764,-3105.40629484409,6562.85134881754,2489.0706129761,-4.2424627599922,-4.36882566336259,6.22421874824413,6760044.39951599,1.26833452412105,-0.349091952203581,-0.176338046849491,0.122961383283394,-1.13155426823307,-0.376497292120381,2.23688449842523,-2.61069697833E-4,-0.0010965006284529,-1.74816574849E-4,395918.184918873,3.6278E-12,1003.17540043219,-4.2424627599922,-4.36882566336259,6.22421874824413
3420.0,4533681.58676808,-1853105.81389555,-4664396.25091806,3106040.30526491,3783762.88178807,-4666959.86159561,-3352.58454245034,6285.73093706202,2856.4755226287,-3.99364208421823,-4.86498921406594,6.0178911144821,6760695.23708585,1.27270979337429,-0.358393349566331,-0.174125255005394,0.134561832648057,-1.1706801573112,-0.412936238783289,2.29724028579029,-2.6898926036E-4,-0.0010943281449505,-1.771939248806E-4,395551.850664758,3.5641E-12,997.057475838474,-3.99364208421823,-4.86498921406594,6.0178911144821
3480.0,4816998.52699712,-1566430.13846678,-4482460.00665408,2897854.35193583,4151861.94599053,-4484875.52061872,-3584.27436741607,5979.49903490519,3210.66065587056,-3.72637533732371,-5.33883621797277,5.78372310292638,6761408.66189504,1.27708506262181,-0.367414301686476,-0.171828890702777,0.146461012312038,-1.21321022992028,-0.447153060578386,2.35992848813756,-2.769748394712E-4,-0.0010920768194547,-1.795227314458E-4,395124.880722431,3.508E-12,991.185096532346,-3.72637533732371,-5.33883621797277,5.78372310292638
3540.0,5080646.77035847,-1274928.77582136,-4279721.57797431,2676258.62199629,4500748.55252494,-4281977.81739764,-3799.40463619872,5645.56073862999,3549.9862740269,-3.44186394017609,-5.78817917452336,5.52275812363198,6762171.56477949,1.28146033186077,-0.37613452075683,-0.169457345629093,0.158638877183169,-1.25917336741955,-0.478901588280454,2.42504822073829,-2.850230105826E-4,-0.0010897459226833,-1.818018528707E-4,394648.385682818,3.4589E-12,985.569601677212,-3.44186394017609,-5.78817917452336,5.52275812363198
3600.0,5323445.56772064,-979767.019991289,-4057119.3533069,2442276.97182243,4828805.69307145,-4059205.87607862,-3996.97873584204,5285.44943346961,3872.8789274982,-3.14138988561839,-6.21093080755265,5.2361619773319,6762969.59257479,1.28583560110829,-0.384535119273691,-0.167020029158915,0.171074716800833,-1.30855290907007,-0.507927018892328,2.49264640995055,-2.931303018425E-4,-0.0010873348085156,-1.840301636014E-4,394134.311880643,3.416E-12,980.223888228633,-3.14138988561839,-6.21093080755265,5.2361619773319
3660.0,5544299.40267461,-682117.366490016,-3815683.90895434,2196990.70030398,5134512.0551939,-3817591.05707575,-4176.07929715331,4900.8205007285,4177.83872129102,-2.82631199048783,-6.60511347772475,4.92522022542222,6763787.44225095,1.29021087036154,-0.392598716597878,-0.164527301787723,0.183747240854623,-1.36127299856516,-0.533970532359776,2.56270485113741,-3.012931969382E-4,-0.001084842916774,-1.862065557461E-4,393595.211350265,3.3787E-12,975.161619997474,-2.82631199048783,-6.60511347772475,4.92522022542222
3720.0,5742203.0981666,-383154.956480921,-3556533.38550187,1941533.65834223,5416449.13882209,-3558252.32994192,-4335.87268253155,4493.44444106722,4463.44641357471,-2.49806175273657,-6.96886924648672,4.59133519733358,6764609.23392123,1.29458613960906,-0.400309535712183,-0.161990394682337,0.196634662026393,-1.4171854847293,-0.556775604847436,2.63512773360117,-3.095081380485E-4,-0.0010822697758699,-1.883299406167E-4,393044.003818475,3.3462E-12,970.39641123659,-2.49806175273657,-6.96886924648672,4.59133519733358
3780.0,5916246.5831388,-84053.0240799226,-3280868.44430066,1677087.0968988,5673307.94161917,-3282391.22609459,-4475.61320636313,4065.19937441045,4728.37031464552,-2.15813853445708,-7.30047056762458,4.23602226588677,6765418.93852388,1.29896140886516,-0.407653489054793,-0.159421316059674,0.209714775745284,-1.47605911533258,-0.576095977112738,2.7097313826803,-3.177715289359E-4,-0.0010796150053051,-1.903992502672E-4,392493.73385996,3.3179E-12,965.941053791183,-2.15813853445708,-7.30047056762458,4.23602226588677
3840.0,6065619.28883751,214021.639438967,-2989966.81753344,1404874.27100874,5903895.1748224,-2991286.38491591,-4594.64704000556,3618.06288542043,4971.37293116993,-1.80810383277238,-7.59833134907548,3.86090502610159,6766200.82504073,1.30333667810126,-0.414618252428748,-0.156832745398127,0.222965036562017,-1.53757311821262,-0.591704984430248,2.78623832289174,-3.260797381731E-4,-0.0010768783180206,-1.924134390227E-4,391957.325914103,3.2932E-12,961.806821945394,-1.80810383277238,-7.59833134907548,3.86090502610159
3900.0,6189614.14326528,509913.186027886,-2685177.46928465,1126154.82042247,6107138.96987154,-2686287.71066398,-4692.41574207273,3154.10320504634,5191.31728125751,-1.44957450907452,-7.86101793535643,3.46770911245928,6766939.88786469,1.30771194735164,-0.421193326144886,-0.154237916784655,0.236362630982552,-1.60131728046595,-0.603405651318077,2.86427778124913,-3.34429102498E-4,-0.0010740595225836,-1.943714849939E-4,391447.339768202,3.2714E-12,958.002866861517,-1.44957450907452,-7.86101793535643,3.46770911245928
3960.0,6287631.13282072,802481.158858655,-2367914.3898846,842218.951245621,6282094.03645361,-2368810.16248217,-4768.45935128635,2675.469749123,5387.17279484978,-1.08421499452417,-8.08725946397356,3.05825455917766,6767622.21839675,1.31208721660202,-0.427370082743589,-0.151650492974753,0.249884546751855,-1.66680013968743,-0.611040659369155,2.94339425195052,-3.428159302884E-4,-0.001071158525205,-1.962723915743E-4,390975.729401327,3.2518E-12,954.535699728094,-1.08421499452417,-8.08725946397356,3.05825455917766
4020.0,6359180.40227359,1090604.86454139,-2039650.05098011,554381.44658729,6427946.23483938,-2040327.20497939,-4822.41898473105,2184.38306766405,5558.02071402208,-0.713728635887438,-8.27595707406091,2.63444680234279,6768235.29537439,1.31646248583812,-0.433141800846743,-0.149084431961343,0.263507638742017,-1.73346583075065,-0.614501095295652,3.02306467213983,-3.512365051512E-4,-0.0010681753315789,-1.981151889127E-4,390553.608698664,3.2339E-12,951.40875623687,-0.713728635887438,-8.27595707406091,2.63444680234279
4080.0,6403884.86808809,1373187.64841548,-1701908.55362036,263975.53728975,6544016.52947664,-1702363.95169297,-4854.0388976418,1683.12428615584,5703.05891899037,-0.339848451147372,-8.42619158310723,2.19826658955539,6768768.1833874,1.3208377550885,-0.438503684901339,-0.146553847990408,0.277208691768983,-1.8007186307128,-0.613732865967489,3.10272325666481,-3.596870896147E-4,-0.0010651100485381,-1.998989353585E-4,390191.028334183,3.2171E-12,948.622032179692,-0.339848451147372,-8.42619158310723,2.19826658955539
4140.0,6421482.32455077,1649161.05176785,-1356258.50554821,-27653.334073902,6629764.29625752,-1356490.03764919,-4863.16797852766,1174.02413716341,5821.60612487032,0.0356723978850536,-8.53722945608104,1.75175915890339,6769211.64507115,1.32521302433889,-0.44345287077596,-0.14407286901716,0.290964480828228,-1.86795267644783,-0.608739879071771,-3.10139383616382,-3.681639289185E-4,-0.0010619628855173,-2.016227188739E-4,389896.76886837,3.2008E-12,946.171778956474,0.0356723978850536,-8.53722945608104,1.75175915890339
4200.0,6411827.02775341,1917488.82841218,-1004305.66651592,-319153.821717864,6684789.96195661,-1004312.25986625,-4849.76067114228,659.451684448267,5913.10541654248,0.411070144447037,-8.60852710919074,1.29702305339847,6769558.18591241,1.32958829359213,-0.447988417349331,-0.141655492572455,0.304751829390287,-1.93458317458775,-0.599583514426425,-3.0234758412349,-3.76663254888E-4,-0.00105873415582,-2.032856584079E-4,389678.155594905,3.1844E-12,944.050247339137,0.411070144447037,-8.60852710919074,1.29702305339847
4260.0,6374890.74675085,2177170.80309001,-647685.40178062,-609175.023391561,6708836.96028307,-647467.025981064,-4813.8773285321,141.802833897437,5977.12710888973,0.784579788539598,-8.63973375626996,0.836198856351719,6769802.05850782,1.33396356284251,-0.452111284380618,-0.139315441924143,0.318547666518129,-2.0000750789545,-0.586378458327763,-2.94722035489173,-3.851812898865E-4,-0.0010554242776814,-2.048869052287E-4,389540.900723585,3.1675E-12,942.245467050931,0.784579788539598,-8.63973375626996,0.836198856351719
4320.0,6310763.27554576,2427246.55401383,-288054.984260663,-896372.831637487,6701792.99421443,-287612.651507069,-4755.68401162342,-376.511289572846,6013.37093294799,1.15444423984471,-8.63069307648868,0.371457999496545,6769939.25392462,1.33833883208147,-0.455824297075251,-0.137066024299316,0.332329083647756,-2.06396580142451,-0.569285501435191,-2.8730692224139,-3.93714250833E-4,-0.0010520337751235,-2.064256442092E-4,389488.978012004,3.1497E-12,940.741047839977,1.15444423984471,-8.63069307648868,0.371457999496545
4380.0,6219652.40254006,2666798.90453044,72914.2143846182,-1179416.25663146,6663690.59853385,73578.4539892671,-4675.45174527441,-893.076036131884,6021.66755332133,1.51892327250747,-8.58144394641887,-0.0950083446383556,6769967.50176773,1.34271410133185,-0.459132097864339,-0.13491999280911,0.346073391899054,-2.12587983632709,-0.548502277025904,-2.80137906993985,-4.022583532748E-4,-0.0010485632785985,-2.079010950609E-4,389524.533976531,3.1305E-12,939.518812398196,1.51892327250747,-8.58144394641887,-0.0950083446383556
4440.0,6101883.33605813,2894957.21109135,433544.603761277,-1456993.68833834,6594706.99989775,434427.671777562,-4573.5552403243,-1405.48494447694,6001.97941957408,1.87630238782283,-8.49222036015186,-0.561000375842428,6769886.28955886,1.34708937058509,-0.462041086010567,-0.132889413610098,0.35975818074917,-2.18553477449538,-0.524253066006128,-2.73241515966214,-4.108098155042E-4,-0.0010450135254164,-2.093125135129E-4,389647.838442822,3.1099E-12,938.572732855944,1.87630238782283,-8.49222036015186,-0.561000375842428
4500.0,5957897.58735159,3110900.43360237,792160.285813378,-1727819.06604993,6495163.27473157,793258.08987356,-4450.4710843032,-1911.35142572769,5954.40094759242,2.22490167384893,-8.36345050652951,-1.02432090619025,6769696.89915576,1.35146463983547,-0.4645593457498,-0.130985539757221,0.373361378802564,-2.24273959555512,-0.496778720423051,-2.66635298528982,-4.193648627078E-4,-0.0010413853599538,-2.10659192431E-4,389857.27562988,3.0881E-12,937.898182342928,2.22490167384893,-8.36345050652951,-1.02432090619025
4560.0,5788251.31402471,3313859.97681908,1147094.95649887,-1990637.92340234,6365522.80832496,1148402.40948213,-4306.77539979764,-2408.32036282017,5879.15802059638,2.56308468733711,-8.19575484011209,-1.48278680411343,6769402.44659978,1.35583990908586,-0.466696563783017,-0.129218693149977,0.386861317234244,-2.29738704732037,-0.466327522798029,-2.60328579765548,-4.279197311363E-4,-0.0010376797336432,-2.119404628737E-4,390149.375417128,3.0651E-12,937.485841550645,2.56308468733711,-8.19575484011209,-1.48278680411343
4620.0,5593613.12986114,3503122.29112857,1496699.7569019,-2244233.27691896,6206389.06214065,1498210.80078122,-4143.14097073745,-2894.0795583326,5776.6067976648,2.88926728763747,-7.98994291984475,-1.93424061932441,6769007.90487432,1.36021517832195,-0.468463937049565,-0.1275981559329,0.400236796275137,-2.34944226704283,-0.433147494266575,-2.54323590479882,-4.36470672282E-4,-0.00103389770474,-2.131556950806E-4,390518.883117392,3.0411E-12,937.32178218721,2.88926728763747,-7.98994291984475,-1.93424061932441
4680.0,5374761.39105451,3678031.22116048,1839351.03200021,-2487431.32632671,6018502.66077799,1841058.6662403,-3960.3338439878,-3366.3709505296,5647.23182262474,3.20192625906293,-7.74700881879968,-2.37656224601526,6768520.08820523,1.36459044757234,-0.469874071836232,-0.126132072661341,0.413467154866631,-2.39892967226703,-0.397480370405199,-2.48616771818005,-4.450139570541E-4,-0.0010300404378678,-2.14304299391E-4,390958.865094515,3.0163E-12,937.387039507631,3.20192625906293,-7.74700881879968,-2.37656224601526
4740.0,5132580.97182178,3837990.09400342,2173457.95519713,-2719106.93567207,5802737.81514219,2175354.26955795,-3759.20942541379,-3823.00150862972,5491.64343779348,3.49960750058069,-7.46812502018673,-2.80768038627273,6767947.581701,1.36896571681986,-0.470940875396578,-0.124827364461769,0.426532343354154,-2.44591973726317,-0.359557230402493,-2.43200092878974,-4.535458799367E-4,-0.0010261092033424,-2.153857270881E-4,391460.846956782,2.9909E-12,937.655106106959,3.49960750058069,-7.46812502018673,-2.80768038627273
4800.0,4868059.54851867,3982463.53777395,2497469.97745754,-2938188.86582207,5560098.10377187,2499546.18903437,-3540.70810320643,-4261.85371781316,5310.57452283636,3.78093355996358,-7.15463487148614,-3.22558353723094,6767300.6096759,1.37334098605596,-0.471679441358779,-0.123689656284984,0.439412998838295,-2.49051675949632,-0.319595611533165,-2.38062270878755,-4.620627631191E-4,-0.0010221053762748,-2.16399471167E-4,392014.980770479,2.965E-12,938.090231097977,3.78093355996358,-7.15463487148614,-3.22558353723094
4860.0,4582283.41390046,4110979.02646314,2809884.06159092,-3143664.73127784,5291711.63942304,2812130.55589963,-3305.8504432302,-4680.89557345067,5104.87659499302,4.04461034468802,-6.80804381803505,-3.62833025685098,6766590.8471318,1.37771625531206,-0.472105930274825,-0.122723218164096,0.452090522576469,-2.53284824132369,-0.277797861709832,-2.3318983139551,-4.705609605853E-4,-0.0010180304354564,-2.173450670234E-4,392610.237644865,2.9399E-12,938.736442170827,4.04461034468802,-6.80804381803505,-3.62833025685098
4920.0,4276432.84646187,4223128.1492102,3109251.66479147,-3334585.65716404,4998825.65237246,3111658.04068778,-3055.73200852615,-5078.19002050411,4875.51531917301,4.28943293558881,-6.43000973127585,-4.0140585526792,6765831.18845181,1.38209152455673,-0.47223744670039,-0.121930921152572,0.464547158644726,-2.5730561334582,-0.234350460989793,-2.28567984134034,-4.790368621507E-4,-0.0010138859620282,-2.1822209306E-4,393234.621989368,2.9169E-12,939.65955421223,4.28943293558881,-6.43000973127585,-4.0140585526792
4980.0,3951777.06397415,4318567.60271193,3394185.43566526,-3510070.61545649,4682800.52515984,3396740.55386912,-2791.51785645891,-5451.90379370929,4623.56548231531,4.51429053047724,-6.02233265701888,-4.38099435388824,6765035.49272928,1.38646679380997,-0.472091914189897,-0.121314208348461,0.476766072938677,-2.61128992653512,-0.189424058210101,-2.24181315718525,-4.874868974338E-4,-0.0010096736379383,-2.190301712106E-4,393875.403604331,2.8976E-12,940.910971426331,4.51429053047724,-6.02233265701888,-4.38099435388824
5040.0,3609668.78853003,4397019.91143869,3663365.59524082,-3669310.4226191,4345103.31559822,3666057.63022167,-2514.43676289373,-5800.31563187352,4350.20548555395,4.71817062061498,-5.58694423721425,-4.72745912918179,6764218.32490021,1.39084206306035,-0.471687949548724,-0.120873081133524,0.488731431518205,-2.6477014229986,-0.143174003973814,-2.20014316496754,-4.959075397506E-4,-0.0010053952441914,-2.197689673775E-4,394519.363466837,2.8832E-12,942.536769404808,4.71817062061498,-5.58694423721425,-4.72745912918179
5100.0,3251538.45391651,4458273.87861885,3915545.97451581,-3811571.38357522,3987300.80609548,3918362.46948143,-2225.77521553398,-6121.82385128161,4056.71140204838,4.90016252978761,-5.1258969356696,-5.05187676734069,6763394.70616898,1.3952173322993,-0.471044737613131,-0.120606100496062,0.500428477279614,-2.68244094845878,-0.0957412033506029,-2.16051765721548,-5.042953099211E-4,-0.0010010526588963,-2.20438191783E-4,395153.04862496,2.8748E-12,944.580851838798,4.90016252978761,-5.1258969356696,-5.05187676734069
5160.0,2878888.08464469,4502184.77425355,4149559.68374838,-3936198.56924139,3611052.1180728,4152487.6084684,-1926.87121133498,-6414.95326714849,3744.45064131176,5.05946041830257,-4.64135307281835,-5.35277982703091,6762579.87789335,1.39959260154969,-0.47018190773898,-0.120510403084322,0.511843603961616,-2.71565474332814,-0.0472531529819268,-2.12279001405696,-5.126467799753E-4,-9.966478551164E-4,-2.210375992329E-4,395763.031107665,2.8737E-12,947.086847686253,5.05946041830257,-4.64135307281835,-5.35277982703091
5220.0,2493284.8764233,4528674.26682723,4364324.39099147,-4042618.71679831,3218100.93097853,4367350.20217688,-1619.10788865135,-6678.36144968398,3414.87525624424,5.19536578707664,-4.13557359665244,-5.62881519594506,6761789.07301568,1.40396787080293,-0.469119413083291,-0.120581731464338,0.522964426545813,-2.74748328988333,0.0021749363440275,-2.08682099835562,-5.209585767486E-4,-9.9218289853E-4,-2.215669892917E-4,396336.165344739,2.881E-12,950.099422465851,5.19536578707664,-4.13557359665244,-5.62881519594506
5280.0,2096354.50971872,4537730.10528665,4558847.18952165,-4130342.74369738,2810267.34634489,4561956.89347305,-1303.90702501947,-6910.84429657572,3069.51492943461,5.30728943969728,-3.6109065186053,-5.87874910627072,6761037.28148077,1.40834314003902,-0.467877413663545,-0.120814477930597,0.533779847183589,-2.77806036084058,0.0524390007360571,-2.05247986794343,-5.292273853556E-4,-9.876599449085E-4,-2.220262063692E-4,396859.838427149,2.898E-12,953.665011453746,5.30728943969728,-3.6109065186053,-5.87874910627072
5340.0,1689774.22804399,4529405.55964701,4732229.03615427,-4198967.86836877,2389439.43851489,4735408.25338437,-982.722435795607,-7111.34090157817,2709.96968099607,5.39475280732668,-3.0697750271712,-6.10147137541515,6760338.99349725,1.41271840928941,-0.466476164078611,-0.121201741127708,0.54428011585728,-2.8075126125741,0.103445013684282,-2.01964499052453,-5.374499525328E-4,-9.830812374186E-4,-2.224151397176E-4,397322.207748664,2.926E-12,957.831686046635,5.39475280732668,-3.0697750271712,-6.10147137541515
5400.0,1275265.71273751,4503818.62984599,4883668.74523135,-4248179.33289132,1957564.53478577,4886902.77676212,-657.033314932454,-7278.93770362616,2337.9023491444,5.45738853942749,-2.51466542912749,-6.29599871640711,6759707.90827651,1.41709367853979,-0.464935906666779,-0.121735394667761,0.554456885054727,-2.83595958311209,0.155107934395969,-1.98820411263404,-5.456230898394E-4,-9.784491037585E-4,-2.227337233414E-4,397712.42119936,2.9664E-12,962.647661320593,5.45738853942749,-2.51466542912749,-6.29599871640711
5460.0,854587.788730202,4461151.03272325,5012466.52640073,-4277751.72551008,1516640.26829344,5015740.42143218,-328.337563534818,-7412.8719141644,1955.03090293978,5.49494032173796,-1.94811520607961,-6.46147701270886,6759156.60556751,1.42146894779017,-0.463276770751859,-0.122406166850438,0.564303257798301,-2.86351398894536,0.207350729817511,-1.95805440394016,-5.537436767091E-4,-9.737659531371E-4,-2.229819358187E-4,398020.816075578,3.0204E-12,968.157861959052,5.49494032173796,-1.94811520607961,-6.46147701270886
5520.0,429528.992720184,4401646.97963482,5118027.05799446,-4287549.90363677,1068705.44652205,5121325.68264091,1.85484885711589,-7512.53424048289,1563.12064961533,5.50726198886965,-1.37270155466701,-6.59718257241032,6758696.19074205,1.4258442170377,-0.46151867847907,-0.123203730496453,0.573813828421851,-2.89028224440298,0.260103477391592,-1.92910237366792,-5.618086633422E-4,-9.690342731042E-4,-2.231598000364E-4,398239.094080144,3.0894E-12,974.3981161202,5.50726198886965,-1.37270155466701,-6.59718257241032
5580.0,1900.03491724497,4325611.75737237,5199862.09143829,-4277529.52047063,615830.776587831,5203170.19822889,332.02845302022,-7577.47094491403,1163.97639333236,5.49431612048075,-0.791030758639155,-6.70252253563233,6758335.93800422,1.43021948627666,-0.459681257564749,-0.124116801783708,0.582984715535588,-2.91636515302852,0.31330254966827,-1.90126373746878,-5.698150734328E-4,-9.64256626243E-4,-2.232673828397E-4,398360.470997082,3.1746E-12,981.387112287038,5.49431612048075,-0.791030758639155,-6.70252253563233
5640.0,-426473.817653097,4233410.12552296,5257592.58512506,-4247737.16020732,160109.485492021,5260894.88296766,660.668756048993,-7607.38529717127,759.43458713055,5.45617240601982,-0.20572860741107,-6.77703475752932,6758082.96674765,1.4345947555299,-0.457783761080796,-0.125133246835552,0.591813586665408,-2.94185874289988,0.366889878035981,-1.87446330070474,-5.777600067216E-4,-9.594356467358E-4,-2.233047945986E-4,398379.800608881,3.2769E-12,989.117290321398,5.45617240601982,-0.20572860741107,-6.77703475752932
5700.0,-853760.412291425,4125464.54253277,5290950.36804643,-4198310.08762543,-296352.130162275,5294231.59235716,986.26862030258,-7602.13848364219,351.355497466036,5.39300609643842,0.380568146557695,-6.82038757634888,6757941.99000669,1.43897002478028,-0.455844994177798,-0.126240194668845,0.600299674105986,-2.9668552385277,0.420812290445597,-1.8486349178949,-5.856406413696E-4,-9.545740368111E-4,-2.232721886923E-4,398293.672997048,3.3968E-12,997.547059777872,5.39300609643842,0.380568146557695,-6.82038757634888
5760.0,-1278128.41390891,4002253.230973,5299779.3338928,-4129475.61754308,-751444.19415659,5303024.31659689,1307.33455904283,-7561.75002935019,-58.3846240486374,5.30509681174849,0.965219553299235,-6.83237986499999,6757915.1696133,1.44334529401923,-0.453883247439768,-0.127424154989231,0.608443781590831,-2.99144418262854,0.475020916588588,-1.82372158835082,-5.934542361465E-4,-9.496745630863E-4,-2.231697609147E-4,398100.487436817,3.5345E-12,1006.59741004623,5.30509681174849,0.965219553299235,-6.83237986499999
5820.0,-1697755.02196325,3864308.09017683,5284036.16534854,-4041550.10839407,-1203062.75224694,5287229.90445987,1622.39297513798,-7486.39776580806,-467.901387961638,5.19282784519694,1.54558992887569,-6.81294164658391,6758002.10030014,1.44772056326676,-0.451916236380167,-0.128671139246989,0.616248281460455,-3.01571374405647,0.529470653190431,-1.79967575583137,-6.011981324285E-4,-9.447400528145E-4,-2.229977488031E-4,397800.499695479,3.6895E-12,1016.15525425298,5.19282784519694,1.54558992887569,-6.81294164658391
5880.0,-2110833.68263301,3712212.46148208,5243790.58634159,-3934937.58243958,-1649119.25831144,5246918.3148298,1929.99637246966,-7376.41734562042,-875.310170706159,5.05668592733333,2.11905559865633,-6.76213535274971,6758199.92678734,1.45209583251429,-0.449961046456074,-0.129966783358006,0.623717102101177,-3.0397522767874,0.584119681599591,-1.7764598975218,-6.088697560016E-4,-9.397733900485E-4,-2.227564308928E-4,397395.84282309,3.8609E-12,1026.08358193195,5.05668592733333,2.11905559865633,-6.76213535274971
5940.0,-2515581.77558617,3546598.74947215,5179225.13776469,-3810127.97353084,-2087550.01701466,5182272.39141791,2228.72956194484,-7232.30127017622,-1278.73410977831,4.89726123258262,2.68301346379855,-6.68015756878731,6758503.57757518,1.45647110176467,-0.448034082910154,-0.131296470559395,0.630855705529515,-3.06365023402958,0.638929029439031,-1.75404751877673,-6.164666186681E-4,-9.34777511733E-4,-2.224461259018E-4,396890.519725225,4.0474E-12,1036.23575687699,4.89726123258262,2.68301346379855,-6.68015756878731
6000.0,-2910248.25292042,3368145.90090299,5090634.47049687,-3667695.00250566,-2516325.55203896,5093587.15448727,2517.21586660398,-7054.69736894624,-1676.31220958192,4.71524727686762,3.23489075391557,-6.56734090389778,6758906.08114901,1.46084637101505,-0.446151024754019,-0.132645453003856,0.63767105510585,-3.08750259917548,0.693862167488023,-1.73242472199575,-6.239863196511E-4,-9.297554037361E-4,-2.220671918471E-4,396290.365210559,4.2476E-12,1046.46976936666,4.71524727686762,3.23489075391557,-6.56734090389778
6060.0,-3293121.20272159,3177576.74318848,4978424.14913968,-3508293.68070933,-2933459.86474749,4981268.60299809,2794.12330726536,-6844.40665514505,-2066.2075513407,4.51144030560697,3.77215605063344,-6.42415550586071,6759398.91861322,1.46522164025686,-0.444326782275487,-0.133998970883801,0.644171573471257,-3.11141208469299,0.748884631864832,-1.71159260340148,-6.314265467982E-4,-9.247100968323E-4,-2.216200250977E-4,395602.97505826,4.4597E-12,1056.65881828645,4.51144030560697,3.77215605063344,-6.42415550586071
6120.0,-3662535.30562122,2975655.18550634,4843108.96116037,-3332657.44394931,-3337019.54366002,4845832.0218663,3058.17072712951,-6602.38048659001,-2446.61557101422,4.28673782188937,4.29233136460465,-6.25120973977168,6759972.36412042,1.46959690949868,-0.442575457569058,-0.135342368088783,0.650367090909235,-3.13549349447838,0.80396365951993,-1.69157087321005,-6.387850775807E-4,-9.196446626489E-4,-2.211050593674E-4,394837.600109975,4.6823E-12,1066.69663068298,4.28673782188937,4.29233136460465,-6.25120973977168
6180.0,-4016879.14938559,2763183.28750919,4685310.7291061,-3141594.92224734,-3725132.6814049,4687899.79200221,3308.13379650096,-6329.71698143729,-2815.77234338791,4.04213604130966,4.79300480448324,-6.04924967024233,6760615.77155719,1.47397217874906,-0.440910307729339,-0.136661203608248,0.656268784436932,3.12330541995601,0.859067821231963,-1.67240333493546,-6.460597798898E-4,-9.145622095856E-4,-2.205227646516E-4,394005.004490064,4.9136E-12,1076.49801330678,4.04213604130966,4.79300480448324,-6.04924967024233
6240.0,-4354602.3642482,2540998.20350417,4505755.62779486,-2935986.35455972,-4095997.55371567,4508198.70504027,3542.85083140073,-6027.65667050633,-3171.96279471288,3.77872624473388,5.2718432560325,-5.81915719095874,6761317.78129591,1.47834744799087,-0.439343710485285,-0.137941358068329,0.661889108028895,3.09845370830081,0.914166629256824,-1.65416627898734,-6.532486126295E-4,-9.094658787203E-4,-2.198736461115E-4,393117.288680375,5.1519E-12,1085.99628293097,3.77872624473388,5.2718432560325,-5.81915719095874
6300.0,-4674222.54155029,2309969.01283999,4305271.01318521,-2716779.66154972,-4447891.0149943,4307556.78947049,3761.22836370773,-5697.57740259034,-3513.52876386355,3.49769018153162,5.72660452279479,-5.56194687628243,6762066.44108655,1.4827227172384,-0.437887132166628,-0.139169134918219,0.667241714471476,3.07293536536636,0.969230083622776,-1.63698160460735,-6.603496261064E-4,-9.043588397117E-4,-2.191582429105E-4,392187.680096016,5.3954E-12,1095.13933921395,3.49769018153162,5.72660452279479,-5.56194687628243
6360.0,-4974331.90070674,2070993.44787607,4084781.77416657,-2484986.19287454,-4779176.56684888,4086899.65942439,3962.2464138285,-5340.98854748506,-3838.87684256517,3.20029480374387,6.15514855202086,-5.27876182150939,6762849.25589842,1.48709798648878,-0.436551097969236,-0.140331355852119,0.672341369441594,3.04648647634582,1.02422809578181,-1.62103791644223,-6.673609622207E-4,-8.992442867083E-4,-2.183771270071E-4,391230.295726982,5.6421E-12,1103.88566710681,3.20029480374387,6.15514855202086,-5.27876182150939
6420.0,-5253603.67135451,1824994.53310819,3845306.22211995,-2241676.16784612,-5088312.05922818,3847246.40097856,4144.96343543535,-4959.52455657829,-4146.48594480544,2.88788665275694,6.55544762656792,-4.97086883891629,6763653.19824556,1.49147325573631,-0.435345164520015,-0.141415450074293,0.677203858501838,3.01874488093453,1.07912967768679,-1.60662568200287,-6.742808544583E-4,-8.941254342763E-4,-2.175309019083E-4,390259.883026768,5.8897E-12,1112.20095660273,2.88788665275694,6.55544762656792,-4.97086883891629
6480.0,-5510798.16135226,1572917.14791049,3587951.53542208,-1987973.82959217,-5373856.98741792,3589705.0131631,4308.52091995226,-4554.93793989902,-4434.91457769048,2.56188616666807,6.92559566794038,-4.63965336106041,6764464.71972256,1.49584852498669,-0.434277894743277,-0.142409537005674,0.681845887805583,2.98918845437406,1.13390167727764,-1.59419850500921,-6.811076276883E-4,-8.890055133552E-4,-2.166202013884E-4,389291.546304744,6.1359E-12,1120.05556437437,2.56188616666807,6.92559566794038,-4.63965336106041
6540.0,-5744768.48370423,1315724.52427864,3313908.77715663,-1725052.33316816,-5634479.35130341,3315467.42195305,4452.1476610013,-4129.09170345636,-4702.80780388345,2.22378204837923,7.26381699047771,-4.28661428059813,6765269.8043864,1.50022379422564,-0.433356835014033,-0.143302502015616,0.686284979409033,2.95702180606952,1.18850659897835,-1.58448601748291,-6.878396977708E-4,-8.838877672504E-4,-2.156456881767E-4,388340.466283892,6.378E-12,1127.42277327563,2.22378204837923,7.26381699047771,-4.28661428059813
6600.0,-5954465.91654246,1054394.69063461,3024447.50458201,-1454128.38790234,-5868962.04525852,3025804.0858073,4575.16368260062,-3683.95126747098,-4948.90389405779,1.8751256719663,7.56847491759635,-3.91335876728877,6766054.095608,1.50459906347603,-0.4325884945697,-0.144084064766436,0.690539362185808,2.92095291713946,1.24289845077063,-1.57871686580825,-6.944755709767E-4,-8.787754476741E-4,-2.146080526201E-4,387421.620225512,6.6131E-12,1134.27769079083,1.8751256719663,7.56847491759635,-3.91335876728877
6660.0,-6138944.87081073,789916.869718698,2720909.98904811,-1176456.67416273,-6076208.7475378,2722058.21146141,4676.98382892074,-3221.57586285622,-5172.04066421122,1.51752535655359,7.83808060152925,-3.52159690563949,6766803.11240024,1.50897433272355,-0.431978327156871,-0.144744839801796,0.694627859424561,2.87871141906013,1.29701392337165,-1.57910008546939,-7.010138432273E-4,-8.736718108417E-4,-2.135080113236E-4,386549.50922428,6.8381E-12,1140.59660349321,1.51752535655359,7.83808060152925,-3.52159690563949
6720.0,-6297367.43840182,523287.840827212,2404705.06574403,-893324.055240567,-6255249.27737333,2405639.59937166,4757.12100003543,-2744.10938791622,-5371.16147848168,1.15264024485344,8.0713022027598,-3.11313584856642,6767502.55266983,1.51334960196536,-0.431530714925919,-0.145276389101307,0.698569774249886,2.82588015433491,1.3507510602185,-1.58999322071648,-7.074531991576E-4,-8.685801136319E-4,-2.123463057746E-4,385737.898157116,7.05E-12,1146.3566208025,1.15264024485344,8.0713022027598,-3.11313584856642
6780.0,-6429007.49246729,255508.274817793,2077301.63441818,-606043.606470692,-6405244.38675677,2078018.13996753,4815.18900154926,-2253.77070507168,-5545.32087757481,0.782173511447737,8.26697434069574,-2.68987312434075,6768138.66343503,1.51772487121575,-0.431248954655145,-0.145671266461357,0.702384774029808,2.75256597654572,1.40390806482478,-1.62123122931301,-7.137924110093E-4,-8.635036098208E-4,-2.111237009535E-4,384999.572575648,7.2457E-12,1151.5354653551,0.782173511447737,8.26697434069574,-2.68987312434075
6840.0,-6533254.30991918,-12420.9474863032,1740221.83524475,-315948.486102672,-6525489.95298221,1740716.98490432,4850.90496115573,-1752.84336997961,-5693.68977199665,0.407864693441183,8.42410749298923,-2.25378877894964,6768698.64537518,1.52210014046327,-0.431135246481282,-0.14592305373216,0.706092774910602,2.63141145117781,1.45595815579167,-1.70011450881571,-7.200303373602E-4,-8.584455463935E-4,-2.098409839375E-4,384346.115789089,7.422E-12,1156.11123648468,0.407864693441183,8.42410749298923,-2.25378877894964
