time,gePosition_m_X,gePosition_m_Y,gePosition_m_Z,eiPosition_m_X,eiPosition_m_Y,eiPosition_m_Z,eiVelocity_m_s_X,eiVelocity_m_s_Y,eiVelocity_m_s_Z,eiAccel_m_s2_X,eiAccel_m_s2_Y,eiAccel_m_s2_Z,semiMajorAxis_m,gast_rad,eulerAngle_rad_Roll,eulerAngle_rad_Pitch,eulerAngle_rad_Yaw,eulerAngleWrtEi_rad_Roll,eulerAngleWrtEi_rad_Pitch,eulerAngleWrtEi_rad_Yaw,bodyAngularRateWrtEi_rad_s_Roll,bodyAngularRateWrtEi_rad_s_Pitch,bodyAngularRateWrtEi_rad_s_Yaw,altitudeMsl_m,airDensity_kg_m3,ambientTemperature_dgK,eiGravitation_m_s2_X,eiGravitation_m_s2_Y,eiGravitation_m_s2_Z
0.0,-1428622.3120664244,4163200.465251461,5136049.672040268,-4292653.410000001,955168.4699999995,5139356.569999999,109.64966299999837,-7527.726490000003,1484.521489,5.51382748438169,-1.2270655804832085,-6.620515270411009,6758662.11722885,1.0233194459853856,1.1333718620180008E-16,-0.20245819323134245,-1.0625361206418758E-16,-2.4715939053549034,-0.03718896447613391,-1.4289931348885438,-2.541098841762901E-21,-0.0011344542745508244,6.640738306473715E-19,398252.76383814117,3.1125051777514152E-12,976.2183377126014,5.51382748438169,-1.2270655804832085,-6.620515270411009
60.0,-1789722.837989031,3920281.5169423386,5213135.361070924,-4276158.454588831,501645.01990874327,5216446.726172567,439.970418074225,-7583.896108258684,1084.15697083238,5.492652501706238,-0.6445356352709951,-6.7198490541629665,6758338.673935618,1.027694715234372,-5.610283743233137E-6,-0.20245701349239076,-1.9356720302995319E-4,-2.4720592963923615,0.01612042366582495,-1.386661179676411,-7.049068602884885E-7,-0.001134477987848552,-3.302852372536554E-6,398352.0175080967,3.201814446975025E-12,983.3981473844545,5.492652501706238,-0.6445356352709951,-6.7198490541629665
120.0,-2144776.235729802,3662449.4593292326,5266054.17724614,-4239897.512682023,45802.14095133481,5269354.703094188,768.2638317053002,-7605.010810023902,678.7580482665143,5.446274530800973,-0.05900839427904058,-6.7882649341878984,6758119.2263558125,1.0320699844833425,-3.81474301943057E-5,-0.20245304539745165,-5.856756356269579E-4,-2.4703079486899955,0.06928029515576355,-1.3441021824371808,-1.5682193694862947E-6,-0.001134495908219746,-6.615080444255327E-6,398348.2340639226,3.3083940980738455E-12,991.3100389572987,5.446274530800973,-0.05900839427904058,-6.7882649341878984
180.0,-2492273.2760021556,3390831.049794515,5294559.8688767785,-4184037.48363461,-410253.0628208257,5297834.298619792,1093.0233198474807,-7590.970090676934,270.18995838300776,5.374898073355885,0.5268698838563168,-6.825446313389148,6758006.349990415,1.0364452537322815,-1.2116752870840198E-4,-0.202445667678134,-0.0011709974723282614,-2.4663158457456267,0.12219457297363527,-1.3010762842737915,-2.5897433370929423E-6,-0.0011345075693188359,-9.935939052550294E-6,398238.25242090237,3.4326986190697904E-12,999.9032333158643,5.374898073355885,0.5268698838563168,-6.825446313389148
240.0,-2830728.8760781684,3106603.0030799285,5298518.518122519,-4108835.2288750117,-864412.2254639583,5301751.714473184,1412.7578132332326,-7541.8324527217665,-139.6670846761099,5.27883587047181,1.1104468674141978,-6.831211033305628,6758000.761050676,1.0408205229812044,-2.7813083392595506E-4,-0.20243430875350843,-0.0019426053754656484,-2.4600313118618438,0.17476349162083676,-1.257339171451772,-3.769247684377168E-6,-0.0011345124437284078,-1.326467640190879E-5,398020.7889806847,3.5746805727398564E-12,1009.0897568103994,5.27883587047181,1.1104468674141978,-6.831211033305628
300.0,-3158688.3845749283,2810986.960523698,5277909.196458037,-4014636.4459667797,-1314575.2643800937,5281086.211200719,1725.9982612991162,-7457.815460985513,-548.9260391029474,5.158509117388445,1.6890746627864686,-6.805514069788914,6758101.553585944,1.0451957922300796,-5.32287753978626E-4,-0.2024184695489484,-0.0028920062848683337,-2.451374639570682,0.2268815292002877,-1.2126385786794334,-5.106463907630985E-6,-0.0011345099435635,-1.660053348917089E-5,397696.4935871621,3.733772374713004E-12,1018.7494497862647,5.158509117388445,1.6890746627864686,-6.805514069788914
360.0,-3474733.797485984,2505244.311362421,5232824.126972013,-3901874.152474938,-1758659.9092496603,5235930.269653286,2031.304126868444,-7339.295133072309,-955.7013280158802,5.014446889165958,2.2601214051488823,-6.748449526480634,6758306.404757201,1.049571061478955,-9.065655349780468E-4,-0.20239774270132455,-0.004009183636554725,-2.440237430158893,0.278435208533253,-1.1667109306417667,-6.601085475735118E-6,-0.001134499421152991,-1.9942743537003316E-5,397267.9671189618,3.908951656027632E-12,1028.7413977462222,5.014446889165958,2.2601214051488823,-6.748449526480634
420.0,-3777489.8776338813,2190670.8843661174,5163468.346451568,-3771066.7817690107,-2194611.1730725295,5166489.25194921,2327.2698168073102,-7186.804612981976,-1358.117219616265,4.847284561695979,2.8209834676396284,-6.660251506922157,6758611.70771438,1.0539463307277828,-0.0014234562130337632,-0.20237182769816497,-0.005282647928309774,-2.4264817776228673,0.32930071575534214,-1.1192781943571282,-8.252767163891883E-6,-0.0011344801697988547,-2.329053143748681E-5,396739.7377602476,4.098866833156677E-12,1038.9186241656143,4.847284561695979,2.8209834676396284,-6.660251506922157
480.0,-4065630.14887005,1868591.5311626587,5070158.864165022,-3622815.896449608,-2620410.7215509815,5073080.558833829,2612.530987155016,-7001.03210881944,-1754.3162206059017,4.657761224135906,3.3690976774141705,-6.541293675330622,6759012.612987243,1.0583215999766105,-0.002104906419353552,-0.20234054169861176,-0.0066994952570204646,-2.4099394927543343,0.3793412918773781,-1.0700450871338973,-1.0061124325700758E-5,-0.0011344514246144544,-2.6643113207726744E-5,396118.1949816134,4.301976547976237E-12,1049.141793050294,4.657761224135906,3.3690976774141705,-6.541293675330622
540.0,-4337882.737242479,1540354.624629806,4953323.318896463,-3457803.5286509944,-3034086.097013441,4956132.284994689,2885.7706673416324,-6782.818112232452,-2142.467405279676,4.446716283928432,3.9019529570435347,-6.392087586865273,6759502.984326804,1.0626968692254064,-0.0029722096156589834,-0.20230382589878138,-0.008245473169941175,-2.390411662844495,0.428404365851138,-1.018696889845236,-1.2025732105981924E-5,-0.0011344123634425183,-2.9999695459422932E-5,395411.4825049238,4.516657986021204E-12,1059.2886611896533,4.446716283928432,3.9019529570435347,-6.392087586865273
600.0,-4593036.033587599,1207326.4962133649,4813498.140137489,-3276789.1593391798,-3433719.7550874464,4816181.378245576,3145.725164787963,-6533.1519469293125,-2520.7746149222658,4.2150856041053,4.4171010060274885,-6.213280101150386,6760075.297895511,1.0670721384741706,-0.004045901308814524,-0.20226174735020722,-0.009905052972303846,-2.3676689847490815,0.4763184212478097,-0.9648982634153678,-1.414612459698505E-5,-0.0011343621078542846,-3.335947488433026E-5,394629.35364709306,4.741260164726362E-12,1069.2581942120842,4.2150856041053,4.4171010060274885,-6.213280101150386
660.0,-4829944.154818926,870885.8349073495,4651326.222604392,-3080606.3503966345,-3817457.875694317,4653871.311756954,3391.1897331260493,-6253.167708053715,-2887.484485477349,3.963897545285031,4.9121659368744215,-6.005650322002601,6760720.529613994,1.0714474077229348,-0.005345657750695945,-0.2022144961202595,-0.011661507543459744,-2.3414535056237398,0.5228896292523043,-0.9082936684165336,-1.6421793940852895E-5,-0.0011342997242302917,-3.672163775756346E-5,393782.99411446805,4.974103289311259E-12,1078.9702037271713,3.963897545285031,4.9121659368744215,-6.005650322002601
720.0,-5047532.183667895,532418.0683597581,4467554.124954571,-2870159.043654607,-4183518.9136060243,4469949.280216284,3621.0240077365174,-5944.139649791017,-3240.8942884983057,3.69426920423485,5.384853092089658,-5.770106498216768,6761428.081054735,1.075822676973096,-0.00689019858478091,-0.2021623776289942,-0.013496993742030035,-2.311482662738315,0.5678983472287795,-0.8485102496251709,-1.8852189381439027E-5,-0.0011342242249244607,-4.0085359460701E-5,392884.81831960566,5.213441346960628E-12,1088.36227076369,3.69426920423485,5.384853092089658,-5.770106498216768
780.0,-5244801.168014278,193309.74381947116,4263028.803760899,-2646417.5403758422,-4530201.856683683,4265262.930986241,3834.157225098327,-5607.477057429616,-3579.359592909685,3.4074029728075232,5.832957500809192,-5.50768318238073,6762185.788680396,1.0801979462217968,-0.008697193857445523,-0.2021057999563684,-0.015392638639704182,-2.2774568236568653,0.6110956857903639,-0.785164361492129,-2.143671626881366E-5,-0.0011341345695120662,-4.3449804026641554E-5,391948.24554441095,5.457409282983427E-12,1097.385657949629,3.4074029728075232,5.832957500809192,-5.50768318238073
840.0,-5420832.860769338,-145057.07547076908,4038693.892939788,-2410414.173600276,-4855894.161187433,4040756.640465082,4029.5932437552374,-5244.718609127845,-3901.3017665048724,3.104583335857793,6.254372521531113,-5.21953872154323,6762980.046143893,1.0845732154704657,-0.010783175785064124,-0.2020452559085475,-0.01732862906252086,-2.239071852012533,0.6522004999653718,-0.7178732380708669,-2.417473502001461E-5,-0.0011340296661230072,-4.681412370818589E-5,390987.4618557081,5.703972417877574E-12,1106.001368463489,3.104583335857793,6.254372521531113,-5.21953872154323
900.0,-5574794.179662848,-481310.38418046833,3795585.537711691,-2163238.684962196,-5159079.332900152,3797467.3447357523,4206.415374075936,-4857.526201376343,-4205.215333196348,2.787173643696059,6.64709913977644,-4.906952911903284,6763796.048506482,1.0889484847191346,-0.013163455649629008,-0.20198129970526943,-0.0192843042076338,-2.1960384656091896,0.6908973697255794,-0.6462735555571122,-2.7065560039844733E-5,-0.0011339083728610687,-5.017745857229368E-5,390017.1728107519,5.9508895042707254E-12,1114.1769212612153,2.787173643696059,6.64709913977644,-4.906952911903284
960.0,-5705941.3636042485,-814093.7641723447,3534827.7916371417,-1906033.3177113687,-5438344.120517345,3536519.9330546856,4363.791004350995,-4447.678189921922,-4489.675185811948,2.4566124843342325,7.009256174368802,-4.571324457787587,6764618.1453882335,1.0933237539677718,-0.01585204619470064,-0.20191451829428048,-0.021238251376510874,-2.1481101246443552,0.7268363965059521,-0.570048609286927,-3.010845860572329E-5,-0.001133769499310478,-5.3538936121975884E-5,389052.3509504317,6.1956952811889565E-12,1121.8839886011963,2.4566124843342325,7.009256174368802,-4.571324457787587
1020.0,-5813623.799444209,-1142071.8524604535,3257627.586005358,-1639987.639115453,-5692385.284570032,3259122.213466185,4500.975987459326,-4017.0619911554913,-4753.343629299308,2.1144092707502606,7.339091358751142,-4.214167782796982,6765430.271954475,1.0976990232163775,-0.018861589904217813,-0.20184549751782693,-0.0231684050731158,-2.09512058408835,0.7596359203570676,-0.48896522548725607,-3.330264972084668E-5,-0.0011336118081304552,-5.689767094776573E-5,388107.9811610964,6.435704601555674E-12,1129.0968113161337,2.1144092707502606,7.339091358751142,-4.214167782796982
1080.0,-5897287.490717855,-1463935.7281329974,2965269.283174259,-1366333.1082194548,-5920015.902083136,2966559.462152163,4617.318731454904,-3567.6659995639943,-4994.977202250401,1.7621387464327174,7.634992985898828,-3.8371087661393126,6766216.415816044,1.1020742924649671,-0.022203293546684415,-0.20177478361800633,-0.025052149815944176,-2.037030670305896,0.7888894703336407,-0.40291995598099883,-3.664730294011757E-5,-0.0011334340167386992,-6.025276441070258E-5,387198.8064127831,6.668037944452575E-12,1135.7912178686652,1.7621387464327174,7.634992985898828,-3.8371087661393126
1140.0,-5956478.13902998,-1778408.1951913538,2659108.829287635,-1086337.4087847515,-6120171.165201713,2660188.5719568077,4712.263924082779,-3101.5708019604626,-5213.433202408929,1.4014342691698547,7.8955016095525945,-3.441879103280806,6766961.076025823,1.1064495617135248,-0.025886869379406752,-0.20170284083660706,-0.02686642698408048,-1.9739809588076325,0.8141782427666634,-0.31199122237698246,-4.014153717352721E-5,-0.0011332347990845191,-6.360330435874117E-5,386339.0762640059,6.889666744766018E-12,1141.9440624756817,1.4014342691698547,7.8955016095525945,-3.441879103280806
1200.0,-5990843.8094919855,-2084248.9352872076,2340567.526689781,-801298.5715736058,-6291913.631834935,2341431.820423737,4785.35581822352,-2620.939702437647,-5407.675829130959,1.0339799123499653,8.119321223748518,-3.030309173878041,6767649.67687921,1.110824830962067,-0.029920483385987042,-0.20163000610728207,-0.028587845856694157,-1.9063428938437597,0.8350899448856627,-0.21648994137975475,-4.3784419471897355E-5,-0.0011330127875123163,-6.6948364878482E-5,385542.3008459492,7.097475907117161E-12,1147.5329183101085,1.0339799123499653,8.119321223748518,-3.030309173878041
1260.0,-6000137.154009479,-2380259.5023472356,2011125.4516705256,-512538.9143558228,-6434437.888231485,2011770.2829991188,4836.241012472237,-2128.008605525737,-5576.781854473381,0.6615015769921884,8.30532940034546,-2.604319486844769,6768268.91179652,1.115200100210593,-0.034310710891479294,-0.20155644202878134,-0.03019279874859664,-1.8347564423277372,0.8512437524473696,-0.11699671566363395,-4.7574963800073817E-5,-0.001132766574715915,-7.028700608407667E-5,384821.01367297414,7.28833967660787E-12,1152.5358818113234,0.6615015769921884,8.30532940034546,-2.604319486844769
1320.0,-5984217.169865094,-2665288.130375961,1672314.5482501965,-221398.83154706864,-6547074.587099228,1672736.9221337526,4864.670675802811,-1625.0753320198933,-5719.945743339947,0.28575740070053274,8.45258601695631,-2.1659109138659867,6768807.007640697,1.1195753694590873,-0.03906249984245972,-0.20148208941793372,-0.03165757981722026,-1.760139752981449,0.8623194042315315,-0.014371054008784676,-5.151212980288934E-5,-0.0011324947157839095,-7.361827394514277E-5,384186.54735710507,7.459204856833506E-12,1156.9313160103222,0.28575740070053274,8.45258601695631,-2.1659109138659867
1380.0,-5943050.475396082,-2938234.3263475792,1325711.433053746,70769.53208555789,-6629293.82990405,1325909.387359001,4870.502183349147,-1114.4884582996747,-5836.484158222434,-0.09147223231555024,8.560340398870906,-1.7171539902859814,6769253.913717928,1.123950638707566,-0.04417914196189372,-0.20140662077527346,-0.03295850678958331,-1.6836583329895896,0.8680864723402063,0.09027987352938614,-5.5594821569395363E-5,-0.0011321957303366327,-7.694120015547216E-5,383648.8269261572,7.607189101677073E-12,1160.6980726874767,-0.09147223231555024,8.560340398870906,-1.7171539902859814
1440.0,-5876712.089036477,-3198053.221765242,972929.9496813904,362608.687764411,-6680707.867634808,972902.564770845,4853.700147427622,-598.6357752064366,-5925.839800906887,-0.46839482367926294,8.628036868640608,-1.2601775541907752,6769601.42938919,1.1283259079560126,-0.04966225189544138,-0.20132939596707092,-0.03407204457076805,-1.6066497274965046,0.868428418293915,0.19567696606816562,-5.982188640103175E-5,-0.0011318681047543617,-8.025480204426597E-5,383216.18575076386,7.729697094520373E-12,1163.81650405801,-0.46839482367926294,8.628036868640608,-1.2601775541907752
1500.0,-5785385.702179703,-3443759.658780258,615613.5133850595,652762.2526629613,-6701073.100027625,615360.9167590059,4814.336840836003,-79.93245938110071,-5987.584558092896,-0.8432158653451499,8.655318802072209,-0.7971569324864791,6769843.288149319,1.1327011772044275,-0.05551175436205379,-0.20124942134809834,-0.03497492950136322,-1.5305129958301156,0.863356113268872,0.30048011965268345,-6.419211358961567E-5,-0.0011315102944968168,-8.355808253158966E-5,382895.2089876738,7.824528307947655E-12,1166.2692693110876,-0.8432158653451499,8.655318802072209,-0.7971569324864791
1560.0,-5669363.4400175465,-3674431.9893075954,255427.28851424193,939881.4071357083,-6690291.358608903,254950.65447243964,4752.592016924561,439.19095708001515,-6021.42192798342,-1.2141488358163397,8.642031313416954,-0.3303018022901571,6769975.214230152,1.1370764464528427,-0.06172587921877348,-0.20116531345030012,-0.03564429295540363,-1.4565848510564992,0.8530075085810214,0.40341249099048543,-6.870423321115365E-5,-0.0011311207265133868,-8.685003012965487E-5,382690.60891124,7.88996964422764E-12,1168.0419309491956,-1.2141488358163397,8.642031313416954,-0.3303018022901571
1620.0,-5529045.1078035245,-3889215.5680451025,-105949.75761581246,1222631.3232342105,-6648410.463865493,-106648.21329814848,4668.752133642005,956.3007391164443,-6027.188710538048,-1.5794250719610983,8.58822264893476,0.13815620758118652,6769994.9618150145,1.1414517157012258,-0.06830116425307498,-0.20107526825627875,-0.03605778301404,-1.3860294783389648,0.8376335257590589,0.5033710867570542,-7.335691494164512E-5,-0.0011306978017434951,-9.012961899148203E-5,382605.13561930775,7.924868687978304E-12,1169.1234193062924,-1.5794250719610983,8.58822264893476,0.13815620758118652
1680.0,-5364936.923099094,-4087325.9225761686,-466832.879838314,1499697.5289681656,-6575624.051526192,-467749.9101980799,4563.20898883796,1468.9721463221997,-6004.855947039536,-1.937303522510085,8.494144291497152,0.6059761335517727,6769902.339239837,1.1458269849495775,-0.07523246543742514,-0.2009770369803741,-0.03619368311063645,-1.319763769820403,0.8175735940680819,0.5995019456897288,-7.814876690119967E-5,-0.0011302398977062703,-9.339580900841958E-5,382639.52549560164,7.928683612436655E-12,1169.5064022329186,-1.937303522510085,8.494144291497152,0.6059761335517727
1740.0,-5177649.737744799,-4268051.585858144,-825539.6138562494,1769792.1732023929,-6472270.667596569,-826670.9559440986,4436.4577741270805,1974.8015966541905,-5954.529097547392,-2.286080370481829,8.360249710929642,1.0709204499521159,6769699.213664897,1.1502022541979289,-0.08251297432883727,-0.20086790919760272,-0.03603102676823276,-1.2584270854582613,0.7932262108674792,0.6912308089147328,-8.307833453287465E-5,-0.001129745371178121,-9.664754595789299E-5,382792.48863427684,7.90150707112714E-12,1169.187583855932,-2.286080370481829,8.360249710929642,1.0709204499521159
1800.0,-4967896.756757123,-4430756.57851722,-1180397.8226504952,2031660.1565661205,-6338832.136675171,-1181738.2175699535,4289.094556641086,2471.418712213606,-5876.447450029764,-2.624098467409379,8.187191668082846,1.530767882979053,6769389.487645262,1.154577523446217,-0.09013424227045098,-0.20074470407944547,-0.03554970781707963,-1.2023913748140231,0.7650199035359799,0.7782534483659987,-8.814409952277346E-5,-0.001129212560956912,-9.988376170267421E-5,383060.7353287108,7.844063086747205E-12,1168.167949532665,-2.624098467409379,8.187191668082846,1.530767882979053
1860.0,-4736490.765102997,-4574882.530652143,-1529753.6845231,2284085.094442874,-6175931.21327701,-1531296.902203734,4121.813202886208,2956.4981581245847,-5770.98276358186,-2.949756474979835,7.975818008289645,1.983326094657732,6768979.038722934,1.1589527926945367,-0.09808621105853332,-0.20060377040929342,-0.034730585719305526,-1.1517991043654334,0.7333884990751024,0.8604982136109712,-9.334447876801457E-5,-0.0011286397907108526,-1.0310337444284818E-4,383439.0407713219,7.757677757086643E-12,1166.4529698127965,-2.949756474979835,7.975818008289645,1.983326094657732
1920.0,-4484340.877193129,-4699950.435407024,-1871979.5772023161,2525895.0791718005,-5984328.531304059,-1873718.4457773669,3935.4017661953435,3427.7711836836415,-5638.637159654282,-3.2615175802675322,7.727165952511015,2.4264440295361673,6768475.616272672,1.163328061942793,-0.10635724976920856,-0.20044099594279918,-0.03355558581561708,-1.1066144703153056,0.69875260953399,0.9380753220280313,-9.867782339924313E-5,-0.001128025371910028,-1.0630528902155463E-4,383920.34632760787,7.64422632070683E-12,1164.0527732995263,-3.2615175802675322,7.727165952511015,2.4264440295361673
1980.0,-4212448.827737395,-4805562.029370653,-2205481.8136490006,2755968.210126123,-5764918.872185911,-2207408.253282693,3730.738367459078,3883.036778176519,-5480.040287810497,-3.557917650447378,7.442454985731432,2.858023718368037,6767888.695040769,1.1677033311910492,-0.11493419750240927,-0.20025182654143553,-0.03200779440106517,-1.0666760399706068,0.6615075241447885,1.011224754214142,-1.0414241786440697E-4,-0.0011273676068379852,-1.0948839728543218E-4,384495.8951124495,7.506060585179436E-12,1160.9822963044517,-3.557917650447378,7.442454985731432,2.858023718368037
2040.0,-3921904.8260002877,-4891400.797815143,-2528708.1871446567,2973237.862344163,-5518726.77723885,-2530813.2481306028,3508.786606155452,4320.172362213242,-5295.945803838367,-3.837572720385417,7.123078520173927,3.276031373391751,6767229.290221983,1.1720786004407024,-0.12380241186223015,-0.20003129534150219,-0.030071548533123865,-1.031743419568909,0.622016628956666,1.0802701616736838,-1.0973647908054696E-4,-0.0011266647916807339,-1.1265157850058733E-4,385155.3990389529,7.345921788403106E-12,1157.2614157857272,-3.837572720385417,7.123078520173927,3.276031373391751
2100.0,-3613882.998260865,-4957232.60572913,-2840155.2857705425,3176697.666776322,-5246901.534188049,-2842429.1907004965,3270.5905438379764,4737.1439475150855,-5087.227206074077,-4.099185749631489,6.770594550936088,3.6785076752865855,6766509.74276799,1.176453869688895,-0.13294582308253303,-0.19977406201878048,-0.02773252037199132,-1.0015346691897078,0.5806090365814109,1.145582070985465,-1.1545815566030553E-4,-0.0011259152196897828,-1.1579369982475348E-4,385887.23397194094,7.16684455970384E-12,1152.9150708229697,-4.099185749631489,6.770594550936088,3.6785076752865855
2160.0,-3289636.445563778,-5002905.958207071,-3138375.539273909,3365406.1778294696,-4950711.571429677,-3140807.729055955,3017.269304752746,5132.01571117729,-4854.873079705796,-4.341552626930922,6.3867155153514865,4.063577219748275,6765743.484791208,1.180829138937088,-0.14234699376192048,-0.1994744620013759,-0.024977795691419558,-0.9757540496197552,0.5375801051454844,1.2075508041420135,-1.2130552721989913E-4,-0.0011251171844158384,-1.1891361683615348E-4,386678.65906948445,6.97205774527818E-12,1147.9733761844086,-4.341552626930922,6.3867155153514865,4.063577219748275
2220.0,-2950491.94514874,-5028351.896380585,-3421983.9643277065,3538491.2065909603,-4631538.296489165,-3424563.1478146897,2750.011338698478,5502.958941969899,-4599.981799169715,-4.563567425796022,5.973297525197215,4.42945713945398,6764944.793267903,1.1852044081852489,-0.15198718424680616,-0.199126565264301,-0.021795945980139255,-0.9541112435923883,0.49319374248527525,1.2665679767285074,-1.27276603775158E-4,-0.001124268983008961,-1.2201017411943106E-4,387516.0558384051,6.7648874825400155E-12,1142.4717283985779,-4.563567425796022,5.973297525197215,4.42945713945398
2280.0,-2597844.32528594,-5033583.537003284,-3689664.5771493646,3695153.800809926,-4290869.417403185,-3692378.7841221886,2470.0683908271717,5848.2603247576035,-4323.755737188647,-4.764226917909456,5.532329086920804,4.774464931769011,6764128.536600724,1.1895796774333782,-0.16184642373285707,-0.19872424413405373,-0.01817709336537941,-0.9363337861272697,0.44768567412300503,1.3230148424509525,-1.3336932523221547E-4,-0.0011233689195811263,-1.250822059088316E-4,388385.1819147691,6.548667106641972E-12,1136.4508987520194,-4.764226917909456,5.532329086920804,4.774464931769011
2340.0,-2233150.5439236695,-5018695.265845184,-3940176.4453111426,3834671.855389452,-3930291.7876123143,-3943013.082547329,2178.749223038557,6166.329534740989,-4027.495027574061,-4.942634337095366,5.06591938675866,5.097025505045236,6763309.914523408,1.1939549466814758,-0.17190358716904575,-0.19826124935032813,-0.014112967427546448,-0.9221744604115485,0.40126711643191115,1.3772557294570509,-1.395815609793E-4,-0.001122415308626273,-1.2812853678865834E-4,389271.43419984163,6.32665732976666E-12,1129.9570968810033,-4.942634337095366,5.06591938675866,5.097025505045236
2400.0,-1857923.5022454378,-4983861.596816154,-4172359.353392772,3956403.339847688,-3551483.8165150494,-4175305.263538551,1877.4131326098397,6455.706117531593,-3712.5909291478247,-5.098002369028594,4.576286214145339,5.395677421752385,6762504.188988969,1.1983302159295892,-0.1821364780553674,-0.19773129346298057,-0.009596952893536634,-0.9114151695324676,0.3541285058189084,1.4296350579652717,-1.45911109585885E-4,-0.0011214064784925953,-1.3114798245079525E-4,390160.11580008984,6.1019787498594555E-12,1123.0419709144062,-5.098002369028594,4.576286214145339,5.395677421752385
2460.0,-1473725.6246777459,-4929335.710511211,-4385139.060027161,4059789.131993143,-3156207.489127593,-4388180.582981292,1567.4633154310227,6715.065636333455,-3380.5188404029723,-5.229655337255738,4.065743630751983,5.669078287658103,6761726.403402265,1.2027054851776549,-0.19252191718789582,-0.19712814050315258,-0.004624127210363612,-0.9038684667839211,0.3064430861982848,1.4804767532220668,-1.5235569861536146E-4,-0.001120340774901873,-1.3413935050899154E-4,391036.7013041508,5.8775572306756774E-12,1115.7624836593147,-5.229655337255738,4.065743630751983,5.669078287658103
2520.0,-1082162.2370348275,-4855447.687576141,-4577532.126962363,4144355.449948459,-2746300.0391916693,-4580655.163472103,1250.3401225109044,6943.225075569027,-3032.831017811396,-5.33703057653794,3.536689548233335,5.916009233979137,6760991.090269055,1.207080754425705,-0.20303583737536748,-0.19644570073360637,8.087128931821802E-4,-0.8993776135865955,0.25837025897554966,1.5300851770514052,-1.5891298455711204E-4,-0.0011192165645095562,-1.3710144136927545E-4,391887.0952778749,5.6560811877689764E-12,1108.1805694354716,-5.33703057653794,3.536689548233335,5.916009233979137
2580.0,-684874.7741586033,-4762602.453818011,-4748650.304016095,4209715.877567397,-2323665.32038657,-4751840.381180118,927.5142576584574,7139.147501664145,-2671.1490530087976,-5.419679031745112,2.991593427127405,6.135378474539219,6760311.9724553265,1.211456023673723,-0.2136533840911309,-0.1956781291564843,0.006703036550440106,-0.8978157721557415,0.21005866419203706,1.5787469568358838,-1.655805528836544E-4,-0.0011180322384994209,-1.4003304915575178E-4,392697.8794174317,5.439968507154653E-12,1100.362438473048,-5.419679031745112,2.991593427127405,6.135378474539219
2640.0,-283533.84752371314,-4651277.455129864,-4897704.457104778,4255572.981057757,-1890264.9198601984,-4900946.795474529,600.479960083626,7301.945995093158,-2297.1561632606163,-5.477265184077074,2.432984322591366,6.326223987546149,6759701.669279666,1.2158312929217412,-0.22434902196735396,-0.1948199263289232,0.013058576035226309,-0.8990847371145414,0.16164899953314332,1.626733284873975,-1.7235591823825752E-4,-0.001116786216206091,-1.429329626908337E-4,393456.5444651763,5.2313400020828915E-12,1092.377370642735,-5.477265184077074,2.432984322591366,6.326223987546149
2700.0,120167.79817272857,-4522020.08087825,-5024008.029655829,4281719.517027361,-1448109.0570590743,-5027287.611625228,270.7482076785016,7430.886880365938,-1912.5893442261927,-5.50956646641565,1.863439460703741,6.4877154518238,6759171.4236461185,1.2202065621697118,-0.23509664696501065,-0.19386603991588314,0.01987333629710473,-0.9031134595896304,0.11327660431316593,1.6743023995557396,-1.7923652475808143E-4,-0.0011154769487581812,-1.4579996652862371E-4,394151.7036440305,5.031996371699927E-12,1084.295855958817,-5.50956646641565,1.863439460703741,6.4877154518238
2760.0,524522.4122222343,-4375444.85428451,-5126980.030373228,4288039.233998629,-999247.308955545,-5130281.669546775,-60.16003417244158,7525.392288993629,-1519.2314241554789,-5.516472363755771,1.2855734323905401,6.6191556321385105,6758730.868460721,1.2245818314176822,-0.24586970397820238,-0.19281196529405542,0.027143616556457393,-0.9098565077184486,0.06507384455122375,1.7217020529106424,-1.8621974653759734E-4,-0.0011141029227348628,-1.4863284204012791E-4,394773.2848805069,4.843396969033875E-12,1076.1870329286853,-5.516472363755771,1.2855734323905401,6.6191556321385105
2820.0,927814.4235505118,-4212230.407543174,-5206147.542302397,4274507.270572726,-545759.2005872285,-5209455.953532603,-390.7205051480871,7585.0420918944155,-1118.9030460180213,-5.4979833863679515,0.7020279625240058,6.719981431487163,6758387.848535662,1.228957100665621,-0.2566413095410804,-0.19165384344134415,0.034864043460726864,-0.9192925275442045,0.017172336938938285,1.7691718269970735,-1.93302888236618E-4,-0.0011126626638277254,-1.514303685485506E-4,395312.6993988327,4.6666414279999094E-12,1068.1155730614876,-5.4979833863679515,0.7020279625240058,6.719981431487163
2880.0,1328327.6609162053,-4033116.2581435433,-5261147.749347466,4241190.153899344,-89744.6977905346,-5264447.619134083,-719.4122806462749,7609.575231268863,-713.4545916803756,-5.454210048799911,0.11546208657511428,6.789764795795692,6758148.307973838,1.2333323699135281,-0.26738437921071323,-0.19038855430281693,0.043027615039543235,-0.9314227081904216,-0.030294953638488917,1.8169451927411138,-2.0048318583690242E-4,-0.0011111547404998605,-1.5419132451286992E-4,395762.9843718932,4.502458690762784E-12,1060.138436385011,-5.454210048799911,0.11546208657511428,6.789764795795692
2940.0,1724352.5845952665,-3838899.4014061107,-5291729.476952783,4188245.4021150917,366685.3624317584,-5295005.533897732,-1044.7243427059839,7598.890469186962,-304.75805341693683,-5.38537189866912,-0.4714575134711259,6.828213572748628,6758016.243830612,1.2377076391614352,-0.278071759096998,-0.1890138038441752,0.05162575448257701,-0.9462692072148854,-0.0771917150554503,1.865251215550472,-2.077578075508229E-4,-0.001109577767633935,-1.5691448875757952E-4,396118.91728146776,4.351210528090072E-12,1052.3021705269766,-5.38537189866912,-0.4714575134711259,6.828213572748628
3000.0,2114193.50645492,-3630430.73296653,-5297754.243857296,4115920.734262869,821418.8690403822,-5300991.328870616,-1365.1620929973515,7553.046554605294,105.30114475742965,-5.2917965398854285,-1.0560662695931413,6.835172314198218,6757993.716785784,1.2420829084093103,-0.28867636089796356,-0.18752820309085966,0.06064837261973133,-0.9638734503247907,-0.12337636920228408,1.9143158069140116,-2.1512385488513597E-4,-0.001107930410160243,-1.5959864174624946E-4,396377.09958618827,4.212916099099374E-12,1044.641475242774,-5.2917965398854285,-1.0560662695931413,6.835172314198218
3060.0,2496175.774539746,-3408611.3141444842,-5279196.822068987,4024552.8912502574,1272352.0263931903,-5282379.958022568,-1679.2538037981321,7472.2617969860175,514.8323694990767,-5.173918515226392,-1.6357117680662068,6.810622905240061,6758080.901225179,1.246458177657154,-0.2991712996940045,-0.18593133759696853,0.07008393788878171,-0.9842941802208787,-0.16870022849001826,1.9643624036208192,-2.2257836386233953E-4,-0.00110621138665568,-1.6224256689639454E-4,396536.0073807866,4.087299451112413E-12,1037.1794859489198,-5.173918515226392,-1.6357117680662068,6.810622905240061
3120.0,2868652.8970680186,-3174388.492967142,-5236145.302846898,3914566.0719218045,1717398.8998213701,-5239259.763374557,-1985.5569934549972,7356.9130274225145,921.948028598582,-5.032277878353409,-2.2077641215844968,6.754684837497223,6758276.152853379,1.2508334469049975,-0.3095300336406707,-0.18422382599271497,0.07991955254958077,-1.0076050900499054,-0.21300573960854688,2.015611929182118,-2.3011830640163708E-4,-0.0011044194729047832,-1.6484505193281945E-4,396596.0070728084,3.973854784502922E-12,1029.9297095824902,-5.032277878353409,-2.2077641215844968,6.754684837497223
3180.0,3230013.5795101747,-2928751.8940317426,-5168800.667762065,3786469.9894304997,2154500.8800384514,-5171832.0449071,-2282.664703006014,7207.533929574379,1324.7718224589016,-4.8675183072205686,-2.7696265757584393,6.667614942546028,6758576.07316552,1.2552087161527934,-0.3197265046121104,-0.18240736648829325,0.09014103391099342,-1.033891837791326,-0.2561248484458399,2.068281858937242,-2.3774059186093348E-4,-0.0011025535054128392,-1.6740489027653358E-4,396559.3347871818,3.871918597709087E-12,1022.8990308327259,-4.8675183072205686,-2.7696265757584393,6.667614942546028
3240.0,3578688.6476446246,-2672729.291159073,-5077475.865828952,3640857.5547239673,2581636.0282642534,-5080410.136244221,-2569.2116437154527,7024.812732358242,1721.446960154719,-4.680384683028772,-3.318746135305883,6.549806466368075,6758975.556854069,1.2595839854005895,-0.3297352787532706,-0.180484770450275,0.1007329993923144,-1.0632482015946396,-0.29787754772964087,2.1225841762677238,-2.454420687406669E-4,-0.001100612384861933,-1.6992088246597115E-4,396430.0392185266,3.780736627740797E-12,1016.0909648640279,-4.680384683028772,-3.318746135305883,6.549806466368075
3300.0,3913157.8294586274,-2407382.377553681,-4962594.400036282,3478402.195853273,2996828.2638881397,-4965417.989447126,-2843.880183639509,6809.589270967053,2110.14429968507,-4.471720157948538,-3.8526239517779306,6.401787477171358,6759467.819110224,1.2639592546483536,-0.33953168583570226,-0.17845998238783217,0.11167895430187755,-1.0957711091669748,-0.3380707029522181,2.178721980347689,-2.5321952654973394E-4,-0.0010985950795000315,-1.7239183760712356E-4,396213.88889267703,3.6995168963490895E-12,1009.5084407794194,-4.471720157948538,-3.8526239517779306,6.401787477171358
3360.0,4231956.369514448,-2133802.448621605,-4824688.42896835,3299854.8236265164,3398156.3573403107,-4827388.274615475,-3105.4061456284326,6562.851437269379,2489.0703752561144,-4.242462827262216,-4.368825263841671,6.224218719680014,6760044.412222841,1.268334523896086,-0.34909195624741973,-0.17633808587495736,0.12296138131054637,-1.131554268231833,-0.3764972921215698,2.236884498423974,-2.6106969783309014E-4,-0.0010965006284530438,-1.7481657484901388E-4,395918.24610935245,3.627465590513508E-12,1003.1557208215881,-4.242462827262216,-4.368825263841671,6.224218719680014
3420.0,4533681.450693094,-1853106.0124666255,-4664396.39117239,3106040.4555346663,3783762.6924095615,-4666960.001959751,-3352.584397962536,6285.731049599306,2856.475284104773,-3.9936421745009767,-4.864988811371097,6.0178911163667275,6760695.251701933,1.2727097931452471,-0.3583933544091472,-0.1741252950940939,0.13456183067424232,-1.170680157310186,-0.4129362387843421,2.2972402857894596,-2.6898926036001265E-4,-0.001094328144950574,-1.7719392488069714E-4,395551.911013834,3.563807113372856E-12,997.0393910083628,-3.9936421745009767,-4.864988811371097,6.0178911163667275
3480.0,4816998.399614652,-1566430.3423322486,-4482460.161190811,2897854.5106984125,4151861.7640895676,-4484875.675272159,-3584.2742290296123,5979.499171601,3210.6604183920595,-3.7263754503321516,-5.338835816016652,5.783723135948698,6761408.678442749,1.2770850623929477,-0.367414307369952,-0.17182893180986686,0.14646101035243198,-1.2132102299196004,-0.4471530605793533,2.3599284881371108,-2.769748394712426E-4,-0.0010920768194548358,-1.795227314458349E-4,395124.9401143127,3.507792100861866E-12,991.1685744617055,-3.7263754503321516,-5.338835816016652,5.783723135948698
3540.0,5080646.652875141,-1274928.9843050046,-4279721.746674609,2676258.7888450376,4500748.3795473315,-4281977.986221286,-3799.4045052614592,5645.560899322423,3549.9860394735456,-3.4418640753407903,-5.788178777214261,5.522758188114702,6762171.5832497,1.2814603316406326,-0.3761345273199797,-0.16945738770642585,0.1586388752532192,-1.2591733674191545,-0.4789015882812827,2.4250482207382253,-2.850230105826665E-4,-0.0010897459226833829,-1.8180185287072211E-4,394648.4440012063,3.4586976982633792E-12,985.5546013315877,-3.4418640753407903,-5.788178777214261,5.522758188114702
3600.0,5323445.461339049,-979767.2322766513,-4057119.5359389284,2442277.1462709545,4828805.530446258,-4059206.0588403144,-3996.9786136594876,5285.449617764033,3872.87869775818,-3.1413900421013863,-6.210930418735983,5.236162073235354,6762969.612927378,1.2858356008883016,-0.3845351267527215,-0.16702007215538026,0.1710747149161006,-1.308552909069909,-0.5079270188929683,2.4926464099508947,-2.931303018425132E-4,-0.001087334808515668,-1.8403016360149743E-4,394134.3690093954,3.4158237633151377E-12,980.2103606045637,-3.1413900421013863,-6.210930418735983,5.236162073235354
3660.0,5544299.308548179,-682117.5817210805,-3815684.105173326,2196990.8817892363,5134511.904319672,-3817591.253430326,-4176.079184973059,4900.820708002678,4177.838498239563,-2.826312167201293,-6.605113101127862,4.925220352354238,6763787.464415161,1.2902108701359387,-0.39259872502589155,-0.16452734564953925,0.18374723903064188,-1.3612729985651626,-0.5339705323602226,2.5627048511381054,-3.0129319693820793E-4,-0.0010848429167741361,-1.8620655574613773E-4,393595.26717421034,3.378487666621158E-12,975.149508941612,-2.826312167201293,-6.605113101127862,4.925220352354238
3720.0,5742203.017388775,-383155.1738215553,-3556533.594851403,1941533.8462284312,5416449.001053458,-3558252.539432531,-4335.872581529078,4493.4446704802795,4463.446199053296,-2.498061948365577,-6.9688688856682015,4.591335354565511,6764609.257797318,1.29458613938356,-0.4003095451189059,-0.16199043935331922,0.19663466027839682,-1.417185484729314,-0.5567756048478647,2.635127733601895,-3.0950813804852975E-4,-0.0010822697758700454,-1.8832994061670542E-4,393044.0582242203,3.3460194304689216E-12,970.3856541029802,-2.498061948365577,-6.9688688856682015,4.591335354565511
3780.0,5916246.516748576,-84053.2425773505,-3280868.6662154603,1677087.2904820784,5673307.818253935,-3282391.448155456,-4475.613117628759,4065.1996249140825,4728.37011044229,-2.1581387474856717,-7.300470225928572,4.2360224523752725,6765418.9639839865,1.2989614086311496,-0.40765349946643026,-0.15942136148183086,0.20971477408878453,-1.4760591153326363,-0.5760959771131179,2.7097313826810443,-3.1777152893592685E-4,-0.0010796150053052236,-1.903992502672643E-4,392493.78673680493,3.317758239534429E-12,965.9315819525964,-2.1581387474856717,-7.300470225928572,4.2360224523752725
3840.0,6065619.237802481,214021.42059606017,-2989967.0513430135,1404874.4695226776,5903895.0670897905,-2991286.6188759864,-4594.646964533455,3618.0631557732395,4971.372739001619,-1.8081040615122916,-7.598331029591879,3.8609052405145783,6766200.851931853,1.3033366778787392,-0.41461826386760126,-0.156832791511968,0.22296503501235113,-1.5375731182127148,-0.5917049844306248,2.7862383228925056,-3.2607973817320903E-4,-0.0010768783180206882,-1.9241343902274072E-4,391957.3771552261,3.293050870511627E-12,961.7985611894017,-1.8081040615122916,-7.598331029591879,3.8609052405145783
3900.0,6189614.108474565,509912.96787580784,-2685177.7142182323,1126155.023044139,6107138.8789206585,-2686287.955751903,-4692.4156807511135,3154.1034938299395,5191.317102753022,-1.4495747516964996,-7.861017640888641,3.4677093532073378,6766939.9160099905,1.307711947126297,-0.4211933386293401,-0.1542379635295324,0.23636262955500856,-1.6013172804660891,-0.6034056513184207,2.864277781249864,-3.344291024980794E-4,-0.0010740595225837463,-1.9437148499400414E-4,391447.38927141763,3.2712522612699557E-12,957.995737693974,-1.4495747516964996,-7.861017640888641,3.4677093532073378
3960.0,6287631.115076243,802480.9423623106,-2367914.6450766264,842219.1571021572,6282093.963343748,-2368810.417831735,-4768.459304890488,2675.4700547599696,5387.172631535783,-1.0842152490898769,-8.08725919701322,3.058254824447278,6767622.247599323,1.312087216373823,-0.4273700962878383,-0.15165054028931996,0.2498845454615444,-1.666800139687575,-0.6110406593694472,2.9433942519511795,-3.428159302885336E-4,-0.0010711585252051532,-1.962723915743739E-4,390975.77707037586,3.2517282071464185E-12,954.5296176095695,-1.0842152490898769,-8.08725919701322,3.058254824447278
4020.0,6359180.402300194,1090604.6505803587,-2039650.3154768478,554381.6547628461,6427946.18053088,-2040327.4696361946,-4822.418953917317,2184.3833884374567,5558.020567310713,-0.7137289003819746,-8.275956836770881,2.634447090132782,6768235.325420285,1.3164624856213492,-0.4331418154607674,-0.14908447978410383,0.2635076376038872,-1.7334658307508202,-0.6145010952959364,3.023064672140493,-3.5123650515126305E-4,-0.001068175331579069,-1.9811518891275145E-4,390553.6544442282,3.2338599836544245E-12,951.4036317677756,-0.7137289003819746,-8.275956836770881,2.634447090132782
4080.0,6403884.886485166,1373187.438049062,-1701908.8263870988,263975.7468327522,6544016.494823021,-1702364.2246215993,-4854.03888294423,1683.1246202289485,5703.058790168947,-0.33984872351096684,-8.42619137731295,2.198266897714096,6768768.214048674,1.3208377548688435,-0.438503700590841,-0.14655389625999707,0.2772086907978698,-1.8007186307129806,-0.6137328659677173,3.1027232566655254,-3.5968708961483517E-4,-0.0010651100485381758,-1.9989893535859557E-4,390191.07207486365,3.217050525169215E-12,948.6177712457016,-0.33984872351096684,-8.42619137731295,2.198266897714096
4140.0,6421482.361826645,1649160.8459571588,-1356258.7854769453,-27653.124143340345,6629764.281999211,-1356490.3177409032,-4863.167980356132,1174.0244826001622,5821.606015093238,0.03567211972708626,-8.537229283268763,1.7517594851651437,6769211.676110109,1.325213024116306,-0.44345288754172835,-0.14407291767268846,0.2909644800386999,-1.867952676447272,-0.6087398790719374,-3.101393836163142,-3.6816392891860883E-4,-0.0010619628855173837,-2.0162271887396005E-4,389896.81053202605,3.2007316333424335E-12,946.1682828391008,0.03567211972708626,-8.537229283268763,1.7517594851651437
4200.0,6411827.084304696,1917488.628121376,-1004305.9524335747,-319153.6124004901,6684789.968715273,-1004312.5459471986,-4849.760689782394,659.4520392334972,5913.105326825986,0.4110698625567719,-8.608526970514157,1.2970233954193184,6769558.217085759,1.3295882933637686,-0.4479884351891026,-0.14165554155400692,0.3047518287967031,-1.9345831745868496,-0.599583514426587,-3.0234758412344145,-3.766632548880913E-4,-0.0010587341558201192,-2.032856584079211E-4,389678.19511940784,3.184371555432937E-12,944.0474127882828,0.4110698625567719,-8.608526970514157,1.2970233954193184
4260.0,6374890.822875749,2177170.609225523,-647685.6924573801,-609174.815701573,6708836.98855762,-647467.3168206733,-4813.877364146779,141.80319595644272,5977.127040107595,0.7845795049421758,-8.639733652562008,0.8361992117420669,6769802.089570195,1.3339635626111994,-0.45211130328722904,-0.1393154911732886,0.3185476661346457,-2.0000750789529937,-0.5863784583279757,-2.947220354891473,-3.8518128988663603E-4,-0.0010554242776814845,-2.048869052287346E-4,389540.93805791246,3.1674821743723252E-12,942.2431863096098,0.7845795049421758,-8.639733652562008,0.8361992117420669
4320.0,6310763.371455246,2427246.367401332,-288055.2784186248,-896372.626595237,6701793.044377948,-287612.94582665456,-4755.684064255734,-376.51092235552335,6013.370885830326,1.1544439565075213,-8.630693008278818,0.3714583658508841,6769939.284633469,1.3383388318585985,-0.45582431703748283,-0.1370660737595557,0.332329083488249,-2.0639658014222073,-0.5692855014356024,-2.873069222413747,-3.9371425083314053E-4,-0.0010520337751235692,-2.064256442092134E-4,389489.0131170504,3.1496250002586807E-12,940.7392086017276,1.1544439565075213,-8.630693008278818,0.3714583658508841
4380.0,6219652.518281631,2666798.7261084975,72913.91806282896,-1179416.0552563742,6663690.670831702,73578.1575078653,-4675.4518148514935,-893.0756658948687,6021.667528453863,1.5189229913229703,-8.581443913953644,-0.095007969715587,6769967.53188664,1.3427141011059978,-0.45913211886788013,-0.13492004242606945,0.34607339197702763,-2.125879836324624,-0.5485022770267783,-2.8013790699396792,-4.0225835327489605E-4,-0.0010485632785986031,-2.079010950609186E-4,389524.56682593765,3.1304555182456218E-12,939.5173722565178,1.5189229913229703,-8.581443913953644,-0.095007969715587
4440.0,6101883.471585102,2894957.0417063287,433544.3066238912,-1456993.4916421375,6594707.094446762,434427.37448335806,-4573.555326662298,-1405.4845733657392,6001.979417399802,1.8763021105950595,-8.492220363418168,-0.5609999947147939,6769886.318861998,1.347089370353365,-0.46204110803663734,-0.13288946333217394,0.35975818107825364,-2.185534774492739,-0.5242530660073125,-2.7324151596615596,-4.1080981550429917E-4,-0.0010450135254164979,-2.0931251351293177E-4,389647.8690236783,3.1099191653153876E-12,938.571766037915,1.8763021105950595,-8.492220363418168,-0.5609999947147939
4500.0,5957897.742523283,3110900.2740241243,792159.989230971,-1727818.8750300896,6495163.391519998,793257.7931379065,-4450.471187112983,-1911.3510558798655,5954.400968413691,2.2249014022834417,-8.363450545279441,-1.024320521171212,6769696.927431125,1.3514646396007006,-0.46455936877721943,-0.1309855895351813,0.3733613793958386,-2.2427395955531444,-0.49677872042466154,-2.666352985288962,-4.1936486270796527E-4,-0.0010413853599539162,-2.106591924310735E-4,389857.30394322285,3.0880961636522383E-12,937.8977604624437,2.2249014022834417,-8.363450545279441,-1.024320521171212
4560.0,5788251.488584444,3313859.827789951,1147094.661856054,-1990637.7390359987,6365522.947213292,1148402.1146904042,-4306.775518690918,-2408.3199963519846,5879.158064579001,2.563084423034409,-8.195754913888507,-1.4827864174522234,6769402.473653194,1.3558399088480522,-0.46669658778568435,-0.1292187429380898,0.38686131810480884,-2.2973870473183986,-0.4663275227997788,-2.6032857976540926,-4.279197311363991E-4,-0.0010376797336433129,-2.1194046287373864E-4,390149.40147825284,3.0651134888438483E-12,937.4860317004855,2.563084423034409,-8.195754913888507,-1.4827864174522234
4620.0,5593613.323495637,3503122.153263157,1496699.4655892483,-2244233.100157157,6206389.222863323,1498210.5093247506,-4143.141105233102,-2894.0791973271776,5776.606864841543,2.8892670320891973,-7.989943028006122,-1.9342402331954638,6769007.930531829,1.360215178095356,-0.4684639619994984,-0.1275982056883964,0.4002367974353259,-2.349442267041208,-0.43314749426860855,-2.543235904797048,-4.364706722821401E-4,-0.001033897704740094,-2.131556950806422E-4,390518.9069562267,3.041138923578382E-12,937.3226463309202,2.8892670320891973,-7.989943028006122,-1.9342402331954638
4680.0,5374761.603249221,3678031.0951850857,1839350.7454063888,-2487431.1580889337,6018502.842945872,1841058.3795084788,-3960.33399351847,-3366.3705970266246,5647.231912900468,3.2019260136507572,-7.747008960544208,-2.37656186251105,6768520.112316601,1.3645904473426438,-0.4698740977024983,-0.12613212234507823,0.41346715632849745,-2.3989296722658677,-0.39748037040751055,-2.486167718178053,-4.4501395705425916E-4,-0.0010300404378679091,-2.1430429939102135E-4,390958.88675583754,3.016365893420753E-12,937.3886325710265,3.2019260136507572,-7.747008960544208,-2.37656186251105
4740.0,5132581.202024762,3837989.9804862617,2173457.6747014024,-2719106.7768413625,5802738.018245159,2175353.9889307553,-3759.2095893325713,-3823.001164616747,5491.6435509500525,3.499607266578202,-7.468125194575526,-2.807680007400291,6767947.604141863,1.3689657165913447,-0.4709409021452556,-0.12482741403868378,0.426532345129294,-2.445919737262155,-0.3595572304048852,-2.4320009287873914,-4.5354587993686054E-4,-0.0010261092033424862,-2.1538572708812906E-4,391460.8664999574,2.9909688548386312E-12,937.6574676063258,3.499607266578202,-7.468125194575526,-2.807680007400291
4800.0,4868059.796104742,3982463.437203665,2497469.704422613,-2938188.7172404984,5560098.327182395,2499545.9158751825,-3540.7082807931342,-4261.853385217586,5310.574658537661,3.7809333385398296,-7.154635077463216,-3.225583164910891,6767300.630349551,1.373340985838585,-0.47167946895353524,-0.12368970572348587,0.43941300093770697,-2.4905167594946627,-0.3195956115355845,-2.380622708785218,-4.6206276311924093E-4,-0.0010221053762748888,-2.1639947116707547E-4,392014.9982694902,2.9650705809249957E-12,938.0934266820013,3.7809333385398296,-7.154635077463216,-3.225583164910891
4860.0,4582283.678030525,4110978.939417567,2809883.7973559354,-3143664.593742155,5291711.882399869,2812130.2915482344,-3305.850633697476,-4680.89525413354,5104.876752790362,4.044610136912905,-6.808044054445299,-3.6283298929193553,6766590.865971,1.3777162550858253,-0.4721059586779267,-0.12272326743701482,0.4520905250102649,-2.5328482413212052,-0.27779786171223114,-2.3318983139527263,-4.705609605854499E-4,-0.0010180304354564789,-2.1734506702340722E-4,392610.2531878248,2.9399093477284338E-12,938.7406683542197,4.044610136912905,-6.808044054445299,-3.6283298929193553
4920.0,4276433.12633138,4223128.076057312,3109251.41066533,-3334585.531421937,4998825.914064801,3111657.7864536983,-3055.7322110253367,-5078.189716254632,4875.51549850995,4.2894327424397245,-6.430009996879298,-4.014058198891028,6765831.2054199455,1.3820915243330338,-0.47223747587275494,-0.12193097023686919,0.4645471614221176,-2.5730561334548194,-0.23435046099215612,-2.285679841337811,-4.7903686215089447E-4,-0.0010138859620282747,-2.1822209306005376E-4,393234.6356780733,2.917017123075203E-12,939.6649801936128,4.2894327424397245,-6.430009996879298,-4.014058198891028
4980.0,3951777.358609118,4318567.543850303,3394185.1929204753,-3510070.5022029504,4682800.8046118105,3396740.311025442,-2791.518070085298,-5451.90350623974,4623.565682532528,4.514290352845863,-6.022332950501259,-4.380994011922654,6765035.5078206025,1.3864667935802266,-0.472091944091391,-0.12131425722527765,0.47676607606786087,-2.611289926530884,-0.18942405821245242,-2.2418131571824085,-4.874868974339644E-4,-0.0010096736379383462,-2.1903017121065334E-4,393875.4155536361,2.8977268524419917E-12,940.9177569367839,4.514290352845863,-6.022332950501259,-4.380994011922654
5040.0,3609669.096921816,4397019.867157442,3663365.365107433,-3669310.3224933185,4345103.611753689,3666057.3999989894,-2514.43698669141,-5800.315362815615,4350.205705893439,4.718170459314026,-5.5869445571938785,-4.727458800647098,6764218.338140599,1.3908420628273876,-0.4716879801385895,-0.12087312978804164,0.48873143500645266,-2.647701422993663,-0.14317400397612096,-2.200143164964401,-4.959075397507708E-4,-0.0010053952441914375,-2.1976896737753635E-4,394519.37380404724,2.8832896866927417E-12,942.545069609273,4.718170459314026,-5.5869445571938785,-4.727458800647098
5100.0,3251538.7750170385,4458273.849121815,3915545.7581755295,-3811571.2971576294,3987301.1178029436,3918362.2530619386,-2225.7754485005594,-6121.823602182082,4056.711641657715,4.900162385557134,-5.125897280701352,-5.0518764537796,6763394.717614841,1.3952173320745327,-0.4710447688503243,-0.12060614891762182,0.5004284811329317,-2.682440948453483,-0.09574120335288798,-2.1605176572119733,-5.042953099212712E-4,-0.0010010526588963488,-2.2043819178301283E-4,395153.0574887889,2.8749157927354123E-12,944.5908186339791,4.900162385557134,-5.125897280701352,-5.0518764537796
5160.0,2878888.4172305027,4502184.759762519,4149559.4823290836,-3936198.497050973,3611052.4440904697,4152487.4069804186,-1926.8714524257,-6414.953039465372,3744.4508992477636,5.0594602918149825,-4.641353441394438,-5.35277952992477,6762579.887630375,1.399592601321678,-0.4701819395822064,-0.12051045126623647,0.5118436081847577,-2.7156547433226894,-0.04725315298423492,-2.1227900140530798,-5.126467799754556E-4,-9.966478551163968E-4,-2.2103759923292182E-4,395763.0386472279,2.8738021009707374E-12,947.0986292016776,5.0594602918149825,-4.641353441394438,-5.35277952992477
5220.0,2493285.219238719,4528674.267469261,4364324.205561794,-4042618.6592901517,3218101.2699799757,4367350.016689463,-1619.108136783074,-6678.361244783146,3414.875531476597,5.195365678939971,-4.135573987201321,-5.628814916716415,6761789.081158018,1.4039678705687753,-0.4691194454914587,-0.1205817794036874,0.5229644311421192,-2.7474832898779686,0.0021749363414980813,-2.086820998351502,-5.209585767487281E-4,-9.921828985300432E-4,-2.215669892917959E-4,396336.1717185253,2.881156318723848E-12,950.1131609379023,5.195365678939971,-4.135573987201321,-5.628814916716415
5280.0,2096354.861534279,4537730.121082777,4558847.021086026,-4130342.701260616,2810267.696924616,4561956.72499098,-1303.9072790744428,-6910.844115726663,3069.51522084946,5.307289350457,-3.6109069294888876,-5.878748846284182,6761037.288168838,1.4083431398158728,-0.4678774465961881,-0.12081452562842089,0.5337798521546877,-2.778060360835696,0.052439000733000646,-2.052479867938931,-5.292273853557752E-4,-9.876599449085267E-4,-2.220262063692489E-4,396859.8438019397,2.8982175826267603E-12,953.6808391897873,5.307289350457,-3.6109069294888876,-5.878748846284182
5340.0,1689774.5874276224,4529405.5906317085,4732228.885647887,-4198967.841324425,2389439.79919416,4735408.102843141,-982.7226946252442,-7111.340745950102,2709.969987399337,5.394752737466296,-3.0697754566820104,-6.101471135976997,6760338.998895151,1.4127184090629386,-0.46647619749488484,-0.12120178858947335,0.5442801212036091,-2.807512612568805,0.10344501368119223,-2.019644990519212,-5.37449952532958E-4,-9.8308123741857E-4,-2.2241513971765103E-4,397322.2122980689,2.9262700758025044E-12,957.8497190274827,5.394752737466296,-3.0697754566820104,-6.101471135976997
5400.0,1275266.078267229,4503818.67595791,4883668.613515545,-4248179.3214906575,1957564.904018858,4886902.6450233245,-657.0335773610183,-7278.937574283632,2337.9026692655225,5.457388489367189,-2.5146658754852655,-6.2959984987625175,6759707.912569513,1.4170936783099726,-0.46493594052825454,-0.12173544190164665,0.5544568907749513,-2.835959583106871,0.15510793439269452,-1.9882041126279781,-5.456230898396071E-4,-9.784491037585252E-4,-2.227337233414432E-4,397712.42510265525,2.9666427889734728E-12,962.6679900164877,5.457388489367189,-2.5146658754852655,-6.2959984987625175
5460.0,854588.1589348473,4461151.093841438,5012466.41425835,-4277751.729933253,1516640.6444739653,5015740.309278874,-328.33782836330874,-7412.871812062815,1955.0312354353475,5.494940291832526,-1.9481156674285236,-6.461476818037572,6759156.608958806,1.4214689475570224,-0.46327680502091234,-0.1224062138681436,0.5643032638894109,-2.8635139889401096,0.20735072981406807,-1.9580544039332959,-5.537436767092552E-4,-9.737659531371444E-4,-2.2298193581875576E-4,398020.81951632426,3.020686241774112E-12,968.1805392559679,5.494940291832526,-1.9481156674285236,-6.461476818037572
5520.0,429529.36609720875,4401647.055577893,5118026.966125821,-4287549.923991221,1068705.8279897268,5121325.590773559,1.8545828469165757,-7512.534166463983,1563.1209930732862,5.507261979404719,-1.3727020290739014,-6.597182401821307,6758696.1934496565,1.4258442168040246,-0.46151871311972437,-0.12320377731277943,0.5738138348791648,-2.8902822443976324,0.2601034773880222,-1.929102373660277,-5.618086633423712E-4,-9.690342731041681E-4,-2.231598000364269E-4,398239.09724473127,3.089716847006304E-12,974.4231429451409,5.507261979404719,-1.3727020290739014,-6.597182401821307
5580.0,1900.4099503800685,4325611.847904316,5199862.020457025,-4277529.55679034,615831.1616353819,5203170.12726121,332.02818706148287,-7577.470899701324,1163.9767462764162,5.494316131668474,-0.7910312440925332,-6.7025223901562665,6758335.940257656,1.430219486051027,-0.4596812925429435,-0.12411684841639445,0.5829847223524971,-2.916365153023053,0.3133025496645628,-1.901263737460265,-5.698150734329531E-4,-9.64256626243022E-4,-2.23267382839744E-4,398360.47407337977,3.174924135140851E-12,981.4144226161939,5.494316131668474,-0.7910312440925332,-6.7025223901562665
5640.0,-426473.4426114953,4233410.230351614,5257592.535554466,-4247737.2124519395,160109.8723724287,5260894.833422976,660.6684913852811,-7607.385281365231,759.4349480251565,5.456172437993462,-0.20572910182198703,-6.7770346381101065,6758082.968783987,1.4345947552979816,-0.4577837963647865,-0.1251332933046751,0.5918135938335932,-2.941858742894594,0.36688987803192863,-1.8744633006955405,-5.777600067217526E-4,-9.594356467357671E-4,-2.2330479459865309E-4,398379.80378478166,3.2772472373444194E-12,989.1467384970865,5.456172437993462,-0.20572910182198703,-6.7770346381101065
5700.0,-853760.0388395721,4125464.6613058774,5290950.340316151,-4198310.155679757,-296351.74322824203,5294231.564665108,986.2683581829416,-7602.138497715608,351.35586472185156,5.393006149246141,0.38056764535288723,-6.820387483833727,6757941.992066638,1.4389700245449362,-0.45584502973748947,-0.12624024099747705,0.6002996816153253,-2.96685523852216,0.4208122904414308,-1.8486349178848418,-5.856406413698099E-4,-9.545740368110871E-4,-2.2327218869237572E-4,398293.67645911616,3.3972434501440067E-12,997.5784138510578,5.393006149246141,0.38056764535288723,-6.820387483833727
5760.0,-1278128.0436307525,4002253.3632978806,5299779.328335688,-4129475.7012169953,-751443.808972595,5303024.311090232,1307.3343007164804,-7561.750073644057,-58.38425206861951,5.305096885347064,0.9652190475334921,-6.832379800128442,6757915.171937558,1.443345293791875,-0.4538832832480925,-0.12742420120226924,0.6084437894293383,-2.991444182622954,0.4750209165842207,-1.8237215883399218,-5.934542361467463E-4,-9.496745630862652E-4,-2.2316976091479068E-4,398100.4913688719,3.5349859216693655E-12,1006.6303544453635,5.305096885347064,0.9652190475334921,-6.832379800128442
5820.0,-1697754.6565370804,3864308.2355875117,5284036.1821979815,-4041550.20742252,-1203062.3706330557,5287229.921371869,1622.3927218486651,-7486.397840527396,-467.9010129352846,5.192827939445394,1.5455894208429368,-6.812941609976675,6758002.103124675,1.447720563038782,-0.45191627241248117,-0.12867118537125252,0.6162482896144216,-3.0157137440508643,0.5294706531857799,-1.7996757558197047,-6.01198132428674E-4,-9.447400528144525E-4,-2.2299774880313558E-4,397800.5042771471,3.690027893677247E-12,1016.189403045531,5.192827939445394,1.5455894208429368,-6.812941609976675
5880.0,-2110833.32370713,3712212.6194680277,5243790.625729424,-3934937.696483323,-1649118.8820958901,5246918.354292096,1929.9961254495347,-7376.417450831153,-875.3097943447061,5.056686041986933,2.1190550906995322,-6.762135344896654,6758199.930340204,1.4520958322856732,-0.4499610826904417,-0.12996682942225052,0.6237171105552077,-3.039752276781714,0.5841196815947947,-1.7764598975093213,-6.088697560018371E-4,-9.397733900484896E-4,-2.2275643089288545E-4,397395.8482287235,3.86145064849748E-12,1026.1185008767538,5.056686041986933,2.1190550906995322,-6.762135344896654
5940.0,-2515581.424817183,3546598.919465569,5179225.1997191515,-3810128.102177174,-2087549.6480253418,5182272.453458474,2228.729322408174,-7232.3014058025265,-1278.7337338182126,4.897261367288876,2.6830129582946376,-6.6801575900374255,6758503.582071551,1.4564711015325642,-0.44803411932729675,-0.13129651659361008,0.6308557142668485,-3.0636502340236977,0.6389290294341896,-1.7540475187638658,-6.164666186683041E-4,-9.347775117329822E-4,-2.2244612590188744E-4,396890.52612236363,4.047978848930096E-12,1036.2709898203984,4.897261367288876,2.6830129582946376,-6.6801575900374255
6000.0,-2910247.911944892,3368146.082293006,5090634.554941665,-3667695.145269767,-2516325.1920949547,5093587.239029515,2517.215635740555,-7054.697534769194,-1676.311835776109,4.7152474311630135,3.234890253256768,-6.567340954449777,6758906.086788339,1.4608463707794237,-0.4461510613378815,-0.13264549903929543,0.6376710641077521,-3.0875025991693734,0.6938621674830588,-1.7324247219825215,-6.239863196513213E-4,-9.297554037360388E-4,-2.2206719184714294E-4,396290.3727590526,4.248120066357893E-12,1046.5048636437282,4.7152474311630135,3.234890253256768,-6.567340954449777
6060.0,-3293120.8731323923,3177576.935346876,4978424.255893153,-3508293.8370358474,-2933459.515650423,4981268.709859993,2794.1230862338366,-6844.406850802092,-2066.207181449329,4.511440478917147,3.7721555572064918,-6.424155585757042,6759398.925575018,1.4652216400262512,-0.44432681901307874,-0.1339990169527069,0.6441715827174311,-3.1114120846865174,0.7488846318596382,-1.7115926033878015,-6.314265467983845E-4,-9.247100968323075E-4,-2.21620025097696E-4,395602.9839090459,4.460281222083586E-12,1056.6933449540759,4.511440478917147,3.7721555572064918,-6.424155585757042
6120.0,-3662534.989013779,2975655.3877453906,4843109.089935217,-3332657.613214457,-3337019.2071854426,4845832.1507601375,3058.1705170508003,-6602.380711576141,-2446.615206795224,4.286738013531935,4.292330880768485,-6.251209848895495,6759972.372561296,1.4695969092745076,-0.44257549445073785,-0.13534241422424975,0.6503671003781172,-3.135493494471576,0.8039636595145406,-1.6915708731959174,-6.387850775808622E-4,-9.19644662648924E-4,-2.211050593674317E-4,394837.61040400865,4.682832690287929E-12,1066.730197699688,4.286738013531935,4.292330880768485,-6.251209848895495
