time,gePosition_m_X,gePosition_m_Y,gePosition_m_Z,eiPosition_m_X,eiPosition_m_Y,eiPosition_m_Z,eiVelocity_m_s_X,eiVelocity_m_s_Y,eiVelocity_m_s_Z,eiAccel_m_s2_X,eiAccel_m_s2_Y,eiAccel_m_s2_Z,semiMajorAxis_m,gast_rad,eulerAngle_rad_Roll,eulerAngle_rad_Pitch,eulerAngle_rad_Yaw,eulerAngleWrtEi_rad_Roll,eulerAngleWrtEi_rad_Pitch,eulerAngleWrtEi_rad_Yaw,bodyAngularRateWrtEi_rad_s_Roll,bodyAngularRateWrtEi_rad_s_Pitch,bodyAngularRateWrtEi_rad_s_Yaw,altitudeMsl_m,airDensity_kg_m3,ambientTemperature_dgK,eiGravitation_m_s2_X,eiGravitation_m_s2_Y,eiGravitation_m_s2_Z
0.0,-1428622.33421604,4163200.23408806,5136049.85325658,-4292653.40999999,955168.470000001,5139356.56999999,109.649662999999,-7527.72648999999,1484.521489,5.51382727336929,-1.22706430181432,-6.62051654995019,6758662.11722884,1.02331933954551,0.0,-0.202458193231342,-2.0E-16,-2.4715939053549,-0.0371889644761349,-1.42899313488854,0.0,-0.0011344542745508,0.0,398254.541169311,3.4018E-12,990.9677734375,5.51382727336929,-1.22706430181432,-6.62051654995019
60.0,-1789722.85353415,3920281.27867071,5213135.53388605,-4276158.45533201,501645.022317214,5216446.72430389,439.970387536463,-7583.89602714214,1084.15691618872,5.49265171597338,-0.644534270227693,-6.71984957261291,6758338.51471127,1.02769460895833,-5.6106817429E-6,-0.202457013903749,-1.935732472071E-4,-2.47205929657798,0.016120423674086,-1.38666117966429,-7.049133021E-7,-0.0011344779883362,-3.3028527039E-6,398353.847580588,3.2015E-12,984.49365234375,5.49265171597338,-0.644534270227693,-6.71984957261291
120.0,-2144776.24212125,3662449.22008597,5266054.3389574,-4239897.51694367,45802.1505763498,5269354.69750762,768.263740963699,-7605.01065324367,678.757987189746,5.4462733465335,-0.0590072922499263,-6.78826463480035,6758118.92441941,1.03206987837114,-3.81490558526E-5,-0.202453047004927,-5.856868315389E-4,-2.47030794948922,0.0692802951960854,-1.34410218239072,-1.5682337123E-6,-0.0011344959092939,-6.615081428E-6,398350.100532045,3.306E-12,992.433959960937,5.4462733465335,-0.0590072922499263,-6.78826463480035
180.0,-2492273.2721675,3390830.81645972,5294560.01970596,-4184037.49560292,-410253.042097783,5297834.2903606,1093.02315219383,-7590.96988301576,270.189937504998,5.37489673862363,0.526870440154061,-6.82544530322301,6758005.94483264,1.03644514778395,-1.211712128695E-4,-0.202445671151534,-0.0011710120921567,-2.46631584767114,0.122194573081485,-1.3010762841751,-2.589767053E-6,-0.0011345075710701,-9.9359410654E-6,398240.140412666,3.4292E-12,1001.06048583984,5.37489673862363,0.526870440154061,-6.82544530322301
240.0,-2830728.86282242,3106602.78203397,5298518.66084465,-4108835.25327401,-864412.191686106,5301751.70710523,1412.7575677059,-7541.83223223414,-139.667029369302,5.27883465247689,1.11044672663848,-6.83120955221754,6758000.30818313,1.04082041719676,-2.78137361478E-4,-0.202434314585917,-0.0019426212095673,-2.46003131551207,0.174763491844318,-1.2573391712887,-3.7692822606E-6,-0.0011345124462374,-1.32646798766E-5,398022.684903379,3.5711E-12,1010.28369140625,5.27883465247689,1.11044672663848,-6.83120955221754
300.0,-3158688.36457455,2810986.75658732,5277909.33556035,-4014636.48711197,-1314575.21805076,5281086.2099609,1725.99795209428,-7457.81526998969,-548.92588856087,5.15850824494329,1.68907383600782,-6.80551243090028,6758101.11479094,1.04519568660958,-5.322978443781E-4,-0.202418478025593,-0.0028920210543929,-2.45137464563143,0.226881529601776,-1.21263857844644,-5.1065108489E-6,-0.0011345099468991,-1.66005389141E-5,397698.384706,3.7313E-12,1019.98229980468,5.15850824494329,1.68907383600782,-6.80551243090028
360.0,-3474733.77487806,2505244.12713917,5232824.26755332,-3901874.2134641,-1758659.85329532,5235930.28034654,2031.30377950372,-7339.29500848526,-955.701082365102,5.01444650417525,2.26012005644165,-6.74844804369716,6758306.03745531,1.04957095602238,-9.065798515516E-4,-0.202397753903747,-0.0040091953883106,-2.44023743940509,0.278435209191047,-1.16671093034142,-6.6011463063E-6,-0.0011344994253703,-1.99427514561E-5,397269.841038155,3.9088E-12,1030.013671875,5.01444650417525,2.26012005644165,-6.74844804369716
420.0,-3777489.85730288,2190670.72011024,5163468.49311623,-3771066.8639801,-2194611.1122662,5166489.27983862,2327.26946194251,-7186.8045783642,-1358.11689611411,4.84728469112896,2.82098186796696,-6.66025042742611,6758611.45544173,1.0539462254352,-0.0014234753975874,-0.202371841544235,-0.0052826553447657,-2.42648179091992,0.329300716765542,-1.11927819399991,-8.25284343E-6,-0.0011344801749376,-2.32905424503E-5,396741.581946819,4.1024E-12,1040.22888183593,4.84728469112896,2.82098186796696,-6.66025042742611
480.0,-4065630.13560884,1868591.38516897,5070159.02015111,-3622815.99944387,-2620410.66155797,5073080.60776536,2612.53065351961,-7001.03216998367,-1754.31584809704,4.65776177879115,3.36909613469289,-6.5412931327227,6759012.49869776,1.05832149484801,-0.0021049311445841,-0.202340558009034,-0.0066994978309231,-2.40993951105965,0.379341293356083,-1.07004508673896,-1.00612175976E-5,-0.001134451430697,-2.66431279689E-5,396119.996457342,4.3107E-12,1050.48681640625,4.65776177879115,3.36909613469289,-6.5412931327227
540.0,-4337882.73499026,1540354.49402798,4953323.48560248,-3457803.65048651,-3034086.04330577,4956132.35692098,2885.77037539998,-6782.81825731049,-2142.46701672185,4.44671708363492,3.90195174073206,-6.39208758463502,6759503.007634,1.06269676426082,-0.0029722406451205,-0.202303844478429,-0.0082454712244008,-2.39041168720869,0.428404367937177,-1.01869688944024,-1.202584398E-5,-0.001134412370472,-2.99997146785E-5,395413.227791309,4.532E-12,1060.66381835937,4.44671708363492,3.90195174073206,-6.39208758463502
600.0,-4593036.04492389,1207326.37796128,4813498.31710754,-3276789.2972057,-3433719.71199269,4816181.47320876,3145.72492255444,-6533.15215064907,-2520.77423989255,4.21508642260463,4.41710028511352,-6.21328052814261,6760075.4365863,1.06707203367362,-0.0040459395533347,-0.202261768069346,-0.0099050475373441,-2.36766901631591,0.476318424105564,-0.964898263034113,-1.41462566979E-5,-0.0011343621158125,-3.33594993257E-5,394631.028995748,4.7648E-12,1070.65759277343,4.21508642260463,4.41710028511352,-6.21328052814261
660.0,-4829944.18082398,870885.726747272,4651326.40791769,-3080606.50141408,-3817457.84579745,4653871.42827612,3391.1895349888,-6253.16793895309,-2887.48414442795,3.96389816353166,4.91216574587631,-6.00565099365687,6760720.74495648,1.07144730308643,-0.0053457043125666,-0.20221451898014,-0.0116615001234839,-2.3414535456287,0.522889633075078,-0.908293668095628,-1.64219479237E-5,-0.0011342997330758,-3.67216682397E-5,393784.585997098,5.0075E-12,1080.38696289062,3.96389816353166,4.91216574587631,-6.00565099365687
720.0,-5047532.22416709,532417.969517277,4467554.31587506,-2870159.20564673,-4183518.89762491,4469949.41593532,3621.02383640992,-5944.13987843585,-3240.89398996844,3.69426945928479,5.38485333197515,-5.77010721154069,6761428.32574201,1.07582257249925,-0.0068902547834713,-0.202162402801248,-0.0134969860286252,-2.31148271250427,0.56789835224245,-0.848510249397178,-1.88523669335E-5,-0.0011342242345904,-4.0085396856E-5,392886.314102386,5.2582E-12,1089.78918457031,3.69426945928479,5.38485333197515,-5.77010721154069
780.0,-5244801.22212498,193309.65533999,4263028.99745294,-2646417.7124467,-4530201.8538154,4265263.08338793,3834.15705608789,-5607.47726356003,-3579.3593340859,3.40740279111228,5.83295797272975,-5.50768377016406,6762186.015829,1.08019784191205,-0.008697261236038,-0.202105827788672,-0.0153926322267405,-2.27745688458706,0.611095692257106,-0.785164361375987,-2.14369191117E-5,-0.001134134579904,-4.34498492607E-5,391949.634237274,5.515E-12,1098.81469726562,3.40740279111228,5.83295797272975,-5.50768377016406
840.0,-5420832.9276098,-145057.150858395,4038694.08705983,-2410414.35639585,-4855894.16980675,4040756.80746113,4029.59305116628,-5244.71878603154,-3901.30153667177,3.1045827440675,6.25437298330329,-5.21953909258402,6762980.21765854,1.08457311132487,-0.0107832560986758,-0.202045286897485,-0.0173286252152049,-2.23907192557852,0.652200508187307,-0.71787323805694,-2.41749649113E-5,-0.0011340296771168,-4.68141777596E-5,390988.734816101,5.7757E-12,1107.42504882812,3.1045827440675,6.25437298330329,-5.21953909258402
900.0,-5574794.25903068,-481310.442541806,3795585.7307327,-2163238.88057826,-5159079.35141202,3797467.52498972,4206.41513635193,-4857.52635656117,-4205.2151189459,2.78717275581337,6.64709937003983,-4.90695306840762,6763796.14133635,1.08894838073768,-0.013163550841361,-0.201981334441167,-0.0192843037192581,-2.19603855333312,0.690897380047464,-0.646273555586467,-2.7065818775E-5,-0.0011339083843006,-5.01775224717E-5,390018.324291402,6.0379E-12,1115.58776855468,2.78717275581337,6.64709937003983,-4.90695306840762
960.0,-5705941.45645983,-814093.801076466,3534827.9828446,-1906033.52929286,-5438344.14813683,3536520.12597646,4363.79070863236,-4447.67834211469,-4489.67497652977,2.45661146975536,7.0092560283458,-4.57132448731204,6764618.15467044,1.09332365015049,-0.0158521583665314,-0.201914557388897,-0.0212382545240886,-2.14811022807532,0.72683640931669,-0.570048609223604,-3.01087480198E-5,-0.0011337695110054,-5.35390109515E-5,389053.37841141,6.2989E-12,1123.27514648437,2.45661146975536,7.0092560283458,-4.57132448731204
1020.0,-5813623.90808054,-1142071.86372997,3257627.7751926,-1639987.87025946,-5692385.32183319,3259122.41890595,4500.97563166435,-4017.06216454717,-4753.34342148279,2.11440831199474,7.33909080251551,-4.21416782848072,6765430.21066501,1.0976989195633,-0.018861721286949,-0.201845541527801,-0.0231684116604643,-2.09512070477014,0.759635936089083,-0.488965225083085,-3.33029716901E-5,-0.0011336118198538,-5.68977578405E-5,388108.885308871,6.5557E-12,1130.46264648437,2.11440831199474,7.33909080251551,-4.21416782848072
1080.0,-5897287.61857739,-1463935.71045552,2965269.4701411,-1366333.36233093,-5920015.95096744,2966559.67989799,4617.31832378165,-3567.66621683965,-4994.9770015994,1.76213799724769,7.63499210202334,-3.83710898397174,6766216.31120065,1.10207418897612,-0.0222034464768794,-0.201774832975854,-0.0250521592746284,-2.03703080974181,0.788889489458547,-0.402919954835919,-3.66476593835E-5,-0.0011334340282243,-6.02528645498E-5,387199.590975188,6.805E-12,1137.12670898437,1.76213799724769,7.63499210202334,-3.83710898397174
1140.0,-5956478.29021304,-1778408.14645973,2659109.01329312,-1086337.68853256,-6120171.22883544,2660188.80118665,4712.2634802617,-3101.57107786345,-5213.43302324368,1.40143382288922,7.89550057429556,-3.44187961767957,6766960.96364358,1.10644945838892,-0.0258870462834859,-0.201702895799384,-0.0268664384921534,-1.97398111842579,0.814178265786963,-0.311991219900802,-4.01419300543E-5,-0.0011332348100249,-6.36034189763E-5,386339.747552409,7.0434E-12,1143.24523925781,1.40143382288922,7.89550057429556,-3.44187961767957
1200.0,-5990843.98807216,-2084248.8546132,2340567.70601518,-801298.878558957,-6291913.71387664,2341432.05926825,4785.35535735866,-2620.94003939704,-5407.67569137233,1.0339797872635,8.1193202627048,-3.03031004250237,6767649.59346265,1.11082472780174,-0.02992068677207,-0.201630066730935,-0.0285878584377073,-1.90634307497056,0.835089972321782,-0.216489936760809,-4.37848507987E-5,-0.0011330127975558,-6.6948495255E-5,385542.867186782,7.2674E-12,1148.79748535156,1.0339797872635,8.1193202627048,-3.03031004250237
1260.0,-6000137.3633088,-2380259.38977532,2011125.62341683,-512539.249045015,-6434437.99207396,2011770.52833944,4836.24055258262,-2128.00899230838,-5576.78177899961,0.661501720942004,8.3053287341491,-2.60432068265807,6768268.88825686,1.11519999721455,-0.0343109433458079,-0.201556508169195,-0.0301928113205992,-1.83475664618078,0.851243784821475,-0.116996707856743,-4.75754356284E-5,-0.0011327665834643,-7.02871535474E-5,384821.484802476,7.4734E-12,1153.7626953125,0.661501720942004,8.3053287341491,-2.60432068265807
1320.0,-5984217.41184778,-2665287.98639657,1672314.70843378,-221399.193452784,-6547074.71509109,1672737.16969804,4864.67023016345,-1625.07574560824,-5719.94574688326,0.28575771235815,8.45258581020572,-2.16591232786919,6768807.06343377,1.11957526662736,-0.0390627640259366,-0.201482160755142,-0.0316575911801387,-1.76013998069248,0.86231944204951,-0.0143710417531475,-5.15126442362E-5,-0.0011324947227896,-7.36184398693E-5,384186.933872262,7.6579E-12,1158.12036132812,0.28575771235815,8.45258581020572,-2.16591232786919
1380.0,-5943050.75030409,-2938234.15135171,1325711.57699077,70769.1440490944,-6629293.98276772,1325909.63210815,4870.5017584572,-1114.48886843979,-5836.48424902091,-0.0914718718574454,8.5603407238257,-1.71715545329907,6769254.05345346,1.12395053604017,-0.0441794406025962,-0.20140669685469,-0.0329585155567658,-1.6836585856624,0.868086516076109,0.0902798916576643,-5.55953807602E-5,-0.0011321957351003,-7.69413859595E-5,383649.139862718,7.8176E-12,1161.85083007812,-0.0914718718574454,8.5603407238257,-1.71715545329907
1440.0,-5876712.39533469,-3198053.01559018,972930.072584634,362608.274863546,-6680708.04421096,972902.801496992,4853.69974296528,-598.636150494794,-5925.8399760954,-0.468394517385504,8.62803769101862,-1.26017887177205,6769601.64211433,1.12832580545299,-0.0496625877740341,-0.201329476248492,-0.0340720490679199,-1.60665000629539,0.868428468380828,0.195676991573157,-5.98224925516E-5,-0.0011318681067218,-8.02550091913E-5,383216.436331677,7.9495E-12,1164.93579101562,-0.468394517385504,8.62803769101862,-1.26017887177205
1500.0,-5785386.03680754,-3443759.42046633,615613.611049785,652761.815982184,-6701073.2973957,615361.140773442,4814.33645149321,-79.932773482345,-5987.58480337402,-0.843215673020834,8.65531999068321,-0.797157924498133,6769843.54923557,1.13270107486579,-0.0555121302895017,-0.201249505253648,-0.0349749276665809,-1.5305133020835,0.863356170099092,0.300480154021395,-6.4192768953E-5,-0.0011315102930566,-8.35583125273E-5,382895.408548033,8.0511E-12,1167.35876464843,-0.843215673020834,8.65531999068321,-0.797157924498133
1560.0,-5669363.79888163,-3674431.71713069,255427.357953845,939880.947366851,-6690291.5725501,254950.862243457,4752.59163550499,439.190720425424,-6021.42221958635,-1.21414875929422,8.64203266982785,-0.330302338195959,6769975.48935312,1.1370763442786,-0.0617262980074726,-0.201165400402672,-0.0356442822746361,-1.45658518635423,0.853007572517419,0.403412535601837,-6.87049400917E-5,-0.0011311207209936,-8.68502845211E-5,382690.768973175,8.1205E-12,1169.1064453125,-1.21414875929422,8.64203266982785,-0.330302338195959
1620.0,-5529045.48640265,-3889215.25982288,-105949.717709457,1222630.84066975,-6648410.68956478,-106648.023682531,4668.75175460998,956.300583273119,-6027.18901897893,-1.57942505533808,8.58822394918962,0.138156184955258,6769995.21220876,1.14145161369142,-0.0683016286851104,-0.201075357701773,-0.036057760521164,-1.38602984460389,0.837633597154885,0.503371142816476,-7.33576756956E-5,-0.0011306977914094,-9.01298993658E-5,382605.268065347,8.1564E-12,1170.16796875,-1.57942505533808,8.58822394918962,0.138156184955258
1680.0,-5364937.31715376,-4087325.57618344,-466832.868893986,1499697.02369819,-6575624.28436498,-467749.738826736,4563.20861142053,1468.9720615589,-6004.85624184882,-1.93730346624582,8.49414532999371,0.605976599925423,6769902.52726997,1.14582688310422,-0.0752329782358924,-0.200977128395389,-0.0361936454640448,-1.31976416934322,0.817573673293059,0.599502014201092,-7.8149583937E-5,-0.0011302398817569,-9.3396116991E-5,382639.642772697,8.1581E-12,1170.53649902343,-1.93730346624582,8.49414532999371,0.605976599925423
1740.0,-5177650.14371682,-4268051.1998423,-825539.629511017,1769791.64546578,-6472270.90388184,-826670.801167743,4436.45740425822,1974.80156240172,-5954.52935199359,-2.28608015494284,8.36025033711438,1.07092130755201,6769699.30781768,1.15020215251704,-0.0825135381374552,-0.200868002079354,-0.0360309704005129,-1.25842752089754,0.793226298334666,0.691230890687443,-8.30792103117E-5,-0.0011297453487437,-9.66478832112E-5,382792.603920757,8.1258E-12,1170.208984375,-2.28608015494284,8.36025033711438,1.07092130755201
1800.0,-4967897.17217684,-4430756.15268822,-1180397.86109822,2031659.60717309,-6338832.37417475,-1181738.07634676,4289.09420736527,2471.418701133,-5876.44764495262,-2.62409797957878,8.18719180929165,1.5307689815221,6769389.46623724,1.15457742192984,-0.0901348596457809,-0.200744797924648,-0.0355496291340643,-1.20239184917064,0.765019999727134,0.778253544047855,-8.81450365582E-5,-0.0011292125310958,-9.98841299245E-5,383060.862605897,8.0604E-12,1169.185546875,-2.62409797957878,8.18719180929165,1.5307689815221
1860.0,-4736491.18866543,-4574882.06653409,-1529753.74104991,2284084.52517476,-6175931.45147896,-1531296.77063166,4121.81289322681,2956.49814104982,-5770.98288970657,-2.94975563191964,7.97581767593409,1.98332726000136,6768978.89193903,1.15895269134266,-0.0980868844763307,-0.200603864685833,-0.0347304813138132,-1.1517996209437,0.733388604562051,0.860498323733601,-9.33454796263E-5,-0.0011286397524067,-1.031037753645E-4,383439.194760194,7.9635E-12,1167.47192382812,-2.94975563191964,7.97581767593409,1.98332726000136
1920.0,-4484341.30863478,-4699949.93647059,-1871979.6468079,2525894.493075,-5984328.77137865,-1873718.31971197,3935.40151884211,3427.7711344562,-5638.63721811147,-3.2615163444016,7.72716523277804,2.4264450938088,6768475.34647756,1.16332796075546,-0.106357981646124,-0.200441090059942,-0.0335554526543285,-1.10661503268299,0.698752724996333,0.938075447054427,-9.86788906991E-5,-0.0011280253240686,-1.063057244064E-4,383920.542276445,7.8374E-12,1165.07739257812,-3.2615163444016,7.72716523277804,2.4264450938088
1980.0,-4212449.2675361,-4805561.50101739,-2205481.89164681,2755967.61164597,-5764919.11668189,-2207408.12893357,3730.73820585014,3883.03667755768,-5480.04028894619,-3.55791603430142,7.44245401902155,2.85802454602784,6767888.31559423,1.16770323016828,-0.114934990227339,-0.200251919823945,-0.0320076299483723,-1.06667665192202,0.661507650383837,1.01122489458179,-1.041435542763E-4,-0.0011273675482845,-1.094888689266E-4,384496.148443452,7.6846E-12,1162.01538085937,-3.55791603430142,7.44245401902155,2.85802454602784
2040.0,-3921905.27495935,-4891400.24713387,-2528708.26964855,2973237.25728138,-5518727.02958553,-2530813.12254384,3508.78655158545,4320.17220036648,-5295.94576468444,-3.83757078128373,7.12307747498807,3.27603187935914,6767228.82322273,1.17207849958109,-0.123803267835053,-0.20003138700914,-0.0300713507875596,-1.0317440850983,0.62201676690778,1.08027031782852,-1.097376873266E-4,-0.0011266647211565,-1.126520882196E-4,385155.724881498,7.5085E-12,1158.30517578125,-3.83757078128373,7.12307747498807,3.27603187935914
2100.0,-3613883.45708392,-4957232.04105298,-2840155.3700029,3176697.06208457,-5246901.79809661,-2842429.06206243,3270.590613119,4737.14372489581,-5087.22714701651,-4.09918357719666,6.77059359771118,3.67850783343059,6766509.21622161,1.1764537689939,-0.132946744749382,-0.199774151173983,-0.0277322878118956,-1.00153539247139,0.580609187323288,1.14558224340593,-1.154594385133E-4,-0.0011259151358498,-1.157942494691E-4,385887.646624507,7.3124E-12,1153.97021484375,-4.09918357719666,6.77059359771118,3.67850783343059
2160.0,-3289636.91441593,-5002905.38860509,-3138375.62366491,3365405.58129747,-4950711.85028661,-3140807.59678772,3017.26950873984,5132.01543795573,-4854.87302093178,-4.34155032746779,6.38671480423888,4.06357706195491,6765742.92964793,1.18082903840671,-0.142347983645447,-0.199474547623951,-0.0249775271405672,-0.975754834996438,0.537580269910761,1.20755099335579,-1.213068875025E-4,-0.0011251170858252,-1.189142082775E-4,386679.171436449,7.1002E-12,1149.03955078125,-4.34155032746779,6.38671480423888,4.06357706195491
2220.0,-2950492.42332236,-5028351.33110507,-3421984.04840772,3538490.62646421,-4631538.59282023,-3424563.01245974,2750.01168174398,5502.95863629256,-4599.98175741654,-4.56356510754183,5.97329716970923,4.42945674682022,6764944.24064396,1.18520430781953,-0.15198824496465,-0.199126646211919,-0.0217956404279323,-0.954112095569681,0.49319392267058,1.26656818332098,-1.272780443589E-4,-0.0011242688681405,-1.220108092515E-4,387516.678885527,6.8755E-12,1143.54724121093,-4.56356510754183,5.97329716970923,4.42945674682022
2280.0,-2597844.81097177,-5033582.98499177,-3689664.66126668,3695153.24540438,-4290869.73246817,-3692378.64705907,2470.06887102109,5848.26001020934,-4323.75572320513,-4.76422467989171,5.53232915355023,4.77446442001236,6764128.01534191,1.18957957723233,-0.161847558001274,-0.198724319148338,-0.0181767497816866,-0.936334709369701,0.447685871299317,1.32301506706873,-1.333708490361E-4,-0.0011233687868124,-1.250828866451E-4,388385.924183733,6.642E-12,1137.53295898437,-4.76422467989171,5.53232915355023,4.77446442001236
2340.0,-2233151.03411511,-5018694.7353183,-3940176.53022594,3834671.33273709,-3930292.12116716,-3943012.94557854,2178.74983298156,6166.32923734275,-4027.49504457908,-4.94263226252062,5.06591988972183,5.09702500617806,6763309.44913079,1.19395484664514,-0.171904797796244,-0.198261317065785,-0.0141125846144314,-0.922175459742485,0.401267332356832,1.37725597280628,-1.395831709687E-4,-0.0011224151562365,-1.281292650603E-4,389272.301411433,6.4035E-12,1131.0419921875,-4.94263226252062,5.06591988972183,5.09702500617806
2400.0,-1857923.99278714,-4983861.09499737,-4172359.439813,3956402.85739762,-3551484.1667609,-4175305.12842136,1877.41386046336,6455.70586255591,-3712.59097245519,-5.09800052240622,4.57628711447299,5.39567706381263,6762503.79786593,1.19833011605796,-0.182137767924947,-0.197731352419755,-0.0095965294085763,-0.91141624993278,0.35412874244948,1.42963532080555,-1.459128087706E-4,-0.0011214063046602,-1.311487602042E-4,390161.110569335,6.1633E-12,1124.12536621093,-5.09800052240622,4.57628711447299,5.39567706381263
2460.0,-1473726.11046209,-4929335.24347581,-4385139.14815887,4059788.69637974,-3156207.85285003,-4388180.45097294,1567.46414607208,6715.06544519397,-3380.51889827831,-5.22965376346095,4.06574483976443,5.66907817420468,6761726.09740113,1.20270538547076,-0.192523289240838,-0.197128189163603,-0.0046236613779149,-0.9038696333904,0.306443345705109,1.48047703635641,-1.523574900481E-4,-0.0011203405777016,-1.341401797036E-4,391037.822984681,5.9247E-12,1116.83911132812,-5.22965376346095,4.06574483976443,5.66907817420468
2520.0,-1082162.71233452,-4855447.2602253,-4577532.21614779,4144355.06683013,-2746300.41207744,-4580655.03496282,1250.34103873075,6943.22496307193,-3032.8310735177,-5.33702930004229,3.53669093634013,5.91600942536543,6760990.87160716,1.20708065488357,-0.20303729459495,-0.196445737503034,8.09222886103E-4,-0.899378871686845,0.258370543758033,1.53008548131173,-1.589148713314E-4,-0.00111921634191,-1.371023239751E-4,391888.339947798,5.6903E-12,1109.24548339843,-5.33702930004229,3.53669093634013,5.91600942536543
2580.0,-684875.233069122,-4762602.06996482,-4748650.39252558,4209715.55153876,-2323665.6974854,-4751840.25548001,927.51524142626,7139.14747397821,-2671.1490878581,-5.41967805519852,2.99159483915277,6.1353789735853,6760311.83418841,1.21145592429638,-0.213654929497548,-0.195678152407565,0.0067035924978631,-0.897817127179366,0.210058976894843,1.57874728306326,-1.655825381318E-4,-0.0011180319883604,-1.400339871508E-4,392699.240014045,5.463E-12,1101.41040039062,-5.41967805519852,2.99159483915277,6.1353789735853
2640.0,-283534.284463927,-4651277.11768079,-4897704.54213369,4255572.71564059,-1890265.29613681,-4900946.6708056,600.480993903222,7301.94604884813,-2297.15616031523,-5.47726448684185,2.43298559995059,6.32622473275878,6759701.59561496,1.2158311937092,-0.224350658624788,-0.194819934428938,0.0130591795347806,-0.899086194618375,0.161649343063071,1.62673363389304,-1.72358005129E-4,-0.0011167859362762,-1.429339580589E-4,393458.011070975,5.2447E-12,1093.40393066406,-5.47726448684185,2.43298559995059,6.32622473275878
2700.0,120167.387973976,-4522019.79208512,-5024008.10754967,4281719.31474495,-1448109.42795581,-5027287.4853416,270.749275991113,7430.88700325012,-1912.58929210188,-5.50956600486846,1.86344046873788,6.48771632123817,6759171.39137581,1.220206463122,-0.2350983780023,-0.193866031252524,0.0198739885969704,-0.903115025236398,0.113276981856649,1.67430277214086,-1.79238716494E-4,-0.0011154766366725,-1.458010212563E-4,394153.263915806,5.0374E-12,1085.29650878906,-5.50956600486846,1.86344046873788,6.48771632123817
2760.0,524522.032343556,-4375444.61603274,-5126980.09706649,4288039.09653147,-999247.670868638,-5130281.5385689,-60.1589437126036,7525.39246204586,-1519.2313202221,-5.51647207556204,1.28557408856095,6.61915645971798,6758730.84968615,1.22458173253482,-0.245871532619024,-0.192811938296416,0.0271443184691865,-0.90985818724542,0.0650742595910992,1.72170244974295,-1.862220463526E-4,-0.0011141025760129,-1.486339581147E-4,394774.924599705,4.8425E-12,1077.15869140625,-5.51647207556204,1.28557408856095,6.61915645971798
2820.0,927814.076185643,-4212230.2216306,-5206147.59391215,4274507.19897995,-545759.551156985,-5209455.81493626,-390.719400813652,7585.0422933544,-1118.90289824214,-5.49798320017197,0.702028258961488,6.71998203568333,6758387.81461354,1.22895700194763,-0.2566432391381,-0.191653796589687,0.0348647953726144,-0.919294326719909,0.0171727932705982,1.76917224860949,-1.93305299393E-4,-0.0011126622798709,-1.514315479551E-4,395314.403104556,4.6611E-12,1069.05615234375,-5.49798320017197,0.702028258961488,6.71998203568333
2880.0,1328327.34693572,-4033116.12649603,-5261147.78282018,4241190.14887129,-89745.0359267198,-5264447.47079282,-719.411166517242,7609.57544142869,-713.454418470391,-5.45420989898094,0.115462099758899,6.78976501668161,6758148.23430343,1.23333227136044,-0.267386413276645,-0.190388486122575,0.0430284170225365,-0.931424632757268,-0.0302944518933443,1.81694563944803,-2.004857116223E-4,-0.0011111543165902,-1.541925692317E-4,395764.736021577,4.4937E-12,1061.04638671875,-5.45420989898094,0.115462099758899,6.78976501668161
2940.0,1724352.30387735,-3838899.32617596,-5291729.49063246,4188245.46420422,366685.036822632,-5295005.37504674,-1044.72321952798,7598.89067528767,-304.757881146732,-5.38537174256091,-0.471457631593069,6.82821331090332,6758016.11478189,1.23770754077325,-0.278073901323993,-0.189013712881874,0.051626606494663,-0.946271262813258,-0.0771911634384336,1.86525168736016,-2.077604512752E-4,-0.0011095773009318,-1.569158007615E-4,396120.700870485,4.3408E-12,1053.17797851562,-5.38537174256091,-0.471457631593069,6.82821331090332
3000.0,2114193.25843796,-3630430.71647422,-5297754.23783809,4115920.86403265,821418.55559324,-5300991.16045512,-1365.16096003805,7553.04675458541,105.301286387384,-5.29179637297654,-1.05606632085012,6.835171562312,6757993.52983985,1.24208281018606,-0.288678615160377,-0.187528087871432,0.0606492747558029,-0.963875642396484,-0.123375762913462,1.91431630341828,-2.151266198772E-4,-0.0011079298977031,-1.596000229981E-4,396378.899655115,4.2022E-12,1045.48608398437,-5.29179637297654,-1.05606632085012,6.835171562312
3060.0,2496175.55888554,-3408611.35865269,-5279196.79822075,4024553.08928912,1272351.72498387,-5282379.78271933,-1679.25266142523,7472.26200094174,514.832453545123,-5.17391837918954,-1.63571155400993,6.81062176324857,6758080.66934556,1.24645807959887,-0.299173670029549,-0.185931196567872,0.0700848906335342,-0.984296513885873,-0.168699562390907,1.96436292385977,-2.225812534662E-4,-0.0011062108253563,-1.62244019346E-4,396537.809347207,4.0776E-12,1037.9951171875,-5.17391837918954,-1.63571155400993,6.81062176324857
3120.0,2868652.71427664,-3174388.6003147,-5236145.26446201,3914566.33869393,1717398.61126483,-5239259.5852346,-1985.55584587275,7356.91325602951,921.948037192195,-5.03227785778712,-2.20776349687383,6.75468350449612,6758275.90427947,1.25083334901168,-0.309532524213696,-0.184223657462312,0.0799205569775392,-1.0076075699555,-0.21300500823662,2.01561247147874,-2.301213239733E-4,-0.0011044188595502,-1.648465775145E-4,396597.797347925,3.9663E-12,1030.71936035156,-5.03227785778712,-2.20776349687383,6.75468350449612
3180.0,3230013.43131559,-2928752.06519719,-5168800.61885262,3786470.32497614,2154500.60659752,-5171831.86864898,-2282.66356041319,7207.53420940723,1324.77175188149,-4.86751851368654,-2.76962549581507,6.66761368361954,6758575.84822134,1.2552086184245,-0.319729119662018,-0.182407168569169,0.09014209179039,-1.03389446792828,-0.25612404604344,2.06828242070008,-2.377437407642E-4,-0.0011025528366634,-1.674064909065E-4,396561.100672135,3.8675E-12,1023.66668701171,-4.86751851368654,-2.76962549581507,6.66761368361954
3240.0,3578688.5370517,-2672729.52585268,-5077475.81019248,3640857.95826567,2581635.77380141,-5080409.96631591,-2569.21052317205,7024.81308887281,1721.44682326473,-4.68038522867088,-3.31874468440328,6.54980555879252,6758975.40193655,1.2595838878373,-0.329738022538668,-0.180484541018603,0.100734113163734,-1.06325098508074,-0.297876668293494,2.12258475375824,-2.454453523433E-4,-0.0011006116572504,-1.699225600393E-4,396431.768616806,3.7805E-12,1016.84124755859,-4.68038522867088,-3.31874468440328,6.54980555879252
3300.0,3913157.76035541,-2407382.67394868,-4962594.3402806,3478402.66540184,2996828.03356283,-4965417.82904726,-2843.87910817786,6809.58972066217,2110.14412475074,-4.47172112458798,-3.85262234104944,6.40178714660497,6759467.77865145,1.26395915725012,-0.339534562583141,-0.178459719067908,0.111680126933147,-1.09577404799769,-0.338069740306814,2.17872256841612,-2.532229482197E-4,-0.0010985942894309,-1.723935939955E-4,396215.569916253,3.7043E-12,1010.24633789062,-4.47172112458798,-3.85262234104944,6.40178714660497
3360.0,4231956.34589717,-2133802.80331301,-4824688.36572059,3299855.35569459,3398156.15685948,-4827388.12489914,-3105.40514157655,6562.85198098222,2489.07020102295,-4.24246423916034,-4.36882379559667,6.2242190810977,6760044.51996044,1.26833442666293,-0.349094970116707,-0.176337786054936,0.122962616049375,-1.13155736300606,-0.376496240024948,2.23688509021802,-2.610732609342E-4,-0.0010964997722023,-1.748184118978E-4,395919.866684971,3.638E-12,1003.8862915039,-4.24246423916034,-4.36882379559667,6.2242190810977
3420.0,4533681.47564992,-1853106.42069574,-4664396.32267959,3106041.04505403,3783762.5269589,-4666959.86163617,-3352.58349095363,6285.7316688431,2856.47515185142,-3.99364398303445,-4.86498781499259,6.01789213514343,6760695.5229123,1.27270969607574,-0.35839650948135,-0.174124955970417,0.134563130747072,-1.17068340694217,-0.412935091069683,2.29724087244873,-2.689929682475E-4,-0.0010943272186653,-1.771958444062E-4,395553.458608671,3.5808E-12,997.768310546875,-3.99364398303445,-4.86498781499259,6.01789213514343
3480.0,4816998.47427907,-1566430.79848859,-4482460.08344908,2897855.15119457,4151861.63717164,-4484875.54073158,-3584.27343960302,5979.49982927599,3210.66036256871,-3.72637753633667,-5.33883556917072,5.78372462101141,6761409.10478689,1.27708496548855,-0.367417607662927,-0.17182855045464,0.146462378669974,-1.21321363136116,-0.447151811337848,2.35992905849645,-2.769786954878E-4,-0.0010920758191537,-1.795247352331E-4,395126.401688887,3.5316E-12,991.901123046875,-3.72637753633667,-5.33883556917072,5.78372462101141
3540.0,5080646.77563448,-1274929.48255161,-4279721.65410985,2676259.47285945,4500748.29200459,-4281977.85221374,-3799.40384517818,5645.56154512087,3549.98607903378,-3.44186627034938,-5.78817943159174,5.52275982198075,6762172.13151208,1.28146023490136,-0.37613797682892,-0.169456961145575,0.158640314183991,-1.25917691542551,-0.478900232089016,2.425048761073,-2.850270180538E-4,-0.0010897448442566,-1.818039426705E-4,394649.806261808,3.4899E-12,986.295776367187,-3.44186627034938,-5.78817943159174,5.52275982198075
3600.0,5323445.62749345,-979767.767223945,-4057119.42253213,2442277.86595681,4828805.47993007,-4059205.91959958,-3996.97808396857,5285.45019739135,3872.87883031606,-3.14139216433355,-6.21093195015995,5.236163474658,6762970.22825188,1.28583550431417,-0.384538729507388,-0.167019597442274,0.171076226179804,-1.30855659605463,-0.50792555107903,2.4926469038104,-2.93134464072E-4,-0.0010873336477259,-1.84032341128E-4,394135.618979309,3.4546E-12,980.964965820312,-3.14139216433355,-6.21093195015995,5.236163474658
3660.0,5544299.51056711,-682118.148958217,-3815683.96580912,2196991.62955306,5134511.88538071,-3817591.10402143,-4176.07877646893,4900.82117426748,4177.83869865703,-2.826314063528,-6.6051152989921,4.92522115857426,6763788.07777438,1.29021077372699,-0.392602485153053,-0.164526819919324,0.183748823740641,-1.36127681460037,-0.533968949308244,2.56270527932242,-3.012975172037E-4,-0.0010848416692573,-1.862088226746E-4,393596.393039651,3.425E-12,975.921875,-2.826314063528,-6.6051152989921,4.92522115857426
3720.0,5742203.24575954,-383155.770175661,-3556533.42659959,1941534.61527011,5416449.00588942,-3558252.37703257,-4335.87227762763,4493.44499366972,4463.44642308615,-2.49806353106548,-6.96887138728164,4.59133530426073,6764609.79655311,1.29458604313979,-0.400313466895649,-0.161989859846489,0.19663631913492,-1.41718941775019,-0.556773904314546,2.63512807434133,-3.09512619597E-4,-0.0010822684371365,-1.883322985809E-4,393045.050351208,3.4002E-12,971.179016113281,-2.49806353106548,-6.96887138728164,4.59133530426073
3780.0,5916246.76127191,-84053.8660253109,-3280868.46925295,1677088.07510429,5673307.83799304,-3282391.27297494,-4475.61289902387,4065.19979988261,4728.37030287444,-2.15814001531382,-7.30047258979946,4.23602144913092,6765419.36370739,1.29896131255261,-0.407657587350745,-0.159420725531292,0.209716507694282,-1.47606315159657,-0.576094158539217,2.70973161206755,-3.177761749791E-4,-0.0010796135707411,-1.904017008573E-4,392494.6387112,3.3796E-12,966.748779296875,-2.15814001531382,-7.30047258979946,4.23602144913092
3840.0,6065619.48907519,214020.77135523,-2989966.82929297,1404875.2651357,5903895.09335094,-2991286.43449756,-4594.64681446654,3618.06320385723,4971.37284458053,-1.80810509842293,-7.5983328311288,3.86090338062225,6766201.06729755,1.30333658196542,-0.414622522496621,-0.156832096496393,0.222966844258896,-1.53757724303982,-0.591703049210244,2.78623841559065,-3.260845518827E-4,-0.0010768767828897,-1.924159837826E-4,391958.086679551,3.3622E-12,962.641357421875,-1.80810509842293,-7.5983328311288,3.86090338062225
3900.0,6189614.35924463,509912.294088627,-2685177.47380827,1126155.825871,6107138.90531342,-2686287.76878825,-4692.41558950052,3154.10345891761,5191.31707750221,-1.44957570253596,-7.86101856744295,3.46770690999489,6766939.92867811,1.30771185137822,-0.421197772780604,-0.154237206802328,0.236364516015292,-1.6013214792443,-0.603403602990632,2.86427771146968,-3.344340870011E-4,-0.0010740578820293,-1.943741254195E-4,391447.958765191,3.3474E-12,958.864807128906,-1.44957570253596,-7.86101856744295,3.46770690999489
3960.0,6287631.36117437,802480.245963609,-2367914.39517235,842219.96366986,6282093.986572,-2368810.23695895,-4768.45927224068,2675.46999427825,5387.17245186839,-1.08421627804242,-8.08725911863108,3.05825219204382,6767622.06951967,1.31208712079104,-0.427374710807147,-0.151649719098333,0.249886511715073,-1.66680439907252,-0.611038503696906,2.94339399461273,-3.428210886633E-4,-0.0010711567742524,-1.962751291112E-4,390976.213861525,3.3343E-12,955.425048828125,-1.08421627804242,-8.08725911863108,3.05825219204382
4020.0,6359180.64294742,1090603.9348181,-2039650.06568812,554382.461325856,6427946.2008521,-2040327.3042002,-4822.41898888067,2184.38336129191,5558.0202348573,-0.713730143016204,-8.27595583479718,2.63444469973957,6768234.99686684,1.31646239020385,-0.433146615165767,-0.149083591199681,0.263509687439492,-1.73347013993675,-0.614498840206511,3.02306420410618,-3.512418404222E-4,-0.0010681734651376,-1.981180249542E-4,390553.970505141,3.3222E-12,952.324462890625,-0.713730143016204,-8.27595583479718,2.63444469973957
4080.0,6403885.1239178,1373186.70781776,-1701908.58554288,263976.548897556,6544016.51576193,-1702364.08311352,-4854.03900073808,1683.1246745039,5703.05833124678,-0.339850245403519,-8.42618972363649,2.19826512635318,6768767.79671509,1.32083765961666,-0.438508690165466,-0.146552937128164,0.277210829255744,-1.80072298261642,-0.61373052135299,3.10272255788158,-3.596926047484E-4,-0.0010651080614051,-1.99901871244E-4,390191.283329883,3.3104E-12,949.562133789062,-0.339850245403519,-8.42618972363649,2.19826512635318
4140.0,6421482.60033693,1649160.10773557,-1356258.5602904,-27652.3320472074,6629764.3093883,-1356490.20646327,-4863.16819739049,1174.02464587972,5821.60547502239,0.0356703463337022,-8.53722737563843,1.75175857862105,6769211.24256323,1.32521292902947,-0.443458071439191,-0.144071884604632,0.29096671328382,-1.86795706864338,-0.60873745645763,-3.10139478177733,-3.681696268188E-4,-0.00106196077238,-2.016257558867E-4,389896.935832533,3.2982E-12,947.1337890625,0.0356703463337022,-8.53722737563843,1.75175857862105
4200.0,6411827.32892867,1917487.88950539,-1004305.74662913,-319152.83662092,6684790.00929114,-1004312.46814266,-4849.76101797068,659.45231372858,5913.10476051078,0.411067957410784,-8.60852524051481,1.29702342321462,6769557.83858002,1.32958819844228,-0.447993817556389,-0.141654430956017,0.30475416384459,-1.93458760987208,-0.59958102655118,-3.02347704527306,-3.766691383921E-4,-0.0010587319112599,-2.032887977739E-4,389678.255035503,3.2849E-12,945.031127929687,0.411067957410784,-8.60852524051481,1.29702342321462
4260.0,6374891.07803081,2177169.87814479,-647685.506519358,-609174.063040677,6708837.04843641,-647467.272422865,-4813.87780605268,141.803559399987,5977.12650114074,0.784577653847095,-8.63973246947312,0.836200063591958,6769801.82451146,1.33396346785509,-0.452116887929289,-0.139314299313363,0.318550110476739,-2.00007956548455,-0.586375918678572,-2.94722182438143,-3.851873617606E-4,-0.0010554218961773,-2.048901481148E-4,389540.953656993,3.2701E-12,943.24169921875,0.784577653847095,-8.63973246947312,0.836200063591958
4320.0,6310763.63982715,2427245.65119067,-288055.109974167,-896371.903653743,6701793.12774916,-287612.931845927,-4755.6846103778,-376.51051052014,6013.37041662524,1.15444236763976,-8.63069260238208,0.371459788444334,6769939.16979482,1.33833873726791,-0.455830107420128,-0.137064796859544,0.332331644680185,-2.06397035244956,-0.569282923792703,-2.87307096014491,-3.937205137683E-4,-0.0010520312510561,-2.064289917216E-4,389489.004891753,3.2532E-12,941.748901367187,1.15444236763976,-8.63069260238208,0.371459788444334
4380.0,6219652.80018546,2666798.03063738,72914.0733550556,-1179415.36769932,6663690.77914122,73578.1460925563,-4675.45244377683,-893.075254772196,6021.66715353901,1.51892184545926,-8.58144433696752,-0.0950063066646281,6769967.57787562,1.34271400668071,-0.45913811815984,-0.134918676763431,0.34607607725756,-2.12588446960212,-0.548499675062607,-2.80138107512097,-4.022648098835E-4,-0.0010485606062542,-2.079045482444E-4,389524.553895294,3.2339E-12,940.534729003906,1.51892184545926,-8.58144433696752,-0.0950063066646281
4440.0,6101883.7648991,2894956.37075543,433544.453911731,-1456992.84356106,6594707.22620909,434427.343559036,-4573.55600805798,-1405.4842098202,6001.97914112098,1.87630151840929,-8.49222149342357,-0.560998420802955,6769886.51044241,1.34708927609353,-0.462047319184245,-0.132888005333245,0.359760997077769,-2.18553951149857,-0.524250452968145,-2.73241742878118,-4.108164683157E-4,-0.0010450106989918,-2.09316073349E-4,389647.868672274,3.2122E-12,939.593322753906,1.87630151840929,-8.49222149342357,-0.560998420802955
4500.0,5957898.04315215,3110899.62903889,792160.133307054,-1727818.26855211,6495163.54274344,793257.748292261,-4450.4718867825,-1911.3507752964,5954.40077715745,2.22490137968268,-8.36345213176148,-1.02431929537415,6769697.22833414,1.35146454550634,-0.464565794591959,-0.130984035846185,0.3733643319769,-2.24274446063714,-0.496776108908579,-2.66635551305077,-4.193717141652E-4,-0.001041382373561,-2.106628598376E-4,389857.331496697,3.188E-12,938.920532226562,2.22490137968268,-8.36345213176148,-1.02431929537415
4560.0,5788251.79128949,3313859.20804701,1147094.80624311,-1990637.17426675,6365523.11228032,1148402.06029347,-4306.77620440845,-2408.31981696492,5879.15793254482,2.56308489032782,-8.19575664863977,-1.48278568187688,6769402.834663,1.35583981491915,-0.466703231036576,-0.129217090461277,0.386864412347262,-2.29739206689289,-0.46632492463075,-2.60328857788679,-4.279267835928E-4,-0.0010376765813141,-2.119442387036E-4,390149.470452426,3.1618E-12,938.507568359375,2.56308489032782,-8.19575664863977,-1.48278568187688
4620.0,5593613.62285876,3503121.55638974,1496699.61203632,-2244232.57546092,6206389.39561663,1498210.44802148,-4143.14175191627,-2894.07911909176,5776.60676163987,2.88926783618857,-7.98994462221168,-1.93423999922921,6769008.299091,1.36021508433196,-0.4684708254854,-0.127596451583321,0.400240037756139,-2.34944746888023,-0.433144920451869,-2.54323893126061,-4.364779279979E-4,-0.001033894380432,-2.131595801213E-4,390519.029373797,3.1336E-12,938.340942382812,2.88926783618857,-7.98994462221168,-1.93423999922921
4680.0,5374761.89452913,3678030.51789843,1839350.89384594,-2487430.67062811,6018503.01770854,1841058.31217215,-3960.33458653771,-3366.37060480505,5647.23181099069,3.20192696641993,-7.74701020857857,-2.37656202922604,6768520.44174528,1.36459035374478,-0.469881184303131,-0.12613026399588,0.413470546697478,-2.39893508496021,-0.397477831151517,-2.48617098523286,-4.450214181937E-4,-0.0010300369354693,-2.143082943637E-4,390959.073506351,3.1038E-12,938.403015136718,3.20192696641993,-7.74701020857857,-2.37656202922604
4740.0,5132581.48171451,3837989.41938332,2173457.82360342,-2719106.32324048,5802738.19055022,2175353.91501325,-3759.21012529879,-3823.0012344204,5491.64343119369,3.4996081885891,-7.46812601038355,-2.80768040410993,6767947.86082543,1.36896562315758,-0.470948214840902,-0.124825448998063,0.42653588933072,-2.44592538983564,-0.359554735189061,-2.43200443191716,-4.535535485656E-4,-0.001026105516678,-2.153898326475E-4,391461.127627445,3.0727E-12,938.668395996093,3.4996081885891,-7.46812601038355,-2.80768040410993
4800.0,4868060.0621217,3982462.88939576,2497469.85139682,-2938188.29422054,5560098.49408152,2499545.83400517,-3540.70876584674,-4261.85349164721,5310.57451279513,3.78093409683494,-7.15463549794098,-3.22558360475835,6767300.79781111,1.37334089257039,-0.471687010815187,-0.123687631646478,0.439416702820432,-2.49052268117277,-0.319593169206831,-2.38062644498501,-4.620706412014E-4,-0.0010221014991118,-2.16403687901E-4,392015.34310105,3.0406E-12,939.101806640625,3.78093409683494,-7.15463549794098,-3.22558360475835
4860.0,4582283.92949454,4110978.40296325,2809883.93981356,-3143664.19859243,5291712.04233863,2812130.20018861,-3305.85107994381,-4680.8953770978,5104.87658332916,4.04461066789047,-6.80804421328245,-3.62833022332732,6766590.94547326,1.37771616198321,-0.472113732834993,-0.122721082014283,0.452094388676279,-2.53285446143093,-0.277795480597049,-2.3319022820082,-4.705690499817E-4,-0.0010180263615103,-2.173493954526E-4,392610.690262387,3.0087E-12,939.74365234375,4.04461066789047,-6.80804421328245,-3.62833022332732
4920.0,4276433.36308369,4223127.55006343,3109251.54636225,-3334585.16222784,4998826.06641512,3111657.68444004,-3055.7326321606,-5078.1898454824,4875.51531477829,4.28943305571713,-6.43001007930672,-4.01405833742155,6765831.21345178,1.38209143139601,-0.472245485470108,-0.121928671140162,0.464551191319127,-2.57306268143449,-0.234348149013347,-2.28568404202033,-4.790451646164E-4,-0.0010138816849692,-2.182265336382E-4,393235.172480585,2.9788E-12,940.660461425781,4.28943305571713,-6.43001007930672,-4.01405833742155
4980.0,3951777.58059561,4318567.02830382,3394185.3202544,-3510070.15781569,4682800.94902053,3396740.19785817,-2791.51847734254,-5451.90364284489,4623.56549638928,4.51429051736681,-6.0223331425971,-4.38099396133047,6765035.47136395,1.38646670080883,-0.472100192246026,-0.121311842069128,0.47677027697449,-2.61129683202526,-0.189421823003501,-2.24181759338917,-4.874954146166E-4,-0.0010096691513976,-2.190347243245E-4,393876.058101404,2.9524E-12,941.904418945312,4.51429051736681,-6.0223331425971,-4.38099396133047
5040.0,3609669.30360574,4397019.36256249,3663365.48311514,-3669310.00228949,4345103.74748585,3666057.27583532,-2514.43738601778,-5800.31551798215,4350.20552657993,4.71817057742408,-5.58694500246402,-4.72745864285718,6764218.28888485,1.39084197022164,-0.471696469906017,-0.120870596109238,0.488735811921629,-2.64770871601586,-0.14317185298904,-2.20014784182729,-4.959162731897E-4,-0.0010053905417678,-2.197736333472E-4,394520.126158063,2.9308E-12,943.522155761718,4.71817057742408,-5.58694500246402,-4.72745864285718
5100.0,3251538.96495087,4458273.35605859,3915545.86625037,-3811571.00067992,3987301.24323346,3918362.1184279,-2225.77583945125,-6121.82379369052,4056.71147165612,4.90016256309348,-5.125898052479,-5.0518763274283,6763394.6862729,1.39521723963445,-0.471053503207548,-0.120603494169104,0.500433039102106,-2.68244865959949,-0.0957391439570296,-2.16052258219696,-5.043042610458E-4,-0.0010010477341627,-2.204429708624E-4,395153.921272575,2.9154E-12,945.558349609375,4.90016256309348,-5.125898052479,-5.0518763274283
5160.0,2878888.58786427,4502184.2784838,4149559.579737,-3936198.22363509,3611052.5564429,4152487.26228127,-1926.87182877269,-6414.95328712431,3744.45073179892,5.0594606120247,-4.64135453397634,-5.35277959882671,6762579.89925367,1.39959250904726,-0.47019092142968,-0.120507672820722,0.511848352107176,-2.71566290402984,-0.0472511925556726,-2.12279519706682,-5.126559501042E-4,-9.966427016265E-4,-2.210424916103E-4,395764.012648429,2.9075E-12,948.0576171875,5.0594606120247,-4.64135453397634,-5.35277959882671
5220.0,2493285.36698161,4528673.79762507,4364324.29086721,-4042618.40777017,3218101.36534449,4367349.86163002,-1619.10848842923,-6678.36156584561,3414.87535006876,5.19536618567871,-4.13557532350518,-5.62881533687673,6761789.15196149,1.40396777846008,-0.469128677671315,-0.120578874561253,0.522969365607479,-2.74749193272209,0.002176790340029,-2.08682645187045,-5.209679670891E-4,-9.921775098253E-4,-2.215719950904E-4,396337.251630083,2.9083E-12,951.065673828125,5.19536618567871,-4.13557532350518,-5.62881533687673
5280.0,2096354.98203726,4537729.66162162,4558847.09160419,-4130342.46981268,2810267.7705298,4561956.55802247,-1303.90759463855,-6910.84452113126,3069.5150005747,5.30729004266733,-3.61090837983955,-5.87874973741894,6761037.42398055,1.40834304787288,-0.467886931921442,-0.120811491623256,0.533784981350241,-2.7780695198672,0.0524407406803853,-2.0524856071746,-5.292369970038E-4,-9.876543145249E-4,-2.220313256481E-4,396861.022135995,2.9193E-12,954.629516601562,5.30729004266733,-3.61090837983955,-5.87874973741894
5340.0,1689774.67602491,4529405.13988167,4732228.93702555,-4198967.62746928,2389439.8458667,4735407.92073852,-982.722964045308,-7111.34123786863,2709.96969779113,5.39475357364447,-3.06977686263827,-6.10147256099032,6760339.1950397,1.4127183172857,-0.4664859387836,-0.121198622594145,0.544285448916314,-2.80752232369317,0.103446631732511,-2.01965103363109,-5.374597864732E-4,-9.830753588936E-4,-2.224203724727E-4,397323.478482721,2.9417E-12,958.798583984375,5.39475357364447,-3.06977686263827,-6.10147256099032
5400.0,1275266.13049859,4503818.23185603,4883668.63951307,-4248179.12223966,1957564.91874661,4886902.44265411,-657.033794012489,-7278.9381451255,2337.90227809522,5.45738939861499,-2.51466707394664,-6.29600045234708,6759708.15484351,1.41709358669851,-0.464945940629555,-0.12173214103181,0.554462420496001,-2.83596988451159,0.155109422421863,-1.98821048099671,-5.456331469459E-4,-9.78442970638E-4,-2.227390695064E-4,397713.765752328,2.977E-12,963.62158203125,5.45738939861499,-2.51466707394664,-6.29600045234708
5460.0,854588.171074522,4461150.65425777,5012466.4067748,-4277751.54203925,1516640.62298658,5015740.07963517,-328.337990415084,-7412.87244486493,1955.03071292219,5.49494118760189,-1.94811651246669,-6.46147922421173,6759156.87536359,1.42146885611132,-0.463287066834307,-0.122402775185265,0.5643089990037,-2.86352492158844,0.207352079358389,-1.95806112251098,-5.537539577452E-4,-9.737595589823E-4,-2.229873952664E-4,398022.218855669,3.0265E-12,969.144226074218,5.49494118760189,-1.94811651246669,-6.46147922421173
5520.0,429529.335622189,4401646.61867515,5118026.9154755,-4287549.74425633,1068705.76727828,5121325.32523562,1.85447190396382,-7512.53483650071,1563.12031598712,5.50726277296981,-1.37270241074694,-6.59718511988645,6758696.45645365,1.42584412552413,-0.461529239596274,-0.123200197831238,0.573819778907324,-2.89029385259837,0.260104679596249,-1.92910947141304,-5.618191689624E-4,-9.690276114987E-4,-2.2316537258E-4,398240.53765867,3.0918E-12,975.402465820312,5.50726277296981,-1.37270241074694,-6.59718511988645
5580.0,1900.33588716997,4325611.41247726,5199861.9158767,-4277529.38238166,615831.060343558,5203169.81610177,332.028118648119,-7577.47157712935,1163.97590143851,5.49431674396847,-0.791031104063144,-6.70252522877966,6758336.1694959,1.43021939493695,-0.459692086669179,-0.12411312511514,0.582990879201909,-2.91637748510144,0.313303595245732,-1.90127124792655,-5.698258041839E-4,-9.642496907998E-4,-2.232730682343E-4,398361.936752148,3.1739E-12,982.415405273437,5.49431674396847,-0.791031104063144,-6.70252522877966
5640.0,-426473.559509574,4233409.79609953,5257592.36589042,-4247737.04118311,160109.731002997,5260894.46648957,660.66845272803,-7607.38593468929,759.43393472583,5.45617280988985,-0.205728444821794,-6.77703737726568,6758083.13417794,1.43459466434975,-0.457794861128929,-0.125129423143822,0.591819968012173,-2.94187185199261,0.366890757203281,-1.87447126268762,-5.777709630444E-4,-9.594284311039E-4,-2.233105925425E-4,398381.26942901,3.274E-12,990.174987792968,5.45617280988985,-0.205728444821794,-6.77703737726568
5700.0,-853760.196123037,4125464.22900081,5290950.09481208,-4198309.98622116,-296351.922331962,5294231.1321633,986.268333790279,-7602.13909776103,351.354695608476,5.39300625074157,0.380568746603935,-6.82038990356229,6757942.06731276,1.43896993376255,-0.45585636808161,-0.126236220935601,0.600306278370213,-2.96686918356841,0.420812992872438,-1.84864337637309,-5.85651823601E-4,-9.545665346827E-4,-2.232780988287E-4,398295.126003635,3.3927E-12,998.638793945312,5.39300625074157,0.380568746603935,-6.82038990356229
5760.0,-1278128.23740618,4002252.93481856,5299778.9974193,-4129475.53320119,-751444.021887092,5303023.80436562,1307.33427437902,-7561.75059754439,-58.3855519704972,5.30509672372958,0.965220457305125,-6.83238171336608,6757915.1381679,1.44334520317537,-0.453894898006875,-0.127420028213291,0.608450614785765,-2.99145902952037,0.475021431336482,-1.82373059556848,-5.934656445215E-4,-9.496667682033E-4,-2.231757828335E-4,398101.906677171,3.5302E-12,1007.72692871093,5.30509672372958,0.965220457305125,-6.83238171336608
5820.0,-1697754.88192318,3864307.8137991,5284035.75814931,-4041550.04141639,-1203062.61233793,5287229.33357398,1622.3926790662,-7486.39827504249,-467.902409174403,5.1928275650378,1.54559095806765,-6.81294289451572,6758001.95233384,1.44772047258818,-0.451928166247508,-0.128666856453161,0.616255350308143,-3.01572956715717,0.529470968643207,-1.79968537272461,-6.01209767083E-4,-9.447319589753E-4,-2.230038820425E-4,397801.868752084,3.686E-12,1017.32458496093,5.1928275650378,1.54559095806765,-6.81294289451572
5880.0,-2110833.5754327,3712212.20793997,5243790.10311753,-3934937.5338064,-1649119.14711647,5246917.68080664,1929.99605606994,-7376.41779420692,-875.311247724206,5.05668554897188,2.11905655963638,-6.76213596782693,6758199.66797619,1.45209574200099,-0.449973258022567,-0.129962341595345,0.623724413870923,-3.03976916077632,0.584119785381338,-1.77647019553427,-6.088816169756E-4,-9.397649911144E-4,-2.227626749414E-4,397397.147283168,3.8595E-12,1027.29309082031,5.05668554897188,2.11905655963638,-6.76213596782693
5940.0,-2515581.6978563,3546598.52204286,5179224.57552202,-3810127.94456478,-2087549.93112527,5182271.69202299,2228.72922309592,-7232.30166748311,-1278.73520614194,4.89726088678364,2.68301418849055,-6.68015761778981,6758503.22811841,1.4564710114138,-0.448046578273959,-0.131291866887644,0.630863267809475,-3.06366827629724,0.638928908314106,-1.75405858220717,-6.164787059085E-4,-9.347688016349E-4,-2.224524802003E-4,396891.747463169,4.0494E-12,1037.48388671875,4.89726088678364,2.68301418849055,-6.68015761778981
6000.0,-2910248.20205586,3368145.70256218,5090633.82831373,-3667694.99440585,-2516325.48887719,5093586.38949677,2517.21551174989,-7054.69773262,-1676.31329563401,4.71524711485838,3.23489114092844,-6.56734054351711,6758905.67476426,1.46084628082662,-0.446163805659897,-0.132640684469883,0.637678875544335,-3.08752191292816,0.693861807235702,-1.73243665106882,-6.239986330155E-4,-9.297463764805E-4,-2.220736557902E-4,396291.506454434,4.2543E-12,1047.75354003906,4.71524711485838,3.23489114092844,-6.56734054351711
6060.0,-3293121.17716495,3177576.57606825,4978423.4276148,-3508293.69401453,-2933459.82292104,4981267.77364354,2794.12295192961,-6844.4070060696,-2066.20860883209,4.51144047408412,3.77215609746384,-6.42415495322543,6759398.49918422,1.46522155023942,-0.444339850077082,-0.133994034492719,0.644179659526366,-3.11143280305099,0.748884017117907,-1.71160551834014,-6.314390860583E-4,-9.247007465079E-4,-2.216265980364E-4,395604.022240479,4.4728E-12,1057.97351074218,4.51144047408412,3.77215609746384,-6.42415495322543
6120.0,-3662535.30488645,2975655.05034014,4843108.1616488,-3332657.47801884,-3337019.52296739,4845831.13006667,3058.17039476163,-6602.38084245401,-2446.61659543178,4.28673843334115,4.29233118031514,-6.25120922719533,6759971.98019757,1.46959681965224,-0.442588813209677,-0.135337260776353,0.65037544964038,-3.13551577598091,0.803962773551441,-1.69158491972159,-6.387978424267E-4,-9.19634983432E-4,-2.211117406111E-4,394838.547537998,4.7032E-12,1068.0361328125,4.28673843334115,4.29233118031514,-6.25120922719533
6180.0,-4016879.17364866,2763183.18327379,4685309.85290187,-3141594.97486451,-3725132.6824468,4687898.83954332,3308.13351556259,-6329.71735030717,-2815.77334331825,4.04213714625901,4.79300459619125,-6.04924939355489,6760615.46942748,1.47397208906505,-0.440923951742872,-0.13665592222135,0.656277422361492,3.12328138381383,0.859066645666117,-1.67241869173633,-6.460727699345E-4,-9.145521957462E-4,-2.205295534698E-4,394005.847906482,4.9439E-12,1077.85522460937,4.04213714625901,4.79300459619125,-6.04924939355489
6240.0,-4354602.41355634,2540998.12741821,4505754.67544271,-2935986.42175558,-4095997.57716143,4508197.6928837,3542.8506310359,-6027.65704601818,-3171.96378821844,3.77872781354615,5.27184328908762,-5.81915726371919,6761317.59777787,1.47834735847786,-0.43935764301642,-0.137935899358693,0.661898031053633,3.09842768252564,0.914165143666511,-1.65418316833964,-6.532618274124E-4,-9.09455524628E-4,-2.198805417361E-4,393118.024806789,5.1933E-12,1087.36352539062,3.77872781354615,5.27184328908762,-5.81915726371919
6300.0,-4674222.61501695,2309968.96042348,4305269.9840825,-2716779.7377104,-4447891.06064446,4307555.71735327,3761.22826877451,-5697.57776215093,-3513.52977259375,3.49769210214242,5.72660506214261,-5.561947301847,6762066.39742713,1.48272262789067,-0.43790135300679,-0.139163495551378,0.667250927895196,3.07290705635935,0.969228264952994,-1.63700030742623,-6.603630650991E-4,-9.043481398407E-4,-2.191652445381E-4,392188.306263102,5.4492E-12,1096.5087890625,3.49769210214242,5.72660506214261,-5.561947301847
6360.0,-4974331.99559378,2070993.41347159,4084780.6665535,-2484986.27113975,-4779176.63270069,4086898.52584752,3962.24644035337,-5340.98885422125,-3838.87788494433,3.20029689809602,6.15514979856408,-5.2787624910422,6762849.35407067,1.48709789730349,-0.436565606602003,-0.140325532429677,0.672350878014618,3.04645550964623,1.02422591749708,-1.62105879455844,-6.673746248315E-4,-8.992332356429E-4,-2.183842338011E-4,391230.809680648,5.7097E-12,1105.24938964843,3.20029689809602,6.15514979856408,-5.2787624910422
6420.0,-5253603.78243555,1824994.51054869,3845305.0334648,-2241676.24074019,-5088312.14076825,3847245.20359114,4144.96358757367,-4959.52476483941,-4146.48702993549,2.88788870976631,6.55544966512677,-4.97086955682303,6763653.42054838,1.49147316671629,-0.435359960168093,-0.141409439163981,0.677213666521466,3.01871076736448,1.07912710846434,-1.60664921202997,-6.742947400369E-4,-8.941140267158E-4,-2.175381130009E-4,390260.282967633,5.9724E-12,1113.55126953125,2.88788870976631,6.55544966512677,-4.97086955682303
6480.0,-5510798.28070529,1572917.13118234,3587950.26311176,-1987973.88977101,-5373857.0773247,3589703.74945217,4308.52118925578,-4554.93800315561,-4434.91570146951,2.56188798463492,6.92559844142916,-4.63965389182361,6764465.0319356,1.4958484361291,-0.43429297640846,-0.142403335171376,0.681855999225226,2.98915053657609,1.13389867891852,-1.59422533182399,-6.811217355319E-4,-8.889937441187E-4,-2.166275158828E-4,389291.831170596,6.2345E-12,1121.38549804687,2.56188798463492,6.92559844142916,-4.63965389182361
6540.0,-5744768.60092907,1315724.50827629,3313907.41932776,-1725052.37413278,-5634479.43965014,3315466.09007446,4452.14802825944,-4129.09158273777,-4702.80894828305,2.22378347651922,7.26382030837528,-4.28661440484831,6765270.16197692,1.50022370554192,-0.433372201502679,-0.143296105839146,0.686295397941774,2.95697917026737,1.18850312289769,-1.58451704248874,-6.878540271288E-4,-8.838756312814E-4,-2.156531051493E-4,388340.636232789,6.4931E-12,1128.72595214843,2.22378347651922,7.26382030837528,-4.28661440484831
6600.0,-5954466.01950666,1054394.67139191,3024446.0608954,-1454128.40453258,-5868962.1201865,3025802.6853601,4575.16412187493,-3683.95093827317,-4948.90502966758,1.87512664033161,7.56847849743332,-3.91335833213258,6766054.45179955,1.50459897495472,-0.432604144498705,-0.14407747085476,0.690550091389003,2.92090423964356,1.24289443172909,-1.57875340046004,-6.944901210565E-4,-8.787629400451E-4,-2.146155711224E-4,387421.677231368,6.7451E-12,1135.548828125,1.87512664033161,7.56847849743332,-3.91335833213258
6660.0,-6138944.94658338,789916.844769276,2720908.46122956,-1176456.66296593,-6076208.79625386,2722056.74402881,4676.98431281565,-3221.57531881666,-5172.04175528379,1.51752588637495,7.83808413270512,-3.52159585579484,6766803.42646977,1.50897424436754,-0.431994258938891,-0.144738044776966,0.694638902759154,2.87865468209304,1.29700926738928,-1.57914413548537,-7.010286132004E-4,-8.736589267577E-4,-2.135156303847E-4,386549.457668135,6.987E-12,1141.83154296875,1.51752588637495,7.83808413270512,-3.52159585579484
6720.0,-6297367.47433848,523287.808989161,2404703.45778181,-893324.014278751,-6255249.28724701,2405638.06871883,4757.12150491833,-2744.10864041153,-5371.16248905345,1.1526404365663,8.07130541546306,-3.11313423039709,6767502.79675987,1.51334951378035,-0.431546926736663,-0.145269389574854,0.69858113511415,2.82581208119174,1.35074561885354,-1.59004805096214,-7.074681881649E-4,-8.68566848435E-4,-2.123540244028E-4,385737.745293052,7.2152E-12,1147.55261230468,1.1526404365663,8.07130541546306,-3.11313423039709
6780.0,-6429007.47712677,255508.235683336,2077299.95240274,-606043.53500842,-6405244.34627488,2078016.55188173,4815.18951145393,-2253.76977900154,-5545.32177699574,0.782173513846595,8.26697706115343,-2.68987106282006,6768138.82648486,1.51772478319316,-0.431265444389258,-0.145664058999139,0.702396455771063,2.75248083524045,1.40390157278246,-1.62130256020684,-7.138076181672E-4,-8.634899589933E-4,-2.111315181385E-4,384999.328771869,7.4261E-12,1152.69091796875,0.782173513846595,8.26697706115343,-2.68987106282006
6840.0,-6533254.2336213,-12420.9939239363,1740220.08693093,-315948.38408385,-6525489.85236626,1740715.34675786,4850.90546947641,-1752.84229703216,-5693.69053844735,0.407864662647698,8.42410967031131,-2.25378643549156,6768698.73342019,1.52210005260597,-0.431152011705952,-0.145915634818428,0.706104780819425,2.63129872477714,1.45595005116652,-1.70021284605576,-7.200457617666E-4,-8.584315055618E-4,-2.098488986523E-4,384345.794487006,7.6163E-12,1157.22583007812,0.407864662647698,8.42410967031131,-2.25378643549156
