time,gePosition_m_X,gePosition_m_Y,gePosition_m_Z,eiPosition_m_X,eiPosition_m_Y,eiPosition_m_Z,eiVelocity_m_s_X,eiVelocity_m_s_Y,eiVelocity_m_s_Z,eiAccel_m_s2_X,eiAccel_m_s2_Y,eiAccel_m_s2_Z,semiMajorAxis_m,gast_rad,eulerAngle_rad_Roll,eulerAngle_rad_Pitch,eulerAngle_rad_Yaw,eulerAngleWrtEi_rad_Roll,eulerAngleWrtEi_rad_Pitch,eulerAngleWrtEi_rad_Yaw,bodyAngularRateWrtEi_rad_s_Roll,bodyAngularRateWrtEi_rad_s_Pitch,bodyAngularRateWrtEi_rad_s_Yaw,altitudeMsl_m,airDensity_kg_m3,ambientTemperature_dgK,eiGravitation_m_s2_X,eiGravitation_m_s2_Y,eiGravitation_m_s2_Z
0.0,-1428622.3120664244,4163200.465251461,5136049.672040268,-4292653.410000001,955168.4699999995,5139356.569999999,109.64966299999837,-7527.726490000003,1484.521489,5.528986569357204,-1.230267887409868,-6.619549899945847,6758662.11722885,1.0233194459853856,1.1333718620180008E-16,-0.20245819323134245,-1.0625361206418758E-16,-2.4715939053549034,-0.03718896447613391,-1.4289931348885438,-2.541098841762901E-21,-0.0011344542745508244,6.640738306473715E-19,398252.76383814117,3.1125051777514152E-12,976.2183377126014,5.528986569357204,-1.230267887409868,-6.619549899945847
60.0,-1789712.6496693231,3920255.313014938,5213136.603979294,-4276130.763605977,501640.15063717,5216447.947710037,440.89950442692015,-7584.043045623148,1084.1893967259218,5.508416690933063,-0.6462017022795102,-6.719712406156255,6758662.117263558,1.027694715234372,-2.364808448180004E-6,-0.20245604260068706,-1.0060057576102117E-4,-2.4720592963923615,0.01612042366582495,-1.386661179676411,-7.049068602884885E-7,-0.001134477987848552,-3.302852372536554E-6,398335.16146815225,3.2027933494634593E-12,983.3970713722676,5.508416690933063,-0.6462017022795102,-6.719712406156255
120.0,-2144732.034179484,3662345.312100285,5266057.2408811925,-4239785.46485045,45786.44926321737,5269357.680101298,770.1498563623215,-7605.207758913191,678.7772427016229,5.462360218417053,-0.05898932412298177,-6.788817501974943,6758662.117263754,1.0320699844833425,-2.5118996869358944E-5,-0.20244904674290035,-4.0025750252177127E-4,-2.4703079486899955,0.06928029515576355,-1.3441021824371808,-1.5682193694862947E-6,-0.001134495908219746,-6.615080444255327E-6,398280.4831682919,3.312437785884772E-12,991.3056589075245,5.462360218417053,-0.05898932412298177,-6.788817501974943
180.0,-2492166.1237640986,3390599.002331461,5294562.856727812,-4183783.2576410873,-410279.48079395323,5297837.089568896,1095.876880431999,-7591.112907333936,270.1592543331094,5.3910150982249325,0.5286657408489094,-6.826529477988574,6758662.117263805,1.0364452537322815,-9.179690947654712E-5,-0.2024364134796095,-8.945341278621645E-4,-2.4663158457456267,0.12219457297363527,-1.3010762842737915,-2.5897433370929423E-6,-0.0011345075693188359,-9.935939052550294E-6,398085.37867539906,3.4421149831319345E-12,999.8931987452185,5.3910150982249325,0.5286657408489094,-6.826529477988574
240.0,-2830524.933552639,3106195.8515889547,5298517.62697371,-4108380.890263944,-864442.8940837071,5301750.470799711,1416.5720940053022,-7541.813194315001,-139.7744838473685,5.2946950956695495,1.1140548245265907,-6.832655726427426,6758662.117263699,1.0408205229812044,-2.2590163250111635E-4,-0.20241740163893795,-0.0015773854988107342,-2.4600313118618438,0.17476349162083676,-1.257339171451772,-3.769247684377168E-6,-0.0011345124437284078,-1.326467640190879E-5,397748.76810527267,3.592037165894134E-12,1009.0715707172562,5.2946950956695495,1.1140548245265907,-6.832655726427426
300.0,-3158349.2713430426,2810361.1253333627,5277899.32207716,-4013924.986168083,-1314597.2005823464,5281075.783796071,1730.7492879029699,-7457.525693790667,-549.1266557877701,5.173828662823245,1.694476279421763,-6.8071479549074185,6758662.117263534,1.0451957922300796,-4.50791258307782E-4,-0.20239134369685724,-0.0024411868485425085,-2.451374639570682,0.2268815292002877,-1.2126385786794334,-5.106463907630985E-6,-0.0011345099435635,-1.660053348917089E-5,397271.88371581887,3.7619269577527545E-12,1018.720424929598,5.173828662823245,1.694476279421763,-6.8071479549074185
360.0,-3474217.088184347,2504360.5974030187,5232799.482005453,-3900850.502029811,-1758653.6879591248,5235904.827551302,2036.9513609482026,-7338.629062575655,-956.0013936463747,5.028957298814672,2.2672476926627403,-6.750102774949119,6758662.117263451,1.049571061478955,-7.895653603506366E-4,-0.20235766593429697,-0.0034767697021103497,-2.440237430158893,0.278435208533253,-1.1667109306417667,-6.601085475735118E-6,-0.001134499421152991,-1.9942743537003316E-5,396658.2718183805,3.951071213678441E-12,1028.698598390408,5.028957298814672,2.2672476926627403,-6.750102774949119
420.0,-3776749.7162207305,2189495.12426598,5163423.069596519,-3769678.778999817,-2194551.1746032713,5166442.892262069,2333.757040934114,-7185.66202021345,-1358.512973837627,4.860733403783158,2.829718081055151,-6.6617616559412225,6758662.117263528,1.0539463307277828,-0.0012649521694656602,-0.2023159053541337,-0.004673465427678956,-2.4264817776228673,0.32930071575534214,-1.1192781943571282,-8.252767163891883E-6,-0.0011344801697988547,-2.329053143748681E-5,395913.75463680236,4.1584323751530145E-12,1038.858809178122,4.860733403783158,2.829718081055151,-6.6617616559412225
480.0,-4064617.966290806,1867095.105377847,5070087.602939864,-3621015.1948572937,-2620265.549525399,5073007.890244936,2619.787461713582,-6999.321098976094,-1754.7944910956342,4.669917629703795,3.379280015619046,-6.54251023744045,6758662.117263541,1.0583215999766105,-0.001899196958013265,-0.20226572268144488,-0.006019156022459259,-2.4099394927543343,0.3793412918773781,-1.0700450871338973,-1.0061124325700758E-5,-0.0011344514246144544,-2.6643113207726744E-5,395046.35253835376,4.382772734383866E-12,1049.0613796841412,4.669917629703795,3.379280015619046,-6.54251023744045
540.0,-4336548.058010609,1538514.8526825637,4953221.769248266,-3455546.4266073867,-3033819.1555005293,4956028.968034219,2893.7125663718657,-6780.45766982112,-2143.0064719012585,4.457375733389263,3.913381622974215,-6.3928769950802,6758662.117263681,1.0626968692254064,-0.0027139521545046855,-0.2022069108547717,-0.007500331876111431,-2.390411662844495,0.428404365851138,-1.018696889845236,-1.2025732105981924E-5,-0.0011344123634425183,-2.9999695459422932E-5,394066.1676898198,4.622747463448048E-12,1059.183722962798,4.457375733389263,3.913381622974215,-6.3928769950802
600.0,-4591327.355415764,1205126.8926016837,4813363.52501586,-3274037.334847693,-3433289.972264222,4816044.604464059,3154.2573068264433,-6530.074253295372,-2521.3453884110613,4.22407493916957,4.4295384100799025,-6.213531257909683,6758662.117263821,1.0670721384741706,-0.0037301697227666605,-0.20213939852498958,-0.00910215622272443,-2.3676689847490815,0.4763184212478097,-0.9648982634153678,-1.414612459698505E-5,-0.0011343621078542846,-3.335947488433026E-5,392985.23081535555,4.876942339722863E-12,1069.1244959579026,4.22407493916957,4.4295384100799025,-6.213531257909683
660.0,-4827809.881716004,868316.2240770397,4651157.689593077,-3077327.4829964424,-3816820.5572081567,4653700.201873655,3400.207610716839,-6249.320127606398,-2888.052033975427,3.971079821038902,4.925344858161557,-6.00528057768836,6758662.117263929,1.0714474077229348,-0.0049679963471757,-0.20206324819768814,-0.010808535965096913,-2.3414535056237398,0.5228896292523043,-0.9082936684165336,-1.6421793940852895E-5,-0.0011342997242302917,-3.672163775756346E-5,391817.3133511939,5.143856633126539E-12,1078.8032686845766,3.971079821038902,4.925344858161557,-6.00528057768836
720.0,-5044921.587314979,529474.5563698203,4467353.041636093,-2866327.3062018766,-4182626.7018546243,4469745.179903342,3630.4160871057197,-5939.486249347102,-3241.419721450652,3.699547716436417,5.398485731225292,-5.769067453526695,6758662.117263813,1.075822676973096,-0.0064466719695275825,-0.20197864878103344,-0.012602198524870921,-2.311482662738315,0.5678983472287795,-0.8485102496251709,-1.8852189381439027E-5,-0.0011342242249244607,-4.0085359460701E-5,390577.7078899342,5.4218479104338886E-12,1088.1574714559642,3.699547716436417,5.398485731225292,-5.769067453526695
780.0,-5241665.345982761,189994.55031634023,4262798.930210197,-2642013.9464403368,-4529005.7634147275,4265029.583672148,3843.8074433145907,-5601.9995056416565,-3579.802265801665,3.4107236862724006,5.846747044373206,-5.505965418268323,6758662.117263894,1.0801979462217968,-0.008184432218005981,-0.2018859024434336,-0.014464774358775644,-2.2774568236568653,0.6110956857903639,-0.785164361492129,-2.143671626881366E-5,-0.0011341345695120662,-4.3449804026641554E-5,389282.9803872165,5.709060323504258E-12,1097.138323469861,3.4107236862724006,5.846747044373206,-5.505965418268323
840.0,-5417125.654908279,-148735.9131661044,4038441.4146198016,-2405426.7719394886,-4854344.631961328,4040500.2204222456,4039.383586169939,-5238.416319765404,-3901.6217129707566,3.1059350383148954,6.268026637247306,-5.217174496153905,6758662.117263808,1.0845732154704657,-0.010198415260947852,-0.2017854058234886,-0.016376884762897285,-2.239071852012533,0.6522004999653718,-0.7178732380708669,-2.417473502001461E-5,-0.0011340296661230072,-4.681412370818589E-5,387950.6981453875,6.003354973306814E-12,1105.7069030484847,3.1059350383148954,6.268026637247306,-5.217174496153905
900.0,-5570473.015381515,-485339.4139137816,3795318.949300653,-2157662.600639416,-5157127.295167793,3797196.340979706,4216.228382038663,-4850.415635563619,-4205.3757776557295,2.786585433596691,6.660344298343842,-4.90401604455905,6758662.11726375,1.0889484847191346,-0.01250457359785779,-0.20167762578484244,-0.018318234580677634,-2.1960384656091896,0.6908973697255794,-0.6462735555571122,-2.7065560039844733E-5,-0.0011339083728610687,-5.017745857229368E-5,386599.13809212495,6.3022552359459865E-12,1113.8309307707082,2.786585433596691,6.660344298343842,-4.90401604455905
960.0,-5700967.971936009,-818454.599282424,3534557.6323229396,-1899870.6488993056,-5435941.964182729,3536244.8845954095,4373.512051287682,-4439.791309223358,-4489.644953510082,2.454148598060777,7.02185138670767,-4.5679269959548625,6758662.117263839,1.0933237539677718,-0.015117591274528072,-0.20156307004968568,-0.02026770942408195,-2.1481101246443552,0.7268363965059521,-0.570048609286927,-3.010845860572329E-5,-0.001133769499310478,-5.3538936121975884E-5,385246.9803148925,6.6029147119878E-12,1121.4824120403077,2.454148598060777,7.02185138670767,-4.5679269959548625
1020.0,-5807964.789049274,-1146741.6939093375,3257366.038212906,-1633247.2280823467,-5689487.726016075,3258855.307889999,4510.495174212038,-4008.4439401363825,-4753.099260347982,2.1101616642250702,7.350839898632217,-4.210453519667108,6758662.11726384,1.0976990232163775,-0.018050806979574046,-0.201442253188287,-0.022203477014553056,-2.09512058408835,0.7596359203570676,-0.48896522548725607,-3.330264972084668E-5,-0.0011336118081304552,-5.689767094776573E-5,383912.9921885502,6.9021117559641735E-12,1128.636054005597,2.1101616642250702,7.350839898632217,-4.210453519667108
1080.0,-5890914.745862619,-1468887.8899295256,2965029.657886113,-1359030.212979097,-5916580.689813687,2966314.0207134667,4626.532287040762,-3558.3721756852374,-4994.504594216517,1.7562181701713797,7.645750928493694,-3.833244126480092,6758662.11726385,1.1020742924649671,-0.021316143429956955,-0.20131565857652975,-0.02410309224957415,-2.037030670305896,0.7888894703336407,-0.40291995598099883,-3.664730294011757E-5,-0.0011334340167386992,-6.025276441070258E-5,382615.7087277111,7.1962721391371354E-12,1135.2682817483478,1.7562181701713797,7.645750928493694,-3.833244126480092
1140.0,-5949369.030874317,-1783612.5956353887,2658904.9704889953,-1078493.3072652544,-6116159.596575227,2659978.45373445,4721.075048339307,-3091.6635277856,-5212.728647683577,1.3939607456439347,7.905182474741516,-3.4380422426233155,6758662.117263791,1.1064495617135248,-0.02492404341642937,-0.20118369705696734,-0.025943605600513973,-1.9739809588076325,0.8141782427666634,-0.31199122237698246,-4.014153717352721E-5,-0.0011332347990845191,-6.360330435874117E-5,381373.1149924541,7.481519686664953E-12,1141.3566677724714,1.3939607456439347,7.905182474741516,-3.4380422426233155
1200.0,-5982981.220169905,-2089672.5211993416,2340413.173854372,-792940.1323134243,-6287290.864227551,2341270.7844843576,4793.6749579905945,-2610.4847418874824,-5406.746369389095,1.02507351743316,8.127896544365615,-3.0266782831547165,6758662.117263785,1.110824830962067,-0.02888341281851528,-0.20104666314948064,-0.02770167444228972,-1.9063428938437597,0.8350899448856627,-0.21648994137975475,-4.3784419471897355E-5,-0.0011330127875123163,-6.6948364878482E-5,380202.33646586345,7.753753155184097E-12,1146.8796097072827,1.02507351743316,8.127896544365615,-3.0266782831547165
1260.0,-5991509.324476491,-2385866.5808051154,2011033.6020761319,-503698.16668942914,-6429173.042491344,2011671.350381829,4843.985612933164,-2117.071761860956,-5575.644933807703,0.6512742685042469,8.312825511865528,-2.6010612581774453,6758662.1172636105,1.115200100210593,-0.0332015708462412,-0.20090468975899822,-0.029353676915350468,-1.8347564423277372,0.8512437524473696,-0.11699671566363395,-4.7574963800073817E-5,-0.001132766574715915,-7.028700608407667E-5,379119.3432942327,8.008745735882938E-12,1151.8161109323678,0.6512742685042469,8.312825511865528,-2.6010612581774453
1320.0,-5974817.392155417,-2671040.5913507002,1672296.8603886291,-212112.56454944555,-6541140.654660569,1672711.7789441713,4871.764485969544,-1613.7193367389573,-5718.628194281823,0.2743063874746843,8.459077691861458,-2.163169948669263,6758662.117263746,1.1195753694590873,-0.03788420770525146,-0.2007577024047045,-0.030875827907378993,-1.760139752981449,0.8623194042315315,-0.014371054008784676,-5.151212980288934E-5,-0.0011324947157839095,-7.361827394514277E-5,378138.674125167,8.242260602959972E-12,1156.1454952602837,0.2743063874746843,8.459077691861458,-2.163169948669263
1380.0,-5932876.657173606,-2944091.748800418,1325777.7090841157,80460.11809198098,-6622667.406244351,1325967.8669409165,4876.874216213462,-1102.7703176367183,-5835.020594683582,-0.10406935298003454,8.565942088003155,-1.7150436919208156,6758662.117263585,1.123950638707566,-0.04293534982158938,-0.20060537405443996,-0.03224429673197302,-1.6836583329895896,0.8680864723402063,0.09027987352938614,-5.5594821569395363E-5,-0.0011321957303366327,-7.694120015547216E-5,377273.1849932885,8.450190257354586E-12,1159.8476063837018,-0.10406935298003454,8.565942088003155,-1.7150436919208156
1440.0,-5865766.223110978,-3203972.864268052,973087.7296051825,372658.259637231,-6673368.743386666,973052.2416488329,4859.28340211447,-586.604695294425,-5924.2705175611845,-0.48208314843275024,8.632892284733733,-1.2587728196344252,6758662.117263558,1.1283259079560126,-0.04835733270452784,-0.2004470816887828,-0.03343532606136234,-1.6066497274965046,0.868428418293915,0.19567696606816562,-5.982188640103175E-5,-0.0011318681047543617,-8.025480204426597E-5,376533.8282883516,8.628721067740914E-12,1162.9037832394765,-0.48208314843275024,8.632892284733733,-1.2587728196344252
1500.0,-5773673.276353833,-3449696.3429993847,615867.8071983999,663121.5416685751,-6693003.747059431,615606.8386174911,4819.066890466814,-67.62843056848301,-5985.9530492924,-0.8579646038072505,8.659589452752693,-0.7964887945978794,6758662.11726378,1.1327011772044275,-0.05415078146984785,-0.20028186573426332,-0.034425351645926076,-1.5305129958301156,0.863356113268872,0.30048011965268345,-6.419211358961567E-5,-0.0011315102944968168,-8.355808253158966E-5,375929.46629277884,8.774492640908653E-12,1165.2976259458096,-0.8579646038072505,8.659589452752693,-0.7964887945978794
1560.0,-5656892.823793788,-3680337.890599989,255780.46559941187,950497.3198237787,-6681476.35221964,255295.23143884452,4756.405557366029,451.7378681902874,-6019.772145601614,-1.2299512200547251,8.64588444363309,-0.3303540944655963,6758662.117263655,1.1370764464528427,-0.06031459899693434,-0.2001083935000149,-0.03519112232443653,-1.4565848510564992,0.8530075085810214,0.40341249099048543,-6.870423321115365E-5,-0.0011311207265133868,-8.685003012965487E-5,375466.72312018776,8.88474183959905E-12,1167.0155520130434,-1.2299512200547251,8.64588444363309,-0.3303540944655963
1620.0,-5515826.952570919,-3895039.9321026434,-105497.90987091008,1233446.966245609,-6638835.884394636,-106205.1500760372,4671.585579702366,969.0703656074319,-6025.56218378537,-1.5962968821468666,8.591818954000864,0.13744810646407613,6758662.11726393,1.1414517157012258,-0.06684596164848074,-0.19992492771992781,-0.035709819790250216,-1.3860294783389648,0.8376335257590589,0.5033710867570542,-7.335691494164512E-5,-0.0011306978017434951,-9.012961899148203E-5,375149.8781169661,8.957423584719302E-12,1168.0472239999676,-1.5962968821468666,8.591818954000864,0.13744810646407613
1680.0,-5350983.611670241,-4093014.730789748,-466284.9236931968,1510652.1530619964,-6565276.909507628,-467210.8761834153,4564.997198458113,1481.9534613206697,-6003.288891101447,-1.9552803033901422,8.497625744909358,0.6047244045423817,6758662.117263856,1.1458269849495775,-0.07374032244561093,-0.19972930124742516,-0.0359591775433318,-1.319763769820403,0.8175735940680819,0.5995019456897288,-7.814876690119967E-5,-0.0011302398977062703,-9.339580900841958E-5,374980.80293831864,8.991300971293399E-12,1168.3858885935279,-1.9552803033901422,8.497625744909358,0.6047244045423817
1740.0,-5162974.917483282,-4273547.195079813,-824900.0583770187,1780821.046510724,-6461138.3961588135,-826040.4102906894,4437.132977792048,1987.9912365973864,-5953.049642012473,-2.3052133806361637,8.363727907501284,1.069281728492205,6758662.11726409,1.1502022541979289,-0.08099142156716267,-0.19951889887417099,-0.03591759840934546,-1.2584270854582613,0.7932262108674792,0.6912308089147328,-8.307833453287465E-5,-0.001129745371178121,-9.664754595789299E-5,374958.9435991883,8.985999005041797E-12,1168.0286536478518,-2.3052133806361637,8.363727907501284,1.069281728492205
1800.0,-4952514.987763043,-4435997.363232317,-1179672.5615470815,2042694.3816441353,-6326902.193003992,-1181022.0008321023,4288.585566622522,2484.8188281851058,-5875.073120288278,-2.6444494148668087,8.190737171726221,1.5289379395715081,6758662.117264087,1.154577523446217,-0.08859130402440638,-0.19929064714186714,-0.03556426996742935,-1.2023913748140231,0.7650199035359799,0.7782534483659987,-8.814409952277346E-5,-0.001129212560956912,-9.988376170267421E-5,375081.3478429781,8.942018786052282E-12,1166.9767222191758,-2.6444494148668087,8.190737171726221,1.5289379395715081
1860.0,-4720417.310734258,-4579802.557123463,-1528949.2937678988,2295051.388032573,-6163190.827321126,-1530501.5337927872,4120.044972147189,2970.1136720262034,-5769.718345368773,-2.9713911518662646,7.97945126068149,1.9815324132363568,6758662.117263873,1.1589527926945367,-0.09653034435736293,-0.19904101289556284,-0.034879277180241725,-1.1517991043654334,0.7333884990751024,0.8604982136109712,-9.334447876801457E-5,-0.0011286397907108526,-1.0310337444284818E-4,375342.7372116598,8.860711867487423E-12,1165.235597365465,-2.9713911518662646,7.97945126068149,1.9815324132363568
1920.0,-4467591.658426252,-4704479.19789572,-1871102.4990533716,2536715.537534104,-5970764.634284799,-1872850.3078046867,3932.2953574398325,3441.60655979927,-5637.47306581731,-3.2844985982810435,7.730850299059515,2.4249365448182485,6758662.117263731,1.163328061942793,-0.1047972781994759,-0.19876601118511833,-0.03384371148125483,-1.1066144703153056,0.69875260953399,0.9380753220280313,-9.867782339924313E-5,-0.001128025371910028,-1.0630528902155463E-4,375735.6222485491,8.744217452363273E-12,1162.815267470586,-3.2844985982810435,7.730850299059515,2.4249365448182485
1980.0,-4195040.555600841,-4809624.277851506,-2204537.46028001,2766560.0860057487,-5750518.22987436,-2206472.694010684,3726.211377918664,3897.092451935809,-5478.951526154048,-3.582296569299122,7.44609229012356,2.8570641216104926,6758662.117263876,1.1677033311910492,-0.11337924057632914,-0.19846122296289617,-0.03243977553614898,-1.0666760399706068,0.6615075241447885,1.011224754214142,-1.0414241786440697E-4,-0.0011273676068379852,-1.0948839728543218E-4,376250.45836172736,8.59536772151168E-12,1159.7303787914143,-3.582296569299122,7.44609229012356,2.8570641216104926
2040.0,-3903855.317896619,-4894916.48457286,-2527700.002203928,2983513.3817969738,-5503476.343692698,-2529813.6433753003,3502.7540740714867,4334.44099180548,-5294.891616805075,-3.8633819254584276,7.126507681559069,3.2758815040767795,6758662.117263866,1.1720786004407024,-0.12226181081453286,-0.19812182285548596,-0.03065088286821885,-1.031743419568909,0.622016628956666,1.0802701616736838,-1.0973647908054696E-4,-0.0011266647916807339,-1.1265157850058733E-4,376875.8390378057,8.417568630078068E-12,1156.0003996206397,-3.8633819254584276,7.126507681559069,3.2758815040767795
2100.0,-3595211.6749731065,-4960116.974899759,-2839083.8054666896,3186563.9149858803,-5230789.031251164,-2841366.0048060073,3262.9663403245354,4751.606667159103,-5086.151420322009,-4.12643045771534,6.773593046393911,3.6794175596507417,6758662.1172639225,1.176453869688895,-0.13142906397505283,-0.19774261709725888,-0.028461751516759483,-1.0015346691897078,0.5806090365814109,1.145582070985465,-1.1545815566030553E-4,-0.0011259152196897828,-1.1579369982475348E-4,377598.7223476028,8.214664774368149E-12,1151.649778589752,-4.12643045771534,6.773593046393911,3.6794175596507417
2160.0,-3270364.996709366,-5005069.797913495,-3137237.4958652956,3374765.0825825976,-4933726.288458371,-3139677.618340282,3007.96799233813,5146.638566662713,-4853.705170382026,-4.3702033818556245,6.389003910894605,4.065773293798234,6758662.11726375,1.180829138937088,-0.14086362873727493,-0.1973180915251992,-0.02585849090107192,-0.9757540496197552,0.5375801051454844,1.2075508041420135,-1.2130552721989913E-4,-0.0011251171844158384,-1.1891361683615348E-4,378404.6860418796,7.99079733074347E-12,1146.7080976223094,-4.3702033818556245,6.389003910894605,4.065773293798234
2220.0,-2930645.1423243717,-5029701.96789978,-3420771.474249989,3547239.6463320926,-4613672.094123311,-3423358.1487428937,2738.9504572796536,5517.689681436374,-4598.638643353695,-4.593553405591957,5.974546766852588,4.433131124642007,6758662.117263678,1.1852044081852489,-0.150546751704111,-0.1968424693327399,-0.02282868106065176,-0.9541112435923883,0.49319374248527525,1.2665679767285074,-1.27276603775158E-4,-0.001124268983008961,-1.2201017411943106E-4,379278.2060185061,7.750263624187087E-12,1141.2102168894203,-4.593553405591957,5.974546766852588,4.433131124642007
2280.0,-2577450.9544826583,-5034023.189671533,-3688364.453694319,3703183.8612840762,-4272117.909213144,-3691085.6261397647,2457.1711137490524,5863.025703916537,-4322.14400537565,-4.7954303342598115,5.532170310947399,4.779763749511321,6758662.117263681,1.1895796774333782,-0.16045836811660452,-0.19630977807973962,-0.019361443481933964,-0.9363337861272697,0.44768567412300503,1.3230148424509525,-1.3336932523221547E-4,-0.0011233689195811263,-1.250822059088316E-4,380202.9525460732,7.497385709869326E-12,1135.1964033390461,-4.7954303342598115,5.532170310947399,4.779763749511321
2340.0,-2212244.4221518645,-5018125.240351955,-3938769.6720502656,3841871.2549594273,-3910655.6643919265,-3941612.6617842806,2163.947309993982,6181.03327907144,-4025.5141409202497,-4.974886183851121,5.063955958822982,5.10404255423451,6758662.117263604,1.1939549466814758,-0.170577178982335,-0.19571392526256068,-0.015447502762678377,-0.9221744604115485,0.40126711643191115,1.3772557294570509,-1.395815609793E-4,-0.001122415308626273,-1.2812853678865834E-4,381162.0983757469,7.236393614880611E-12,1128.712423943344,-4.974886183851121,5.063955958822982,5.10404255423451
2400.0,-1836544.5377538058,-4982181.013232793,-4170820.7496438855,3962656.038714689,-3530970.26997282,-4173772.308695904,1860.650090834848,6470.227665997847,-3710.136491683841,-5.131079773211731,4.572107686123091,5.404445518841243,6758662.117263362,1.1983302159295892,-0.18088073464455326,-0.19504878155098368,-0.011079238432622875,-0.9114151695324676,0.3541285058189084,1.4296350579652717,-1.45911109585885E-4,-0.0011214064784925953,-1.3114798245079525E-4,382138.6327438614,6.971326792613138E-12,1121.8095674222495,-5.131079773211731,4.572107686123091,5.404445518841243
2460.0,-1451920.8757384024,-4926443.2308488125,-4383437.163678459,4064976.1347799455,-3134831.684839459,-4386483.53872377,1548.6976653138179,6729.259771189937,-3377.486437329335,-5.263280770523253,4.0589412529320334,5.679564576541213,6758662.1172631215,1.2027054851776549,-0.19134552480464193,-0.19430827062278005,-0.006250726339160671,-0.9038684667839211,0.3064430861982848,1.4804767532220668,-1.5235569861536146E-4,-0.001120340774901873,-1.3413935050899154E-4,383115.6752710509,6.7059550961795175E-12,1114.544531982435,-5.263280770523253,4.0589412529320334,5.679564576541213
2520.0,-1059986.9211670426,-4851242.835875751,-4575629.31287742,4148355.804409284,-2724086.5831100848,-4578756.309554758,1229.548648470303,6956.922518273319,-3029.120252091007,-5.37087317267256,3.5268728718284543,5.928112386371035,6758662.117262893,1.207080754425705,-0.20194707500607786,-0.19348646435886052,-9.577691118766745E-4,-0.8993776135865955,0.25837025897554966,1.5300851770514052,-1.5891298455711204E-4,-0.0011192165645095562,-1.3710144136927545E-4,384076.783884825,6.443718399035634E-12,1106.9790819166121,-5.37087317267256,3.5268728718284543,5.928112386371035
2580.0,-662393.1781890404,-4756987.069870708,-4746503.148007749,4212407.864623403,-2300649.659320739,-4749696.19729538,904.695111820913,7152.156522710727,-2666.667673515775,-5.453358199741056,2.9784073830442996,6.14892848371304,6758662.117263034,1.211456023673723,-0.21266004954865453,-0.19257768201474498,0.00480208465224273,-0.8978157721557415,0.21005866419203706,1.5787469568358838,-1.655805528836544E-4,-0.0011180322384994209,-1.4003304915575178E-4,385006.25112379633,6.187682135342129E-12,1099.1793385541841,-5.453358199741056,2.9784073830442996,6.14892848371304
2640.0,-260820.0894451569,-4644157.251212832,-4895264.346160918,4256835.483128506,-1866494.6146767875,-4898508.57249488,575.6554780767643,7314.05504388035,-2291.8241216407437,-5.510356590589521,2.416126003000995,6.340984776951874,6758662.117263057,1.2158312929217412,-0.2234583607580269,-0.19157659185725776,0.011029532698041722,-0.8990847371145414,0.16164899953314332,1.626733284873975,-1.7235591823825752E-4,-0.001116786216206091,-1.429329626908337E-4,385889.38350883476,5.94050483814534E-12,1091.214546834112,-5.510356590589521,2.416126003000995,6.340984776951874
2700.0,143029.20159355775,-4513306.264870618,-5021222.0090203695,4281433.543150293,-1423644.8684579192,-5024502.299830336,243.9672963575031,7441.868190977303,-1906.3426086846384,-5.541610289329864,1.842673714746745,6.503390362802124,6758662.117263078,1.2202065621697118,-0.23431528446621624,-0.19047831365765086,0.017723522973355804,-0.9031134595896304,0.11327660431316593,1.6743023995557396,-1.7923652475808143E-4,-0.0011154769487581812,-1.4579996652862371E-4,386712.75907845434,5.704413656481348E-12,1083.1551765771155,-5.541610289329864,1.842673714746745,6.503390362802124
2760.0,547436.2125313662,-4365055.777806099,-5123791.867792876,4286089.5721141035,-974164.0399493165,-5127092.944124756,-88.82006534097776,7535.00636334963,-1512.025380847203,-5.546983516331773,1.260746370528293,6.635395637271537,6758662.117263368,1.2245818314176822,-0.24520358147881935,-0.1892785203558372,0.02488126893006516,-0.9098565077184486,0.06507384455122375,1.7217020529106424,-1.8621974653759734E-4,-0.0011141029227348628,-1.4863284204012791E-4,387464.45866635384,5.481185261560592E-12,1075.0703149440953,-5.546983516331773,1.260746370528293,6.635395637271537
2820.0,950674.5747476036,-4200093.194922557,-5202498.980015199,4270784.230315265,-520146.2473089114,-5205805.4679046925,-421.15277340327447,7593.042910135683,-1110.7153350548285,-5.5264632212622065,0.6730775778897305,6.736395683772866,6758662.117263267,1.228957100665621,-0.2560956247031452,-0.18797353717330165,0.03249827597956439,-0.9192925275442045,0.017172336938938285,1.7691718269970735,-1.93302888236618E-4,-0.0011126626638277254,-1.514303685485506E-4,388134.26703827677,5.272132588102086E-12,1067.024508669574,-5.5264632212622065,0.6730775778897305,6.736395683772866
2880.0,1351017.5429795403,-4019168.3714670045,-5256979.9060464455,4235591.357949742,-63706.27055876762,-5260276.408304817,-751.4798905178648,7615.715998373312,-704.2872544637585,-5.48015891946966,0.0824254412960591,6.805932924511725,6758662.117263236,1.2333323699135281,-0.26696353150130686,-0.18656043643855466,0.04056837864221888,-0.9314227081904216,-0.030294953638488917,1.8169451927411138,-2.0048318583690242E-4,-0.0011111547404998605,-1.5419132451286992E-4,388713.8405904402,5.07810171436274E-12,1059.0744947570563,-5.48015891946966,0.0824254412960591,6.805932924511725
2940.0,1746745.527601981,-3823090.098701872,-5286984.355703999,4180677.58109168,393030.37359064433,-5290255.523775883,-1078.2607094010714,7602.92968307322,-294.6389072238443,-5.4083019167682265,-0.5084407686572564,6.843699025926721,6758662.117263334,1.2377076391614352,-0.2777793007134421,-0.18503712641341954,0.04908378775587635,-0.9462692072148854,-0.0771917150554503,1.865251215550472,-2.077578075508229E-4,-0.001109577767633935,-1.5691448875757952E-4,389196.83892703435,4.899485935630288E-12,1051.266504449275,-5.4083019167682265,-0.5084407686572564,6.843699025926721
3000.0,2136153.615315564,-3612722.380463227,-5292376.2981856875,4106301.479405693,847937.3971140743,-5295606.903739108,-1399.9720218681816,7554.754177065109,116.31794657906309,-5.311243931302545,-1.096753946862765,6.849536053577569,6758662.117263367,1.2420829084093103,-0.28851495366691715,-0.18340243246627183,0.05803514695291173,-0.9638734503247907,-0.12337636920228408,1.9143158069140116,-2.1512385488513597E-4,-0.001107930410160243,-1.5959864174624946E-4,389579.0182786995,4.736263349874406E-12,1043.6348654372987,-5.311243931302545,-1.096753946862765,6.849536053577569
3060.0,2517559.044031379,-3388980.518923177,-5273134.531118165,4012812.3205528506,1298897.698270263,-5276309.537029006,-1715.1152874249187,7471.425322689641,526.6665947450982,-5.189455124667876,-1.679762415546827,6.823436876434034,6758662.117263284,1.246458177657154,-0.29914267836544894,-0.18165616902401355,0.06741159746374106,-0.9842941802208787,-0.16870022849001826,1.9643624036208192,-2.2257836386233953E-4,-0.00110621138665568,-1.6224256689639454E-4,389858.28538146877,4.588059056302318E-12,1036.202345052307,-5.189455124667876,-1.679762415546827,6.823436876434034
3120.0,2889308.597991526,-3152827.028461662,-5229352.707271163,3900648.3683721907,1743813.2637041027,-5232457.337667972,-2022.2236663830404,7353.343271605545,934.4944146209841,-5.0435215577802115,-2.254743047219354,6.765544824976541,6758662.117263216,1.2508334469049975,-0.3096349759219972,-0.1797992008580679,0.07720085018768406,-1.0076050900499054,-0.21300573960854688,2.015611929182118,-2.3011830640163708E-4,-0.0011044194729047832,-1.6484505193281945E-4,390034.71110055165,4.454225369838289E-12,1028.98214667681,-5.0435215577802115,-2.254743047219354,6.765544824976541
3180.0,3249785.889584775,-2905267.397038559,-5161238.820159993,3770334.77399206,2180614.9678294174,-5164258.629200378,-2319.8688835286193,7201.070383071637,1337.9018720684892,-4.87414209011759,-2.8190141815402,6.676152611824159,6758662.117262988,1.2552087161527934,-0.31996480819422746,-0.1778334924065727,0.08738926386855286,-1.033891837791326,-0.2561248484458399,2.068281858937242,-2.3774059186093348E-4,-0.0011025535054128392,-1.6740489027653358E-4,390110.5037524621,4.333927528951025E-12,1021.9809570669006,-4.87414209011759,-2.8190141815402,6.676152611824159
3240.0,3597418.494901438,-2647345.714831581,-5069114.152412006,3622481.061027237,2607272.223011667,-5072035.091468759,-2606.667889577431,7015.328355026832,1735.0114338574238,-4.682124743859266,-3.3699482712763023,6.555700527735572,6758662.117262921,1.2595839854005895,-0.3301057454722285,-0.17576214401035717,0.09796192815351308,-1.0632482015946396,-0.29787754772964087,2.1225841762677238,-2.454420687406669E-4,-0.001100612384861933,-1.6992088246597115E-4,390089.9427433536,4.226221560342898E-12,1015.2022112234538,-4.682124743859266,-3.3699482712763023,6.555700527735572
3300.0,3930684.9108182797,-2380140.1901701107,-4953411.693377107,3457778.2179432143,3021802.4350430337,-4956220.176320662,-2881.2892890239486,6796.99460609933,2123.9763504897674,-4.468382557123466,-3.9049841952706914,6.404773929748415,6758662.11726291,1.2639592546483536,-0.3400321129926842,-0.17358941413771795,0.10890275027206223,-1.0957711091669748,-0.3380707029522181,2.178721980347689,-2.5321952654973394E-4,-0.0010985950795000315,-1.7239183760712356E-4,389979.2737943917,4.130115130118706E-12,1008.6488624039231,-4.468382557123466,-3.9049841952706914,6.404773929748415
3360.0,4248121.302299165,-2104758.5729606412,-4814674.035009838,3276995.4125089846,3422280.219601583,-4817357.001283583,-3142.4595045180486,6547.097930309988,2502.9892675782344,-4.233928952920389,-4.421639179434818,6.224100041895434,6758662.117262981,1.268334523896086,-0.34971913498480356,-0.171320726887055,0.1201945440874356,-1.131554268231833,-0.3764972921215698,2.236884498423974,-2.6106969783309014E-4,-0.0010965006284530438,-1.7481657484901388E-4,389786.5676665841,4.04460838121923E-12,1002.3252728542768,-4.233928952920389,-4.421639179434818,6.224100041895434
3420.0,4548328.009637467,-1822333.5058585578,-4653550.757521472,3080976.345000548,3806846.336795074,-4656095.732717823,-3388.9686495639517,6266.813449674489,2870.2906252337834,-3.979872652596563,-4.917520270167938,6.014544092357166,6758662.117263095,1.2727097931452471,-0.35914307492152014,-0.16896266428929366,0.13181912030250534,-1.170680157310186,-0.4129362387843421,2.2972402857894596,-2.6898926036001265E-4,-0.001094328144950574,-1.7719392488069714E-4,389521.54491253605,3.968716823409112E-12,996.2381717796494,-3.979872652596563,-4.917520270167938,6.014544092357166
3480.0,4829975.786562574,-1534017.8233537453,-4470795.318687477,2870635.258457967,4173716.302501126,-4473190.4723451985,-3619.676083123337,5957.4568931356625,3224.1768064424546,-3.707412164431905,-5.390335308252466,5.777104814041045,6758662.1172630545,1.2770850623929477,-0.36828137063014005,-0.16652294316413838,0.14375737668420194,-1.2132102299196004,-0.4471530605793533,2.3599284881371108,-2.769748394712426E-4,-0.0010920768194548358,-1.795227314458349E-4,389195.3697731918,3.901480932564905E-12,990.396839012284,-3.707412164431905,-5.390335308252466,5.777104814041045
3540.0,5091811.741378991,-1240979.8189314432,-4267261.462985542,2646952.6258273143,4521188.63701171,-4269495.663342878,-3833.515621592206,5620.478233260637,3563.007997119206,-3.4178298796643487,-5.837903355126264,5.512909338416943,6758662.117263052,1.2814603316406326,-0.3771127629342488,-0.16401037653002776,0.15598938727935496,-1.2591733674191545,-0.4789015882812827,2.4250482207382253,-2.850230105826665E-4,-0.0010897459226833829,-1.8180185287072211E-4,388820.41689005424,3.841967525608917E-12,984.8127514613292,-3.4178298796643487,-5.837903355126264,5.512909338416943
3600.0,5332664.954828716,-944398.5000100484,-4043899.16892181,2410970.535231425,4847652.71346126,-4045962.0343749737,-4029.500385598956,5257.454714901851,3885.215722392476,-3.112485809556145,-6.25816452744671,5.223207514971242,6758662.117263069,1.2858356008883016,-0.38561741653549136,-0.16143481980766358,0.16849448973143472,-1.308552909069909,-0.5079270188929683,2.4926464099508947,-2.931303018425132E-4,-0.001087334808515668,-1.8403016360149743E-4,388410.0150118659,3.789267161934362E-12,979.4989180729531,-3.112485809556145,-6.25816452744671,5.223207514971242
3660.0,5551451.749796103,-645458.8502573873,-3801750.154967928,2163787.795906305,5151596.170645038,-3803632.1020007683,-4206.727261123344,4870.083312545528,4189.310025684324,-2.7928109981903386,-6.649189199991076,4.90936569086628,6758662.117263076,1.2902108701359387,-0.39377703190534874,-0.15880710229188055,0.18125136997382468,-1.3612729985651626,-0.5339705323602226,2.5627048511381054,-3.0129319693820793E-4,-0.0010848429167741361,-1.8620655574613773E-4,387978.172326674,3.742490619933959E-12,974.4690775455053,-2.7928109981903386,-6.649189199991076,4.90936569086628
3720.0,5747180.589665412,-345347.1183470653,-3541942.9664749736,1906554.7885056024,5431611.85710905,-3543635.2538428344,-4364.380956539979,4460.172655340323,4473.886259284553,-2.4603006464906354,-7.009186541135864,4.572859987302125,6758662.117263191,1.29458613938356,-0.4015749470441467,-0.15613894459310634,0.19423814375557136,-1.417185484729314,-0.5567756048478647,2.635127733601895,-3.0950813804852975E-4,-0.0010822697758700454,-1.8832994061670542E-4,387539.2884399565,3.700766378875802E-12,969.7368750673437,-2.4603006464906354,-7.009186541135864,4.572859987302125
3780.0,5918956.583835012,-45246.15177601162,-3265687.667738841,1640468.084516439,5686404.275792187,-3267182.43670769,-4501.7376393410705,4029.634460818404,4737.631457356335,-2.1165069835201806,-7.336512349388879,4.215269110684736,6758662.117263036,1.2989614086311496,-0.40899622806877955,-0.1534428629625088,0.2074324346501221,-1.4760591153326363,-0.5760959771131179,2.7097313826810443,-3.1777152893592685E-4,-0.0010796150053052236,-1.903992502672643E-4,387107.85832929594,3.663240170108913E-12,965.3150858683078,-2.1165069835201806,-7.336512349388879,4.215269110684736
3840.0,6065985.580690317,253669.20619726356,-2974270.1650672564,1366764.8604389846,5914795.501018519,-2975560.4755281075,-4618.168138463692,3580.474520086583,4979.330264638819,-1.763031921429149,-7.629676163661287,3.838266738006428,6758662.11726291,1.3033366778787392,-0.4160277477127692,-0.15073206160953215,0.2208114483915539,-1.5375731182127148,-0.5917049844306248,2.7862383228925056,-3.2607973817320903E-4,-0.0010768783180206882,-1.9241343902274072E-4,386698.1738335093,3.6290770481134317E-12,961.2149187920353,-1.763031921429149,-7.629676163661287,3.838266738006428
3900.0,6187577.830196454,550236.639059577,-2669046.1882279036,1086717.1331605462,6115730.542248671,-2670126.050526126,-4713.1407003350105,3114.7832787775797,5197.870396507228,-1.4015195305186097,-7.887347624144249,3.443613516863572,6758662.117263019,1.307711947126297,-0.42265825095922505,-0.1480203142986187,0.23435204358247727,-1.6013172804660891,-0.6034056513184207,2.864277781249864,-3.344291024980794E-4,-0.0010740595225837463,-1.9437148499400414E-4,386324.0283584589,3.597466010911168E-12,957.4454111110767,-1.4015195305186097,-7.887347624144249,3.443613516863572
3960.0,6283151.200191062,843310.7822380423,-2351434.9590465324,801625.8436037175,6288282.131696834,-2352299.3613858838,-4786.2232889347315,2634.726059316512,5392.2476085007265,-1.03364837077342,-8.108362064740568,3.033148721275331,6758662.117263119,1.312087216373823,-0.42887840717277187,-0.14532183666631757,0.24803079899531666,-1.666800139687575,-0.6110406593694472,2.9433942519511795,-3.428159302885336E-4,-0.0010711585252051532,-1.962723915743739E-4,385998.4305051037,3.5676269039236864E-12,954.0129132571733,-1.03364837077342,-8.108362064740568,3.033148721275331
4020.0,6352233.932424264,1131767.5349668427,-2022912.577159788,512814.81624367204,6431654.915685969,-2023557.5084617333,-4837.0854223456,2142.5329710818146,5561.570155914129,-0.6611237159146082,-8.29172532198894,2.6087816049477,6758662.117263011,1.3164624856213492,-0.43468084825298325,-0.14265115083083935,0.2618240778570727,-1.7334658307508202,-0.6145010952959364,3.023064672140493,-3.5123650515126305E-4,-0.001068175331579069,-1.9811518891275145E-4,385733.33223167754,3.5388191225846402E-12,950.9206557779345,-0.6611237159146082,-8.29172532198894,2.6087816049477
4080.0,6394466.926396479,1414508.2435890741,-1685005.154017682,221624.6224777085,6545189.032432371,-1685427.6221376755,-4865.499540413602,1640.4885558249848,5705.062726555414,-0.28566970555092513,-8.436617749267281,2.1724824938704295,6758662.117263132,1.3208377548688435,-0.44006019249032174,-0.14002294397372103,0.2757080896475803,-1.8007186307129806,-0.6137328659677173,3.1027232566655254,-3.5968708961483517E-4,-0.0010651100485381758,-1.9989893535859557E-4,385539.3769510964,3.5103514592414657E-12,948.1683880892643,-0.28566970555092513,-8.436617749267281,2.1724824938704295
4140.0,6409605.5410772255,1690463.7418785025,-1339281.7271685072,-70593.62391145773,6628363.061809146,-1339479.7723923686,-4871.341900255842,1130.9212162769134,5822.069832287135,0.09097853961305222,-8.542397428765764,1.7262736601584459,6758662.1172632165,1.325213024116306,-0.4450130539688073,-0.1374519226558828,0.28965895005317444,-1.867952676447272,-0.6087398790719374,-3.101393836163142,-3.6816392891860883E-4,-0.0010619628855173837,-2.0162271887396005E-4,385425.67263191316,3.4815923097438395E-12,945.7520776192919,0.09097853961305222,-8.542397428765764,1.7262736601584459
4200.0,6397520.90664564,1958598.2348279422,-987346.9876457712,-362484.51082342473,6680796.335528993,-987319.6914109593,-4854.592998429994,616.1924762108263,5912.0586474797865,0.4670828053072346,-8.608602577242909,1.2722200188684638,6758662.117263175,1.3295882933637686,-0.4495380375263809,-0.13495266468525263,0.30365273979753155,-1.9345831745868496,-0.599583514426587,-3.0234758412344145,-3.766632548880913E-4,-0.0010587341558201192,-2.032856584079211E-4,385399.59452629124,3.4519793659691357E-12,943.6636574834226,0.4670828053072346,-8.608602577242909,1.2722200188684638
4260.0,6358200.740456448,2217913.0132352486,-630833.8539149523,-652694.5830539279,6702250.599084291,-630581.3427232961,-4815.3375206054825,98.68612037003756,5974.621284998999,0.8409096406205349,-8.634953144936812,0.8124196891758934,6758662.117263043,1.3339635626111994,-0.4536357194335046,-0.13253947038373068,0.3176655631133937,-2.0000750789529937,-0.5863784583279757,-2.947220354891473,-3.8518128988663603E-4,-0.0010554242776814845,-2.048869052287346E-4,385466.6215858073,3.4210278791387457E-12,941.8908100080704,0.8409096406205349,-8.634953144936812,0.8124196891758934
4320.0,6291749.6635083,2467449.987325696,-271395.92632519995,-939878.5803794756,6692631.01968772,-270919.3708354663,-4753.763821549935,-419.2027373891812,6009.4765028177335,1.2107381519284917,-8.621351610166938,0.3489944607893153,6758662.117262834,1.3383388318585985,-0.4573086141310339,-0.1302262151055796,0.3316736066253476,-2.0639658014222073,-0.5692855014356024,-2.873069222413747,-3.9371425083314053E-4,-0.0010520337751235692,-2.064256442092134E-4,385630.2099665544,3.3883365888449397E-12,940.416771571299,1.2107381519284917,-8.621351610166938,0.3489944607893153
4380.0,6198389.015759557,2706295.0285805957,89300.14364649962,-1222705.6304640612,6651986.53735205,89998.53433609735,-4670.162940156099,-935.0786096322797,6016.470836778238,1.574867702457086,-8.567882975135296,-0.11591979415405246,6758662.117262713,1.3427141011059978,-0.4605611275016986,-0.12802620483842747,0.34565319938403505,-2.125879836324624,-0.5485022770267783,-2.8013790699396792,-4.0225835327489605E-4,-0.0010485632785986031,-2.079010950609186E-4,385891.70627944643,3.3536605303022875E-12,939.2248987103214,1.574867702457086,-8.567882975135296,-0.11591979415405246
4440.0,6078456.170693119,2933581.109879089,449582.33487512945,-1499865.368878636,6580509.559120198,450499.32372278674,-4564.927156086794,-1446.5565668660474,5995.579157421846,1.9316254871965066,-8.474813971230084,-0.580182724212321,6758662.117262778,1.347089370353365,-0.46339949730690677,-0.12595203667279922,0.3595808747261955,-2.185534774492739,-0.5242530660073125,-2.7324151596615596,-4.1080981550429917E-4,-0.0010450135254164979,-2.0931251351293177E-4,386250.30242405675,3.3170925281264194E-12,938.3111440366106,1.9316254871965066,-8.474813971230084,-0.580182724212321
4500.0,5932403.3515785625,3148491.2350062756,807780.9542531014,-1770073.9589724694,6478534.9993052,808912.2914946051,-4438.548096395467,-1951.273097927686,5946.904651149048,2.279373953995907,-8.342591484730635,-1.0416590781157438,6758662.117262827,1.3514646396007006,-0.46583172156966945,-0.12401546585313449,0.3734334345353861,-2.2427395955531444,-0.49677872042466154,-2.666352985288962,-4.1936486270796527E-4,-0.0010413853599539162,-2.106591924310735E-4,386703.03298497124,3.2788539007683903E-12,937.6705444157876,2.279373953995907,-8.342591484730635,-1.0416590781157438
4560.0,5760795.953895271,3350261.149533464,1162236.3160875735,-2032079.984888541,6346538.671401883,1163576.7591087676,-4291.614402199984,-2446.8968528559853,5870.678228267568,2.616518042815529,-8.171840216250319,-1.4982282228304613,6758662.11726291,1.3558399088480522,-0.46786747579383475,-0.12222728103608273,0.38718801635879596,-2.2973870473183986,-0.4663275227997788,-2.6032857976540926,-4.279197311363991E-4,-0.0010376797336433129,-2.1194046287373864E-4,387244.8152785086,3.239229076265605E-12,937.2934437184899,2.616518042815529,-8.171840216250319,-1.4982282228304613
4620.0,5564310.380374659,3538181.826025869,1511306.368996298,-2284670.191670314,6185135.040092213,1512849.7067621583,-4124.808967130653,-2931.13922272542,5767.257362721289,2.9415122162695115,-7.963359589511055,-1.9477935633970904,6758662.117262824,1.360215178095356,-0.4695180200617974,-0.12059718925664034,0.4008221636791235,-2.349442267041208,-0.43314749426860855,-2.543235904797048,-4.364706722821401E-4,-0.001033897704740094,-2.131556950806422E-4,387868.5312518832,3.1985547628473216E-12,937.1655819510736,2.9415122162695115,-7.963359589511055,-1.9477935633970904
4680.0,5343731.39708105,3711601.717472989,1853374.2364212968,-2526675.047157038,5995074.344467688,1855113.3183468212,-3938.9057608527114,-3401.7647119244857,5637.1243704743065,3.2528672557506804,-7.718119927155745,-2.3882918287205888,6758662.117263067,1.3645904473426438,-0.4707960971214105,-0.11913371197900992,0.4143138994854927,-2.3989296722658677,-0.39748037040751055,-2.486167718178053,-4.4501395705425916E-4,-0.0010300404378679091,-2.1430429939102135E-4,388565.14957116544,3.1571990106475122E-12,937.267635867393,3.2528672557506804,-7.718119927155745,-2.3882918287205888
4740.0,5099949.020871968,3869928.7737744977,2186855.637361985,-2756974.1012092642,5777239.1062289905,2188782.406490527,-3734.766252470635,-3856.6010594811223,5480.884135640621,3.5491567985851264,-7.437257913279225,-2.8177021885015248,6758662.117263249,1.3689657165913447,-0.471715822698112,-0.11784409344418925,0.4276418031031316,-2.445919737262155,-0.3595572304048852,-2.4320009287873914,-4.5354587993686054E-4,-0.0010261092033424862,-2.1538572708812906E-4,389323.88541481865,3.1155080545355997E-12,937.572519354384,3.5491567985851264,-7.437257913279225,-2.8177021885015248
4800.0,4833954.95042441,4012632.217084933,2510206.154535109,-2974501.118737628,5532640.039192559,2512311.6848708303,-3513.3354500602845,-4293.549067275209,5299.261295512616,3.8290235928042304,-7.122071364206559,-3.234055167520238,6758662.11726328,1.373340985838585,-0.4722925693205582,-0.11673422236038503,0.44078509007015315,-2.4905167594946627,-0.3195956115355845,-2.380622708785218,-4.6206276311924093E-4,-0.0010221053762748888,-2.1639947116707547E-4,390132.3947392017,3.0737924005241265E-12,938.0454034725185,3.8290235928042304,-7.122071364206559,-3.234055167520238
4860.0,4546838.554956153,4139244.0725813718,2821928.317898982,-3178248.9640246555,5262411.378921709,2824202.855721853,-3275.63757394609,-4710.592094323124,5093.096897631979,4.091185447251245,-6.77401333079671,-3.6354413245157655,6758662.11726303,1.3777162550858253,-0.4725428450059616,-0.11580856780052858,0.45372369467050366,-2.5328482413212052,-0.27779786171223114,-2.3318983139527263,-4.705609605854499E-4,-0.0010180304354564789,-2.1734506702340722E-4,390976.99911416066,3.033538338353978E-12,938.7340762637923,4.091185447251245,-6.77401333079671,-3.6354413245157655
4920.0,4239782.436359969,4249360.452376176,3120578.472324584,-3367274.214925412,4967805.6537061315,3123011.4812988765,-3022.771382643993,-5105.805177765522,4863.344543987227,4.334440855850167,-6.3946855572094465,-4.02001966392596,6758662.117263007,1.3820915243330338,-0.47248416817968947,-0.11507012996663259,0.4664383545677293,-2.5730561334548194,-0.23435046099215612,-2.285679841337811,-4.7903686215089447E-4,-0.0010138859620282747,-2.1822209306005376E-4,391842.93665885396,2.9964408197653504E-12,939.7032075797852,4.334440855850167,-6.3946855572094465,-4.02001966392596
4980.0,3914057.5823851028,4342642.590911405,3404773.3991570477,-3540701.486705538,4650187.920430673,3407353.6090275864,-2755.905171627786,-5477.363742734384,4611.066039290026,4.5576742759582825,-5.985831322662255,-4.386025749775434,6758662.117263014,1.3864667935802266,-0.47213494021334984,-0.11452040628681949,0.47891069683095816,-2.611289926530884,-0.18942405821245242,-2.2418131571824085,-4.874868974339644E-4,-0.0010096736379383462,-2.1903017121065334E-4,392714.63415011624,2.9639712999295603E-12,941.0037201639752,4.5576742759582825,-5.985831322662255,-4.386025749775434
5040.0,3571018.13004842,4418817.6311945105,3673196.662482857,-3697727.446520251,4311029.491094929,3675912.1211375273,-2476.2714662498133,-5823.5518649128935,4337.426562099838,4.759861041803716,-5.5493276942409375,-4.731779492012581,6758662.117262954,1.3908420628273876,-0.4715143169418879,-0.11415937309645634,0.49112332451496526,-2.647701422993663,-0.14317400397612096,-2.200143164964401,-4.959075397507708E-4,-0.0010053952441914375,-2.1976896737753635E-4,393575.9950330886,2.937496147726002E-12,942.681425922956,4.759861041803716,-5.5493276942409375,-4.731779492012581
5100.0,3212095.760097548,4477679.162019458,3924604.6520943684,-3837624.5008520624,3951901.1778641357,3927442.7807565425,-2185.161431253348,-6142.770051331294,4043.6893793142362,4.940071895083151,-5.087177220329405,-5.055692576606918,6758662.117262983,1.3952173320745327,-0.47064208047712563,-0.11398548294888228,0.5030599028464924,-2.682440948453483,-0.09574120335288798,-2.1605176572119733,-5.042953099212712E-4,-0.0010010526588963488,-2.2043819178301283E-4,394410.6978379703,2.91832111249887E-12,944.7800727512013,4.940071895083151,-5.087177220329405,-5.055692576606918
5160.0,2838793.744874493,4519087.507144919,4157832.2964265626,-3959744.1396008516,3574466.0865459456,4160779.9477272574,-1883.9190203586675,-6433.54250675904,3731.2101262349556,5.097477115858941,-4.601499095701294,-5.356275511731015,6758662.117263122,1.399592601321678,-0.46953851256444984,-0.11399567739353066,0.5147052439901852,-2.7156547433226894,-0.04725315298423492,-2.1227900140530798,-5.126467799754556E-4,-9.966478551163968E-4,-2.2103759923292182E-4,395202.49939847126,2.9077238059473852E-12,947.3431873833001,5.097477115858941,-4.601499095701294,-5.356275511731015
5220.0,2452680.6733893426,4542969.768199312,4371798.420119637,-4063519.9219610374,3180471.990288898,4374841.938786427,-1573.934890383549,-6694.52385496161,3401.4306760496465,5.231350237969274,-4.09451983078329,-5.632144263366497,6758662.117263144,1.4039678705687753,-0.46822427063681377,-0.1141854148612717,0.526045389312176,-2.7474832898779686,0.0021749363414980813,-2.086820998351502,-5.209585767487281E-4,-9.921828985300432E-4,-2.215669892917959E-4,395935.5372702068,2.9069830698468602E-12,950.4153347669512,5.231350237969274,-4.09451983078329,-5.632144263366497
5280.0,2055383.8788000573,4549319.623854437,4565510.722339259,-4148470.090713712,2771743.3170832796,4568636.008227284,-1256.6401052742174,-6924.505286084424,3055.8726241377353,5.3410713342465606,-3.568563459069331,-5.882026454709551,6758662.117262971,1.4083431398158728,-0.4667202676020351,-0.11454871310704969,0.5370676880368218,-2.778060360835696,0.052439000733000646,-2.052479867938931,-5.292273853557752E-4,-9.876599449085267E-4,-2.220262063692489E-4,396594.6258534721,2.9174053205183168E-12,954.0427845134661,5.3410713342465606,-3.568563459069331,-5.882026454709551
5340.0,1648582.5947939537,4538196.888565287,4738070.353554421,-4214199.803112187,2350172.786306843,4741262.926734231,-933.4996562716749,-7122.420103508094,2696.130414114961,5.426129857946758,-3.026041318139657,-6.104767104808238,6758662.117262871,1.4127184090629386,-0.46504755626516714,-0.11507820548243362,0.5477608711971469,-2.807512612568805,0.10344501368119223,-2.019644990519212,-5.37449952532958E-4,-9.8308123741857E-4,-2.2241513971765103E-4,397165.540926627,2.940343964044598E-12,958.273286611819,5.426129857946758,-3.026041318139657,-6.104767104808238
5400.0,1234000.8685917004,4509726.834895752,4888676.070129673,-4260402.968134202,1917712.7310924607,4891921.13773736,-606.005825220287,-7287.348645693394,2323.8641339720243,5.486127027931586,-2.469441441231162,-6.29933388296461,6758662.1172627555,1.4170936783099726,-0.4632272191455389,-0.115765210149346,0.5581151198062576,-2.835959583106871,0.15510793439269452,-1.9882041126279781,-5.456230898396071E-4,-9.784491037585252E-4,-2.227337233414432E-4,397635.28757975367,2.9772048889189628E-12,963.1544618229357,5.486127027931586,-2.469441441231162,-6.29933388296461
5460.0,813400.259420286,4464099.28416004,5016627.947831518,-4286863.68151891,1476366.1446970443,5019910.472378363,-275.6714187378309,-7418.52256079413,1940.792012037483,5.520777746324656,-1.9013175978067582,-6.464821856576759,6758662.117262707,1.4214689475570224,-0.46128026426786595,-0.1165998112138317,0.5681221262395897,-2.8635139889401096,0.20735072981406807,-1.9580544039332959,-5.537436767092552E-4,-9.737659531371444E-4,-2.2298193581875576E-4,397992.34689918766,3.029428741038594E-12,968.7302326623067,5.520777746324656,-1.9013175978067582,-6.464821856576759
5520.0,388572.35233812296,4401567.470785696,5121330.637169711,-4293457.25168659,1028177.4903132047,5124635.406001735,55.977098393795636,-7515.328414169669,1548.6826437976065,5.529912038601032,-1.3242780230938762,-6.60045771131361,6758662.1172626,1.4258442168040246,-0.45922752736904354,-0.11757095062215091,0.5777751478880685,-2.8902822443976324,0.2601034773880222,-1.929102373660277,-5.618086633423712E-4,-9.690342731041681E-4,-2.231598000364269E-4,398226.89717084396,3.098440586799809E-12,975.0348918579884,5.529912038601032,-1.3242780230938762,-6.60045771131361
5580.0,-38668.88176487737,4322446.686463961,5202296.145391799,-4280150.811361306,575223.3148850428,5205607.840984028,387.406541694398,-7577.31061137253,1149.3469818346382,5.51347600736982,-0.7409738780885918,-6.705603423799285,6758662.1172625795,1.430219486051027,-0.4570895807704243,-0.11866652957610624,0.5870690522408052,-2.916365153023053,0.3133025496645628,-1.901263737460265,-5.698150734329531E-4,-9.64256626243022E-4,-2.23267382839744E-4,398331.00584409083,3.185562066385544E-12,982.0849931396067,5.51347600736982,-0.7409738780885918,-6.705603423799285
5640.0,-466494.84834196354,4227112.710782762,5259146.131919898,-4247003.511463005,119602.70845917518,5262449.402685877,717.0839879012966,-7604.1736217219295,744.6301222934424,5.471532292483314,-0.15408748305400238,-6.779759368373228,6758662.11726277,1.4345947552979816,-0.45488664901635384,-0.11987351814042627,0.5960003526655362,-2.941858742894594,0.36688987803192863,-1.8744633006955405,-5.777600067217526E-4,-9.594356467357671E-4,-2.2330479459865309E-4,398298.7890101188,3.2918921562791915E-12,989.8702987132283,5.471532292483314,-0.15408748305400238,-6.779759368373228
5700.0,-893070.181158287,4116000.035647745,5291613.706052734,-4194166.2956157173,-336572.3485829418,5294893.237346903,1043.4837685300852,-7595.783490201842,336.40292234761307,5.404260031567595,0.43367963093857376,-6.822566840977069,6758662.117262583,1.4389700245449362,-0.4526385312207124,-0.12117807166619951,0.6045672342731769,-2.96685523852216,0.4208122904414308,-1.8486349178848418,-5.856406413698099E-4,-9.545740368110871E-4,-2.2327218869237572E-4,398126.53569702676,3.418178770253021E-12,998.3462228821436,5.404260031567595,0.43367963093857376,-6.822566840977069
5760.0,-1316560.651070099,3989599.8913797177,5299544.71785349,-4121881.255415453,-791186.7074108571,5302785.302842566,1365.0944459669693,-7552.1686281411685,-73.44651589359049,5.3119543166195315,1.019618806379101,-6.833809984829862,6758662.117262586,1.443345293791875,-0.4503645299299585,-0.12256565261621699,0.6127695693830587,-2.991444182622954,0.4750209165842207,-1.8237215883399218,-5.934542361467463E-4,-9.496745630862652E-4,-2.2316976091479068E-4,397812.79485756974,3.5647172656452232E-12,1007.4308230473814,5.3119543166195315,1.019618806379101,-6.833809984829862
5820.0,-1735141.0981344322,3848458.08293371,5282898.535294882,-4030480.5684137316,-1242131.7982596203,5286085.145374166,1680.4257417670315,-7473.519875937113,-483.02145872810456,5.195025143967935,1.6010264320962826,-6.8134171042988285,6758662.117262869,1.447720563038782,-0.44808338617790805,-0.12402115638024618,0.6206089222360913,-3.0157137440508643,0.5294706531857799,-1.7996757558197047,-6.01198132428674E-4,-9.447400528144525E-4,-2.2299774880313558E-4,397358.42351795005,3.7313121278403866E-12,1017.0085830997946,5.195025143967935,1.6010264320962826,-6.8134171042988285
5880.0,-2147003.3532071193,3693172.645220004,5241748.302933479,-3920385.022598235,-1687315.359765521,5244866.157365384,1988.0153867228728,-7360.189833979657,-890.4252143842649,5.053995856650304,2.1752161555462832,-6.761461355252854,6758662.117262902,1.4520958322856732,-0.44581322032090354,-0.12552903966965698,0.6280885427358448,-3.039752276781714,0.5841196815947947,-1.7764598975093213,-6.088697560018371E-4,-9.397733900484896E-4,-2.2275643089288545E-4,396766.59516628424,3.917318134269098E-12,1026.940914865362,5.053995856650304,2.1752161555462832,-6.761461355252854
5940.0,-2550364.1149494243,3524391.3270123545,5176280.679630267,-3792102.132977143,-2124671.1061739977,5179315.314084943,2286.4358622661957,-7212.6914609051,-1293.7698290124683,4.889501080115299,2.7395310844045113,-6.6781608022234895,6758662.117262943,1.4564711015325642,-0.4435714781538525,-0.12707345011757867,0.6352133491306262,-3.0636502340236977,0.6389290294341896,-1.7540475187638658,-6.164666186683041E-4,-9.347775117329822E-4,-2.2244612590188744E-4,396042.76807957416,4.121744696775071E-12,1037.0805927906877,4.889501080115299,2.7395310844045113,-6.6781608022234895
6000.0,-2943472.7480608956,3342808.913409591,5086795.055106179,-3646223.85769805,-2552168.288509455,5089732.388788305,2574.3010028785607,-7031.69594135767,-1691.1847669181066,4.702284154140609,3.291355926055155,-6.563877834896617,6758662.117263034,1.4608463707794237,-0.4413748817623219,-0.12863835576101085,0.6419898996762475,-3.0875025991693734,0.6938621674830588,-1.7324247219825215,-6.239863196513213E-4,-9.297554037360388E-4,-2.2206719184714294E-4,395194.61390989437,4.34338115825471E-12,1047.2859081931979,4.702284154140609,3.291355926055155,-6.563877834896617
6060.0,-3324618.968591836,3149164.3972692606,4973702.24743277,-3483423.9229448647,-2967821.1060202494,4976528.648484084,2850.2724294219324,-6818.029828553679,-2080.825536429597,4.493194065920224,3.8281290125060816,-6.419117938808679,6758662.117263043,1.4652216400262512,-0.43923938453468897,-0.1302076731426301,0.6484263534477206,-3.1114120846865174,0.7488846318596382,-1.7115926033878015,-6.314265467983845E-4,-9.247100968323075E-4,-2.21620025097696E-4,394231.9074836981,4.580897202184947E-12,1057.4309962032476,4.493194065920224,3.8281290125060816,-6.419117938808679
6120.0,-3692140.3823661935,2944238.0104605104,4837522.685875121,-3304454.767651755,-3369697.9246257064,4840225.034749197,3113.0657836628407,-6572.671470120753,-2460.882222562639,4.263181891463905,4.347354157362688,-6.244527817645603,6758662.1172629455,1.4695969092745076,-0.43718012976306037,-0.13176539285250632,0.6545324205801328,-3.135493494471576,0.8039636595145406,-1.6915708731959174,-6.387850775808622E-4,-9.19644662648924E-4,-2.211050593674317E-4,393166.37938972365,4.8328902580833985E-12,1067.4108608128417,4.263181891463905,4.347354157362688,-6.244527817645603
