time,gePosition_m_X,gePosition_m_Y,gePosition_m_Z,eiPosition_m_X,eiPosition_m_Y,eiPosition_m_Z,eiVelocity_m_s_X,eiVelocity_m_s_Y,eiVelocity_m_s_Z,eiAccel_m_s2_X,eiAccel_m_s2_Y,eiAccel_m_s2_Z,semiMajorAxis_m,gast_rad,eulerAngle_rad_Roll,eulerAngle_rad_Pitch,eulerAngle_rad_Yaw,eulerAngleWrtEi_rad_Roll,eulerAngleWrtEi_rad_Pitch,eulerAngleWrtEi_rad_Yaw,bodyAngularRateWrtEi_rad_s_Roll,bodyAngularRateWrtEi_rad_s_Pitch,bodyAngularRateWrtEi_rad_s_Yaw,altitudeMsl_m,airDensity_kg_m3,ambientTemperature_dgK,eiGravitation_m_s2_X,eiGravitation_m_s2_Y,eiGravitation_m_s2_Z
0.0,-1428622.33421605,4163200.23408807,5136049.85325658,-4292653.41,955168.470000001,5139356.57,109.64966300148,-7527.72649000027,1484.52148900137,5.52898656935719,-1.23026788740986,-6.61954989994584,6758662.11722982,1.02331933954551,0.0,-0.202458193231342,0.0,-2.47159390535496,-0.0371889644762902,-1.42899313488834,0.0,-0.0011344542745508,0.0,398254.54116932,3.4018E-12,990.9677734375,5.52898656935719,-1.23026788740986,-6.61954989994584
60.0,-1789712.66688801,3920255.07286153,5213136.77866225,-4276130.76360603,501640.150638707,5216447.94770985,440.899504427431,-7584.04304560393,1084.18939672429,5.50841669093311,-0.646201702281487,-6.719712406156,6758662.11722981,1.02769460895833,-2.3649933813E-6,-0.202456042614911,-1.006005802222E-4,-2.47205929657805,0.016120423673933,-1.3866611796641,-7.049133021E-7,-0.0011344779883362,-3.3028527039E-6,398336.992349355,3.2024E-12,984.492431640625,5.50841669093311,-0.646201702281487,-6.719712406156
120.0,-2144732.04662905,3662345.06425589,5266057.40817693,-4239785.46485052,45786.4492663021,5269357.68010088,770.149856362154,-7605.2077588941,678.777242700872,5.46236021841777,-0.058989324126963,-6.78881750197518,6758662.11722981,1.03206987837114,-2.51197970277E-5,-0.202449046803757,-4.002575139566E-4,-2.47030794948929,0.0692802951959352,-1.34410218239053,-1.5682337123E-6,-0.0011344959092939,-6.615081428E-6,398282.351312264,3.31E-12,992.429565429687,5.46236021841777,-0.058989324126963,-6.78881750197518
180.0,-2492166.13162718,3390598.74813122,5294563.01581385,-4183783.25764123,-410279.480789338,5297837.0895684,1095.87688043119,-7591.11290731518,270.1592543332,5.39101509822649,0.528665740843096,-6.82652947798967,6758662.11722984,1.03644514778395,-9.17988451877E-5,-0.202436413625704,-8.945341370665E-4,-2.46631584767121,0.122194573081339,-1.30107628417491,-2.589767053E-6,-0.0011345075710701,-9.9359410654E-6,398087.267115198,3.4386E-12,1001.05029296875,5.39101509822649,0.528665740843096,-6.82652947798967
240.0,-2830524.93703077,3106195.59239715,5298517.77706277,-4108380.89026428,-864442.894077582,5301750.47079932,1416.57209400392,-7541.81319429672,-139.774483846494,5.29469509567205,1.11405482451913,-6.8326557264296,6758662.11722987,1.04082041719676,-2.259053144173E-4,-0.202417401914554,-0.0015773854823156,-2.46003131551215,0.174763491844175,-1.25733917128852,-3.7692822606E-6,-0.0011345124462374,-1.32646798766E-5,397750.659501357,3.5884E-12,1010.26550292968,5.29469509567205,1.11405482451913,-6.8326557264296
300.0,-3158349.27065452,2810360.86253624,5277899.46242089,-4013924.98616862,-1314597.20057474,5281075.7837958,1730.74928790111,-7457.5256937731,-549.126655786194,5.17382866282707,1.69447627941298,-6.80714795491118,6758662.11722986,1.04519568660958,-4.50797388064E-4,-0.202391344152062,-0.0024411867660691,-2.45137464563152,0.226881529601637,-1.21263857844627,-5.1065108489E-6,-0.0011345099468991,-1.66005389141E-5,397273.760669469,3.7594E-12,1019.95324707031,5.17382866282707,1.69447627941298,-6.80714795491118
360.0,-3474217.08356248,2504360.33240143,5232799.61189834,-3900850.50203059,-1758653.68795009,5235904.82755119,2036.95136094596,-7338.62906255893,-956.001393644212,5.0289572988201,2.26724769265309,-6.75010277495491,6758662.11722984,1.04957095602238,-7.895747310468E-4,-0.202357666624309,-0.0034767694934713,-2.44023743940519,0.278435209190912,-1.16671093034125,-6.6011463063E-6,-0.0011344994253703,-1.99427514561E-5,396660.117186776,3.9509E-12,1029.97082519531,5.0289572988201,2.26724769265309,-6.75010277495491
420.0,-3776749.70791139,2189494.85846839,5163423.18837942,-3769678.77900081,-2194551.17459288,5166442.89226219,2333.75704093164,-7185.66202019759,-1358.51297383502,4.8607334037903,2.82971808104518,-6.66176165594942,6758662.11722984,1.0539462254352,-0.0012649656658181,-0.202315906339464,-0.0046734650107374,-2.42648179092002,0.329300716765412,-1.11927819399975,-8.25284343E-6,-0.0011344801749376,-2.32905424503E-5,395915.551844032,4.162E-12,1040.1689453125,4.8607334037903,2.82971808104518,-6.66176165594942
480.0,-4064617.95455067,1867094.84019274,5070087.71000333,-3621015.19485857,-2620265.54951372,5073007.89024537,2619.78746171101,-6999.32109896113,-1754.79449109273,4.66991762971271,3.37928001560925,-6.54251023745121,6758662.11722982,1.05832149484801,-0.00189921555671,-0.202265724027095,-0.0060191552899964,-2.40993951105976,0.379341293355958,-1.07004508673881,-1.00612175976E-5,-0.001134451430697,-2.66431279689E-5,395048.085877479,4.3915E-12,1050.40612792968,4.66991762971271,3.37928001560925,-6.54251023745121
540.0,-4336548.04310486,1538514.58951118,4953221.86403547,-3455546.42660893,-3033819.15548765,4956028.96803487,2893.71256636928,-6780.45766980717,-2143.00647189824,4.45737573340016,3.91338162296542,-6.39287699509382,6758662.11722981,1.06269676426082,-0.0027139769245974,-0.202206912629505,-0.0075003306926896,-2.39041168720881,0.428404367937058,-1.0186968894401,-1.202584398E-5,-0.001134412370472,-2.99997146785E-5,394067.822610533,4.6383E-12,1060.55859375,4.45737573340016,3.91338162296542,-6.39287699509382
600.0,-4591327.33761593,1205126.63283089,4813363.60702585,-3274037.33484955,-3433289.97225013,4816044.60446501,3154.25730682394,-6530.07425328243,-2521.34538840811,4.22407493918241,4.42953841007267,-6.21353125792628,6758662.11722981,1.06707203367362,-0.0037302018258212,-0.202139400800967,-0.0091021544224583,-2.36766901631604,0.476318424105451,-0.964898263033981,-1.41462566979E-5,-0.0011343621158125,-3.33594993257E-5,392986.794192961,4.901E-12,1070.52355957031,4.22407493918241,4.42953841007267,-6.21353125792628
660.0,-4827809.86129808,868315.969071724,4651157.75838314,-3077327.48299857,-3816820.55719292,4653700.20187493,3400.20761071461,-6249.32012759444,-2888.05203397277,3.97107982105355,4.92534485815665,-6.00528057770799,6758662.11722982,1.07144730308643,-0.0049680370374619,-0.202063251049477,-0.010808533348684,-2.34145354562885,0.522889633074972,-0.908293668095506,-1.64219479237E-5,-0.0011342997330758,-3.67216682397E-5,391818.773731068,5.1781E-12,1080.21948242187,3.97107982105355,4.92534485815665,-6.00528057770799
720.0,-5044921.56455813,529474.307458965,4467353.0968242,-2866327.30620439,-4182626.70183835,4469745.17990494,3630.41608710393,-5939.48624933605,-3241.41972144849,3.6995477164527,5.3984857312233,-5.76906745354909,6758662.11722981,1.07582257249925,-0.0064467225938457,-0.20197865228513,-0.0126021948572383,-2.31148271250442,0.567898352242352,-0.848510249397067,-1.88523669335E-5,-0.0011342242345904,-4.0085396856E-5,390579.055703467,5.4681E-12,1089.58361816406,3.6995477164527,5.3984857312233,-5.76906745354909
780.0,-5241665.32116445,189994.308806901,4262798.97147704,-2642013.94644313,-4529005.76339754,4265029.58367401,3843.80744331334,-5601.99950563128,-3579.80226580021,3.41072368628999,5.846747044375,-5.50596541829331,6758662.1172298,1.08019784191205,-0.0081844942159145,-0.20188590667692,-0.014464769366159,-2.27745688458722,0.611095692257017,-0.78516436137589,-2.14369191117E-5,-0.001134134579904,-4.34498492607E-5,389284.208134281,5.7689E-12,1098.56665039062,3.41072368628999,5.846747044375,-5.50596541829331
840.0,-5417125.62830558,-148736.146016441,4038441.44171074,-2405426.77194258,-4854344.63194323,4040500.22042439,4039.38358616932,-5238.41631975566,-3901.62171297017,3.10593503833352,6.26802663725345,-5.21717449618125,6758662.1172298,1.08457311132487,-0.010198490164688,-0.201785410862984,-0.0163768781301441,-2.2390719255787,0.652200508187226,-0.717873238056855,-2.41749649113E-5,-0.0011340296771168,-4.68141777596E-5,387951.800540123,6.0783E-12,1107.12976074218,3.10593503833352,6.26802663725345,-5.21717449618125
900.0,-5570472.98726818,-485339.636897017,3795318.96202706,-2157662.60064273,-5157127.29514892,3797196.34098206,4216.2283820388,-4850.41563555417,-4205.37577765619,2.78658543361583,6.66034429835499,-4.90401604458825,6758662.1172298,1.08894838073768,-0.01250466303217,-0.20167763170477,-0.0183182259486191,-2.19603855333332,0.690897380047393,-0.646273555586397,-2.7065818775E-5,-0.0011339083843006,-5.01775224717E-5,386600.112168255,6.3938E-12,1115.24084472656,2.78658543361583,6.66034429835499,-4.90401604458825
960.0,-5700967.94258045,-818454.811245904,3534557.63056348,-1899870.64890283,-5435941.96416304,3536244.88459791,4373.51205128858,-4439.79130921397,-4489.64495351173,2.45414859808007,7.02185138672442,-4.56792699598553,6758662.11722981,1.09332365015049,-0.015117696957206,-0.201563076920629,-0.0202676983868705,-2.14811022807553,0.726836409316631,-0.570048609223547,-3.01087480198E-5,-0.0011337695110054,-5.35390109515E-5,385247.825488108,6.7121E-12,1122.87268066406,2.45414859808007,7.02185138672442,-4.56792699598553
1020.0,-5807964.75871303,-1146741.89376201,3257366.02191449,-1633247.22808599,-5689487.72599555,3258855.30789261,4510.49517421382,-4008.44394012673,-4753.09926035098,2.11016166424396,7.3508398986551,-4.21045351969878,6758662.11722979,1.0976989195633,-0.0180509307203041,-0.201442261075519,-0.0222034631170953,-2.09512070477036,0.759635936089037,-0.488965225083042,-3.33029716901E-5,-0.0011336118198538,-5.68977578405E-5,383913.710274539,7.0298E-12,1130.00073242187,2.11016166424396,7.3508398986551,-4.21045351969878
1080.0,-5890914.71479886,-1468888.07664787,2965029.62706434,-1359030.21298284,-5916580.68979238,2966314.02071612,4626.53228704339,-3558.37217567503,-4994.50459422085,1.75621817018927,7.64575092852297,-3.833244126512,6758662.11722979,1.10207418897612,-0.0213162871305114,-0.201315667537945,-0.0241030749851554,-2.03703080974204,0.788889489458514,-0.402919954835889,-3.66476593835E-5,-0.0011334340282243,-6.02528645498E-5,382616.303914798,7.3429E-12,1136.60229492187,1.75621817018927,7.64575092852297,-3.833244126512
1140.0,-5949368.99932619,-1783612.76826859,2658904.92522849,-1078493.30726906,-6116159.59655313,2659978.45373708,4721.07504834278,-3091.66352777447,-5212.72864768934,1.39396074566022,7.90518247477739,-3.43804224265474,6758662.11722981,1.10644945838892,-0.0249242090700343,-0.201183707140048,-0.0259435844078692,-1.97398111842603,0.814178265786944,-0.311991219900784,-4.01419300543E-5,-0.0011332348100249,-6.36034189763E-5,381373.593768841,7.6471E-12,1142.65649414062,1.39396074566022,7.90518247477739,-3.43804224265474
1200.0,-5982981.18836927,-2089672.67887428,2340413.11430863,-792940.132317241,-6287290.86420461,2341270.78448689,4793.67495799482,-2610.48474187501,-5406.74636939627,1.0250735174472,8.12789654440821,-3.0266782831849,6758662.1172298,1.11082472780174,-0.0288836025094565,-0.201046674388849,-0.027701648703517,-1.9063430749708,0.835089972321779,-0.2164899367608,-4.37848507987E-5,-0.0011330127975558,-6.6948495255E-5,380202.707502941,7.9378E-12,1148.142578125,1.0250735174472,8.12789654440821,-3.0266782831849
1260.0,-5991509.29264263,-2385866.72273105,2011033.52846714,-503698.166693226,-6429173.0424675,2011671.35038417,4843.98561293802,-2117.0717618468,-5575.64493381641,0.651274268515437,8.31282551191483,-2.60106125820555,6758662.11722982,1.11519999721455,-0.033201786749443,-0.200904702173791,-0.029353645953412,-1.83475664618102,0.851243784821488,-0.116996707856737,-4.75754356284E-5,-0.0011327665834643,-7.02871535474E-5,379119.617287879,8.2104E-12,1153.04113769531,0.651274268515437,8.31282551191483,-2.60106125820555
1320.0,-5974817.36049393,-2671040.71682334,1672296.77300613,-212112.564553188,-6541140.65463567,1672711.77894626,4871.76448597487,-1613.71933672274,-5718.62819429183,0.274306387482386,8.45907769191743,-2.16316994869451,6758662.11722984,1.11957526662736,-0.037884452085576,-0.20075771599525,-0.0308757909839788,-1.76013998069273,0.86231944204954,-0.0143710417531427,-5.15126442362E-5,-0.0011324947227896,-7.36184398693E-5,378138.863597871,8.4599E-12,1157.33276367187,0.274306387482386,8.45907769191743,-2.16316994869451
1380.0,-5932876.62587567,-2944091.85720568,1325777.60828453,80460.1180883177,-6622667.40621843,1325967.86694269,4876.87421621916,-1102.77031761807,-5835.0205946947,-0.104069352976453,8.56594208806514,-1.71504369194223,6758662.11722985,1.12395053604017,-0.0429356250330237,-0.200605388798804,-0.0322442530454836,-1.68365858566264,0.868086516076155,0.0902798916576708,-5.55953807602E-5,-0.0011321957351003,-7.69413859595E-5,377273.304061287,8.6818E-12,1160.99865722656,-0.104069352976453,8.56594208806514,-1.71504369194223
1440.0,-5865766.19235209,-3203972.95508512,973087.615810202,372658.259633665,-6673368.74335947,973052.241650227,4859.28340212033,-586.604695273007,-5924.27051757332,-0.482083148433891,8.63289228480157,-1.25877281965125,6758662.11722988,1.12832580545299,-0.0483576411892131,-0.200447097538941,-0.0334352747448797,-1.60665000629562,0.86842846838089,0.195676991573171,-5.98224925516E-5,-0.0011318681067218,-8.02550091913E-5,376533.89239715,8.8718E-12,1164.02111816406,-0.482083148433891,8.63289228480157,-1.25877281965125
1500.0,-5773673.2462934,-3449696.41580367,615867.680893266,663121.541665112,-6693003.74703074,615606.838618438,4819.06689047255,-67.6284305439506,-5985.95304930521,-0.8579646038137,8.65958945282588,-0.79648879460925,6758662.11722988,1.13270107486579,-0.0541511257572789,-0.20028188261237,-0.0344252917658147,-1.53051330208372,0.86335617009917,0.300480154021421,-6.4192768953E-5,-0.0011315102930566,-8.35583125273E-5,375929.491927716,9.0262E-12,1166.38513183593,-0.8579646038137,8.65958945282588,-0.79648879460925
1560.0,-5656892.79457463,-3680337.94506538,255780.32733092,950497.319820409,-6681476.35218942,255295.23143931,4756.40555737137,451.737868218218,-6019.7721456149,-1.22995122006694,8.64588444371054,-0.330354094470652,6758662.11722991,1.1370763442786,-0.0603149817028387,-0.200108411294182,-0.0351910528785623,-1.45658518635444,0.853007572517509,0.403412535601875,-6.87049400917E-5,-0.0011311207209936,-8.68502845211E-5,375466.727496531,9.1418E-12,1168.07775878906,-1.22995122006694,8.64588444371054,-0.330354094470652
1620.0,-5515826.92431864,-3895039.96800286,-105498.059496743,1233446.9662423,-6638835.88436261,-106205.150076057,4671.58557970691,969.070365639001,-6025.56218379864,-1.59629688216533,8.59181895408186,0.137448106466061,6758662.11722987,1.14145161369142,-0.0668463854731896,-0.199924946279424,-0.0357097397071054,-1.38602984460408,0.837633597154989,0.503371142816529,-7.33576756956E-5,-0.0011306977914094,-9.01298993658E-5,375149.878855235,9.2164E-12,1169.08959960937,-1.59629688216533,8.59181895408186,0.137448106466061
1680.0,-5350983.58449322,-4093014.74799981,-466285.084013787,1510652.15305865,-6565276.90947368,-467210.876183916,4564.99719846155,1481.95346135608,-6003.28889111449,-1.95528030341509,8.49762574499268,0.604724404552086,6758662.1172299,1.14582688310422,-0.0737407901726234,-0.199729320378063,-0.0359590856806468,-1.31976416934338,0.817573673293174,0.599502014201162,-7.8149583937E-5,-0.0011302398817569,-9.3396116991E-5,374980.817732372,9.2487E-12,1169.41369628906,-1.95528030341509,8.49762574499268,0.604724404552086
1740.0,-5162974.89147212,-4273547.19357661,-824900.228676118,1780821.0465073,-6461138.39612261,-826040.410291651,4437.13297779407,1987.99123663675,-5953.04964202476,-2.305213380668,8.36372790758603,1.06928172851027,6758662.11722989,1.15020215251704,-0.0809919360615783,-0.199518918333515,-0.0359174935535353,-1.25842752089769,0.793226298334793,0.691230890687529,-8.30792103117E-5,-0.0011297453487437,-9.66478832112E-5,374958.989881892,9.2384E-12,1169.04760742187,-2.305213380668,8.36372790758603,1.06928172851027
1800.0,-4952514.96299125,-4435997.34309448,-1179672.74105793,2042694.38164054,-6326902.19296538,-1181022.00083346,4288.58556662272,2484.81882822846,-5875.07312029947,-2.64444941490565,8.19073717181097,1.52893793959841,6758662.11722987,1.15457742192984,-0.0885918682312174,-0.199290666634361,-0.0355641508330084,-1.20239184917077,0.765019999727269,0.778253544047957,-8.81450365582E-5,-0.0011292125310958,-9.98841299245E-5,375081.442457379,9.186E-12,1167.9921875,-2.64444941490565,8.19073717181097,1.52893793959841
1860.0,-4720417.28725766,-4579802.51853144,-1528949.48167673,2295051.38802869,-6163190.82727995,-1530501.53379448,4120.04497214524,2970.11367207358,-5769.71834537841,-2.97139115191208,7.97945126076471,1.98153241327245,6758662.11722987,1.15895269134266,-0.0965309612988652,-0.199041032067364,-0.0348791424098805,-1.15179962094381,0.733388604562193,0.860498323733721,-9.33454796263E-5,-0.0011286397524067,-1.031037753645E-4,375342.896092797,9.0932E-12,1166.25244140625,-2.97139115191208,7.97945126076471,1.98153241327245
1920.0,-4467591.63628386,-4704479.14113003,-1871102.69450299,2536715.53752984,-5970764.63424081,-1872850.30780658,3932.29535743536,3441.60655985056,-5637.47306582489,-3.28449859833384,7.73085029913984,2.42493654486376,6758662.11722987,1.16332796075546,-0.104797950973519,-0.198766029618784,-0.0338435596459201,-1.10661503268308,0.698752724996481,0.938075447054562,-9.86788906991E-5,-0.0011280253240686,-1.063057244064E-4,375735.860122572,8.9626E-12,1163.83740234375,-3.28449859833384,7.73085029913984,2.42493654486376
1980.0,-4195040.53481479,-4809624.20329167,-2204537.6623738,2766560.08600094,-5750518.22982727,-2206472.69401266,3726.21137791128,3897.0924519908,-5478.95152615897,-3.58229656935883,7.44609229019964,2.85706412166563,6758662.11722987,1.16770323016828,-0.113379972353067,-0.198461240172693,-0.032439605135502,-1.06667665192209,0.66150765038399,1.01122489458194,-1.041435542763E-4,-0.0011273675482845,-1.094888689266E-4,376250.788468364,8.7974E-12,1160.76123046875,-3.58229656935883,7.44609229019964,2.85706412166563
2040.0,-3903855.29846613,-4894916.39270081,-2527700.21000992,2983513.38179147,-5503476.34364236,-2529813.6433772,3502.75407406079,4334.44099186391,-5294.8916168069,-3.86338192552467,7.12650768162922,3.27588150414145,6758662.1172299,1.17207849958109,-0.122262604834758,-0.198121838281902,-0.0306506923308537,-1.03174408509836,0.622016766907936,1.08027031782868,-1.097376873266E-4,-0.0011266647211565,-1.126520882196E-4,376876.27288153,8.6015E-12,1157.04187011718,-3.86338192552467,7.12650768162922,3.27588150414145
2100.0,-3595211.65689571,-4960116.86627993,-2839084.01802184,3186563.91497946,-5230789.03119736,-2841366.00480764,3262.96634031021,4751.60666722064,-5086.15142032018,-4.12643045778773,6.77359304645672,3.67941755972481,6758662.11722989,1.1764537689939,-0.131429923545769,-0.197742630102201,-0.0284615392024329,-1.00153539247144,0.580609187323446,1.1455822434061,-1.154594385133E-4,-0.0011259151358498,-1.157942494691E-4,377599.269481812,8.3794E-12,1152.70239257812,-4.12643045778773,6.77359304645672,3.67941755972481
2160.0,-3270364.97996108,-5005069.67320759,-3137237.71217998,3374765.08257507,-4933726.28840113,-3139677.61834143,3007.96799231988,5146.63856672691,-4853.70517037598,-4.37020338193335,6.38900391094836,4.0657732938811,6758662.11722989,1.18082903840671,-0.140864557228952,-0.197318101387111,-0.0258582551012726,-0.97575483499647,0.537580269910923,1.20755099335597,-1.213068875025E-4,-0.0011251170858252,-1.189142082775E-4,378405.353891319,8.1356E-12,1147.77185058593,-4.37020338193335,6.38900391094836,4.0657732938811
2220.0,-2930645.12686725,-5029701.82785675,-3420771.69331258,3547239.64632322,-4613672.09406245,-3423358.14874328,2738.95045725718,5517.68968150269,-4598.638643343,-4.59355340567444,5.97454676689602,4.43313112473321,6758662.11722989,1.18520430781953,-0.150547752547465,-0.196842475241618,-0.0228284200007394,-0.954112095569701,0.493193922670743,1.26656818332116,-1.272780443589E-4,-0.0011242688681405,-1.220108092515E-4,379278.999742014,7.8751E-12,1142.283203125,-4.59355340567444,5.97454676689602,4.43313112473321
2280.0,-2577450.94026575,-5034023.03512376,-3688364.67447599,3703183.86127358,-4272117.90914854,-3691085.62613914,2457.17111372215,5863.02570398438,-4322.14400535984,-4.7954303343463,5.53217031097919,4.77976374961026,6758662.11722991,1.18957957723233,-0.160459444797563,-0.196309779133383,-0.0193611553232805,-0.93633470936971,0.44768587129948,1.32301506706892,-1.333708490361E-4,-0.0011233687868124,-1.250828866451E-4,380203.874943679,7.6026E-12,1136.27587890625,-4.7954303343463,5.53217031097919,4.77976374961026
2340.0,-2212244.40911237,-5018125.07221063,-3938769.8935098,3841871.25494707,-3910655.6643235,-3941612.66178236,2163.94730996243,6181.03327914015,-4025.51414089893,-4.97488618394073,5.06395595884187,5.10404255434038,6758662.11722988,1.19395484664514,-0.170578335038744,-0.195713920462285,-0.0154471856046322,-0.922175459742483,0.401267332356997,1.37725597280648,-1.395831709687E-4,-0.0011224151562365,-1.281292650603E-4,381163.149840787,7.3228E-12,1129.79467773437,-4.97488618394073,5.06395595884187,5.10404255434038
2400.0,-1836544.52581784,-4982180.83248315,-4170820.97073258,3962656.03870022,-3530970.2699006,-4173772.30869239,1860.6500907985,6470.22766606672,-3710.1364916567,-5.1310797733034,4.57210768612795,5.40444551895297,6758662.11722988,1.19833011605796,-0.180881973661096,-0.195048769798091,-0.0110788903152106,-0.911416249932769,0.354128742449643,1.42963532080575,-1.459128087706E-4,-0.0011214063046602,-1.311487602042E-4,382139.811261025,7.0401E-12,1122.89013671875,-5.1310797733034,4.57210768612795,5.40444551895297
2460.0,-1451920.86482259,-4926443.03854445,-4383437.38334506,4064976.13476312,-3134831.68476348,-4386483.53871828,1548.69766527262,6729.25977125817,-3377.48643729605,-5.26328077061595,4.05894125292196,5.67956457665766,6758662.11722987,1.20270538547076,-0.191346850408692,-0.194308250715512,-0.0062503452457317,-0.903869633390381,0.306443345705273,1.48047703635661,-1.523574900481E-4,-0.0011203405777016,-1.341401797036E-4,383116.976459931,6.7585E-12,1115.61853027343,-5.26328077061595,4.05894125292196,5.67956457665766
2520.0,-1059986.91117939,-4851242.633133,-4575629.53007319,4148355.80438979,-2724086.58303043,-4578756.30954692,1229.54864842423,6956.9225183401,-3029.12025205139,-5.37087317276524,3.52687287180276,5.92811238649104,6758662.11722988,1.20708065488357,-0.201948490862492,-0.193486434989867,-9.573529719314E-4,-0.899378871686817,0.258370543758195,1.53008548131193,-1.589148713314E-4,-0.00111921634191,-1.371023239751E-4,384078.201087883,6.4818E-12,1108.041015625,-5.37087317276524,3.52687287180276,5.92811238649104
2580.0,-662393.169030385,-4756986.85786254,-4746503.36169145,4212407.86460096,-2300649.6592375,-4749696.1972848,904.695111770009,7152.156522775,-2666.6676734697,-5.45335819983266,2.97840738300244,6.14892848383539,6758662.11722989,1.21145592429638,-0.212661559354749,-0.192577641768861,0.004802537960277,-0.89781712717933,0.210058976895003,1.57874728306346,-1.655825381318E-4,-0.0011180319883604,-1.400339871508E-4,385007.775536464,6.213E-12,1100.22448730468,-5.45335819983266,2.97840738300244,6.14892848383539
2640.0,-260820.081010188,-4644157.03116251,-4895264.55530392,4256835.4831028,-1866494.61459016,-4898508.57248122,575.655478021131,7314.05504394126,-2291.82412158807,-5.51035659067877,2.41612600294258,6.34098477707519,6758662.11722989,1.2158311937092,-0.223459968238201,-0.191576539210365,0.0110300253441324,-0.899086194618332,0.161649343063227,1.62673363389324,-1.72358005129E-4,-0.0011167859362762,-1.429339580589E-4,385891.004348819,5.955E-12,1092.23779296875,-5.51035659067877,2.41612600294258,6.34098477707519
2700.0,143029.209414745,-4513306.03804502,-5021222.21261144,4281433.54312112,-1423644.86836813,-5024502.29981322,243.967296297338,7441.86819103388,-1906.34260862543,-5.54161028941558,1.84267371467159,6.50339036292487,6758662.11722986,1.220206463122,-0.234316993367078,-0.190478246975594,0.0177240571730118,-0.903115025236348,0.113276981856803,1.67430277214106,-1.79238716494E-4,-0.0011154766366725,-1.458010212563E-4,386714.463790346,5.71E-12,1084.15270996093,-5.54161028941558,1.84267371467159,6.50339036292487
2760.0,547436.219852129,-4365055.54550866,-5123792.06484313,4286089.57208114,-974164.039856677,-5127092.94410378,-88.8200654054303,7535.00636340089,-1512.02538078153,-5.54698351641283,1.26074637043652,6.63539563739238,6758662.11722988,1.22458173253482,-0.245205395563837,-0.189278437894749,0.024881846941742,-0.909858187245363,0.0650742595912519,1.72170244974315,-1.862220463526E-4,-0.0011141025760129,-1.486339581147E-4,387466.233157487,5.4797E-12,1076.0390625,-5.54698351641283,1.26074637043652,6.63539563739238
2820.0,950674.581683364,-4200092.95848633,-5202499.169563,4270784.2302783,-520146.247213758,-5205805.46787955,-421.152773471707,7593.04291018084,-1110.71533498286,-5.52646322133731,0.673077577781572,6.73639568389018,6758662.11722984,1.22895700194763,-0.256097547747154,-0.187973437080285,0.0324989001025484,-0.919294326719844,0.017172793270749,1.76917224860969,-1.93305299393E-4,-0.0011126622798709,-1.514315479551E-4,388136.095941471,5.2655E-12,1067.96179199218,-5.52646322133731,0.673077577781572,6.73639568389018
2880.0,1351017.54964659,-4019168.13224732,-5256980.0871619,4235591.35790864,-63706.2704615065,-5260276.40827512,-751.47989058989,7615.71599841144,-704.287254385773,-5.48015891953776,0.0824254411720424,6.80593292462391,6758662.11722982,1.23333227136044,-0.266965567285509,-0.18656031675304,0.0405690512142044,-0.931424632757197,-0.0302944518931963,1.81694563944822,-2.004857116223E-4,-0.0011111543165902,-1.541925692317E-4,388715.707548016,5.068E-12,1059.9794921875,-5.48015891953776,0.0824254411720424,6.80593292462391
2940.0,1746745.53411614,-3823089.85806874,-5286984.52749358,4180677.58104619,393030.373689568,-5290255.52374122,-1078.26070947623,7602.92968310351,-294.638907140203,-5.4083019168284,-0.508440768796418,6.84369902603248,6758662.11722981,1.23770754077325,-0.277781453020097,-0.185036985069637,0.0490845111517454,-0.94627126281318,-0.0771911634382899,1.86525168736035,-2.077604512752E-4,-0.0011095773009318,-1.569158007615E-4,389198.726891489,4.8876E-12,1052.13940429687,-5.4083019168284,-0.508440768796418,6.84369902603248
3000.0,2136153.62179094,-3612722.1397941,-5292376.45979672,4106301.47935572,847937.397214166,-5295606.90369916,-1399.972021946,7554.75417708677,116.31794666793,-5.3112439313538,-1.09675394701615,6.84953605367536,6758662.11722984,1.24208281018606,-0.288517226274888,-0.183402267295911,0.0580359235831165,-0.963875642396399,-0.123375762913322,1.91431630341846,-2.151266198772E-4,-0.0011079298977031,-1.596000229981E-4,389580.909824934,4.7241E-12,1044.4765625,-5.3112439313538,-1.09675394701615,6.84953605367536
3060.0,2517559.05057918,-3388980.27959518,-5273134.68174308,4012812.32049824,1298897.69837099,-5276309.53698358,-1715.11528750485,7471.42532270194,526.666594838669,-5.18945512470914,-1.67976241571331,6.82343687652241,6758662.11722986,1.24645807959887,-0.299145075044813,-0.181655977760055,0.0674124297739502,-0.98429651388578,-0.168699562390772,1.96436292385994,-2.225812534662E-4,-0.0011062108253563,-1.62244019346E-4,389860.163024689,4.5771E-12,1037.01513671875,-5.18945512470914,-1.67976241571331,6.82343687652241
3120.0,2889308.60471891,-3152826.7918441,-5229352.84615137,3900648.36831284,1743813.26380487,-5232457.33761688,-2022.22366646447,7353.34327160774,934.494414718665,-5.04352155781059,-2.25474304739753,6.76554482505417,6758662.11722984,1.25083334901168,-0.309637500430229,-0.179798981139224,0.0772017406581891,-1.0076075699554,-0.213005008236489,2.01561247147891,-2.301213239733E-4,-0.0011044188595502,-1.648465775145E-4,390036.55761489,4.4457E-12,1029.76928710937,-5.04352155781059,-2.25474304739753,6.76554482505417
3180.0,3249785.89659371,-2905267.16448557,-5161238.94658971,3770334.77392794,2180614.96792963,-5164258.62914348,-2319.8688836109,7201.07038306316,1337.90187216959,-4.87414209013627,-2.8190141817285,6.67615261188972,6758662.11722982,1.2552086184245,-0.319967464271876,-0.177833241782312,0.0873902150152089,-1.03389446792818,-0.256124046043314,2.06828242070024,-2.377437407642E-4,-0.0011025528366634,-1.674064909065E-4,390112.302485136,4.329E-12,1022.74633789062,-4.87414209013627,-2.8190141817285,6.67615261188972
3240.0,3597418.50228782,-2647345.48767426,-5069114.26574169,3622481.06095827,2607272.22311067,-5072035.09140583,-2606.66788965981,7015.32835500723,1735.01143396123,-4.68212474386578,-3.36994827147311,6.55570052778818,6758662.11722982,1.2595838878373,-0.330108536839936,-0.175761859946553,0.0979629425279347,-1.06325098508063,-0.297876668293373,2.1225847537584,-2.454453523433E-4,-0.0011006116572504,-1.699225600393E-4,390091.677918715,4.226E-12,1015.95050048828,-4.68212474386578,-3.36994827147311,6.55570052778818
3300.0,3930684.91867075,-2380139.96970972,-4953411.79301687,3457778.21786942,3021802.43514015,-4956220.17625154,-2881.2892891058,6796.99460606819,2123.97635059548,-4.46838255711744,-3.90498419547426,6.40477392978714,6758662.11722982,1.26395915725012,-0.340035043347797,-0.173589094022708,0.10890383046423,-1.09577404799757,-0.338069740306698,2.17872256841627,-2.532229482197E-4,-0.0010985942894309,-1.723935939955E-4,389980.930803388,4.1355E-12,1009.38500976562,-4.46838255711744,-3.90498419547426,6.40477392978714
3360.0,4248121.31069835,-2104758.36046116,-4814674.12043252,3276995.41243046,3422280.2196961,-4817357.00120821,-3142.45950459859,6547.09793026699,2502.98926768503,-4.23392895290154,-4.4216391796432,6.22410004191948,6758662.11722981,1.26833442666293,-0.349722207999244,-0.171320368039086,0.120195692727709,-1.13155736300592,-0.37649624002484,2.23688509021816,-2.610732609342E-4,-0.0010964997722023,-1.748184118978E-4,389788.133335886,4.0564E-12,1003.05456542968,-4.23392895290154,-4.4216391796432,6.22410004191948
3420.0,4548328.01865792,-1822333.30253304,-4653550.82826529,3080976.34491742,3806846.3368863,-4656095.73263618,-3388.96864964244,6266.81344961944,2870.29062534076,-3.97987265256474,-4.91752027037913,6.01454409236587,6758662.11722982,1.27270969607574,-0.359146294239268,-0.168962263963484,0.131820340064487,-1.17068340694203,-0.412935091069582,2.29724087244887,-2.689929682475E-4,-0.0010943272186653,-1.771958444062E-4,389523.007748705,3.9876E-12,996.966003417968,-3.97987265256474,-4.91752027037913,6.01454409236587
3480.0,4829975.79626356,-1534017.63037709,-4470795.37435844,2870635.25837041,4173716.30258833,-4473190.47225729,-3619.67608319907,5957.45689306862,3224.17680654872,-3.70741216438716,-5.39033530846443,5.77710481403399,6758662.11722983,1.27708496548855,-0.368284739865796,-0.166522498560032,0.143758670288477,-1.213213631361,-0.447151811337756,2.35992905849658,-2.769786954878E-4,-0.0010920758191537,-1.795247352331E-4,389196.720177261,3.928E-12,991.128601074218,-3.70741216438716,-5.39033530846443,5.77710481403399
3540.0,5091811.75181277,-1240979.63741476,-4267261.50325968,2646952.62573548,4521188.63709424,-4269495.66324884,-3833.51562166441,5620.47823318163,3563.00799722381,-3.4178298796067,-5.83790335533689,5.51290933839378,6758662.11722984,1.28146023490136,-0.377116285672286,-0.164009884799623,0.155990757497326,-1.25917691542535,-0.478900232088934,2.42504876107312,-2.850270180538E-4,-0.0010897448442566,-1.818039426705E-4,388821.647338461,3.8765E-12,985.553405761718,-3.4178298796067,-5.83790335533689,5.51290933839378
3600.0,5332664.96603683,-944398.331001035,-4043899.19354678,2410970.5351356,4847652.71353842,-4045962.0342749,-4029.50038566694,5257.45471481108,3885.21572249446,-3.11248580948596,-6.25816452765392,5.22320751493186,6758662.11722985,1.28583550431417,-0.385621096329642,-0.161434278063558,0.168495939389987,-1.30855659605446,-0.507925551078957,2.49264690381051,-2.93134464072E-4,-0.0010873336477259,-1.84032341128E-4,388411.120199549,3.8322E-12,980.25341796875,-3.11248580948596,-6.25816452765392,5.22320751493186
3660.0,5551451.76180906,-645458.694734239,-3801750.16376462,2163787.79580677,5151596.17071617,-3803632.10189489,-4206.7272611863,4870.08331244332,4189.31002578281,-2.79281099810801,-6.64918920019273,4.90936569081073,6758662.11722985,1.29021077372699,-0.3937808722787,-0.158806507615602,0.181252901960408,-1.36127681460019,-0.533968949308182,2.56270527932252,-3.012975172037E-4,-0.0010848416692573,-1.862088226746E-4,387979.149269779,3.7938E-12,975.241333007812,-2.79281099810801,-6.64918920019273,4.90936569081073
3720.0,5747180.60250228,-345346.977212923,-3541942.95933849,1906554.78840266,5431611.85717345,-3543635.25373136,-4364.38095659731,4460.1726552271,4473.88625937863,-2.4603006463968,-7.00918654133008,4.57285998723076,6758662.11722986,1.29458604313979,-0.401578951489708,-0.156138294043579,0.194239761023673,-1.41718941775,-0.556773904314494,2.63512807434142,-3.09512619597E-4,-0.0010822684371365,-1.883322985809E-4,387540.13653524,3.7605E-12,970.530517578125,-2.4603006463968,-7.00918654133008,4.57285998723076
3780.0,5918956.59750338,-45246.0258542518,-3265687.64463944,1640468.08441049,5686404.27584929,-3267182.43659099,-4501.73763939219,4029.63446069472,4737.63145744513,-2.11650698341549,-7.3365123495735,4.21526911059791,6758662.11722986,1.29896131255261,-0.409000400050525,-0.153442153584207,0.207434140224212,-1.47606315159637,-0.576094158539177,2.70973161206764,-3.177761749791E-4,-0.0010796135707411,-1.904017008573E-4,387108.579369358,3.7313E-12,966.132507324218,-2.11650698341549,-7.3365123495735,4.21526911059791
3840.0,6065985.5951861,253669.316168207,-2974270.12605051,1366764.86033039,5914795.5010678,-2975560.47540646,-4618.16813850795,3580.47451995315,4979.33026472144,-1.7630319213144,-7.62967616383446,3.83826673790465,6758662.11722984,1.30333658196542,-0.416032090667286,-0.150731290440771,0.220813245373151,-1.53757724303963,-0.591703049210216,2.78623841559074,-3.260845518827E-4,-0.0010768767828897,-1.924159837826E-4,386698.771976371,3.705E-12,962.057983398437,-1.7630319213144,-7.62967616383446,3.83826673790465
3900.0,6187577.84550372,550236.73242989,-2669046.13341498,1086717.13304975,6115730.54228949,-2670126.05039999,-4713.14070037189,3114.78327863511,5197.87039658278,-1.40151953039481,-7.88734762430433,3.4436135167478,6758662.11722982,1.30771185137822,-0.42266276829756,-0.148019478379763,0.234353935155691,-1.6013214792441,-0.603403602990618,2.86427771146976,-3.344340870011E-4,-0.0010740578820293,-1.943741254195E-4,386324.510052524,3.6808E-12,958.315002441406,-1.40151953039481,-7.88734762430433,3.4436135167478
3960.0,6283151.21628236,843310.858450325,-2351434.88863379,801625.843491181,6288282.13172865,-2352299.36125572,-4786.2232889638,2634.72605916594,5392.24760856848,-1.03364837064162,-8.10836206488603,3.03314872114656,6758662.11722981,1.31208712079104,-0.42888310228284,-0.145320933047476,0.248032788432498,-1.66680439907232,-0.611038503696904,2.9433939946128,-3.428210886633E-4,-0.0010711567742524,-1.962751291112E-4,385998.804370673,3.6578E-12,954.908752441406,-1.03364837064162,-8.10836206488603,3.03314872114656
4020.0,6352233.94926092,1131767.59355974,-2022912.49141807,512814.81612989,6431654.91570848,-2023557.50832804,-4837.08542236645,2142.53297092406,5561.57015597339,-0.661123715775903,-8.2917253221181,2.60878160480685,6758662.11722983,1.31646239020385,-0.434685724502124,-0.142650176579215,0.261826168524182,-1.73347013993654,-0.614498840206522,3.02306420410626,-3.512418404222E-4,-0.0010681734651376,-1.981180249542E-4,385733.608901181,3.635E-12,951.841796875,-0.661123715775903,-8.2917253221181,2.60878160480685
4080.0,6394466.94392852,1414508.28419952,-1685005.05329138,221624.622363176,6545189.03244509,-1685427.622001,-4865.49954042589,1640.48855566109,5705.06272660556,-0.285669705406528,-8.43661774937913,2.17248249371884,6758662.11722984,1.32083765961666,-0.440065253228217,-0.140021896180838,0.27571028500913,-1.80072298261622,-0.613730521353014,3.10272255788166,-3.596926047484E-4,-0.0010651080614051,-1.99901871244E-4,385539.568870543,3.6116E-12,949.112976074218,-0.285669705406528,-8.43661774937913,2.17248249371884
4140.0,6409605.55924418,1690463.76424394,-1339281.6118741,-70593.6240262131,6628363.06181179,-1339479.77225325,-4871.34190025932,1130.92121610797,5822.06983232761,0.0909785397619023,-8.54239742885921,1.72627365999735,6758662.11722986,1.32521292902947,-0.445018302531161,-0.137450798444212,0.289661253676964,-1.86795706864318,-0.608737456457668,-3.10139478177725,-3.681696268188E-4,-0.00106196077238,-2.016257558867E-4,385425.793828685,3.587E-12,946.717895507812,0.0909785397619023,-8.54239742885921,1.72627365999735
4200.0,6397520.9253768,1958598.23878844,-987346.858270244,-362484.510937868,6680796.33552138,-987319.691270026,-4854.59299842447,616.192476037958,5912.05864751011,0.467082805459251,-8.60860257731694,1.27222001869925,6758662.11722986,1.32958819844228,-0.449543477236329,-0.134951461214191,0.303655155358697,-1.93458760987189,-0.59958102655123,-3.02347704527298,-3.766691383921E-4,-0.0010587319112599,-2.032887977739E-4,385399.660346603,3.5604E-12,944.6474609375,0.467082805459251,-8.60860257731694,1.27222001869925
4260.0,6358200.75967155,2217912.99873385,-630833.711013626,-652694.583167519,6702250.59906626,-630581.342581158,-4815.33752059088,98.6861201944381,5974.62128501881,0.8409096407744,-8.63495314499078,0.81241968900003,6758662.11722984,1.33396346785509,-0.453641353606784,-0.132538184854916,0.317668094397775,-2.00007956548436,-0.586375918678634,-2.94722182438134,-3.851873617606E-4,-0.0010554218961773,-2.048901481148E-4,385466.648407366,3.5312E-12,942.88916015625,0.8409096407744,-8.63495314499078,0.81241968900003
4320.0,6291749.68311816,2467449.95440942,-271395.770519415,-939878.580491666,6692631.01965921,-270919.370692764,-4753.76382152615,-419.202737566289,6009.47650282679,1.21073815208285,-8.62135161020031,0.348994460608326,6758662.11722982,1.33833873726791,-0.457314446078546,-0.130224844767642,0.331676257532345,-2.06397035244938,-0.569282923792775,-2.87307096014481,-3.937205137683E-4,-0.0010520312510561,-2.064289917216E-4,385630.214892078,3.4991E-12,941.42626953125,1.21073815208285,-8.62135161020031,0.348994460608326
4380.0,6198389.0356665,2706294.97740054,89300.3116720859,-1222705.63057431,6651986.53731292,89998.5344787073,-4670.16294012327,-935.078609809672,6016.47083677639,1.57486770261072,-8.56788297514817,-0.115919794338592,6758662.11722981,1.34271400668071,-0.460567160531874,-0.128024746991237,0.345655973928568,-2.12588446960195,-0.548499675062688,-2.80138107512086,-4.022648098835E-4,-0.0010485606062542,-2.079045482444E-4,385891.70681649,3.4638E-12,940.241882324218,1.57486770261072,-8.56788297514817,-0.115919794338592
4440.0,6078456.19079231,2933581.04068928,449582.514375553,-1499865.36898642,6580509.55907048,450499.323864641,-4564.92715604502,-1446.55656704249,5995.57915740888,1.93162548734818,-8.4748139712225,-0.580182724398875,6758662.11722977,1.34708927609353,-0.463405734730295,-0.125950488670525,0.35958377703934,-2.18553951149841,-0.524250452968237,-2.73241742878106,-4.108164683157E-4,-0.0010450106989918,-2.09316073349E-4,386250.316157911,3.4255E-12,939.332275390625,1.93162548734818,-8.4748139712225,-0.580182724398875
4500.0,5932403.37175866,3148491.1481629,807781.144426386,-1770073.95907722,6478534.99924503,808912.291635041,-4438.54809634498,-1951.273098102,5946.90465112494,2.27937395414437,-8.34259148470279,-1.04165907830278,6758662.11722978,1.35146454550634,-0.465838166699887,-0.124013825107548,0.373436468865213,-2.24274446063699,-0.49677610890868,-2.66635551305064,-4.193717141652E-4,-0.001041382373561,-2.106628598376E-4,386703.07724997,3.3843E-12,938.692749023437,2.27937395414437,-8.34259148470279,-1.04165907830278
4560.0,5760795.97403908,3350261.04549347,1162236.5160783,-2032079.98498978,6346538.67133145,1163576.75924712,-4291.61440214103,-2446.89685302695,5870.67822823238,2.61651804295964,-8.17184021620262,-1.49822822301649,6758662.11722979,1.35583981491915,-0.467874131952793,-0.122225545017467,0.387191187069142,-2.29739206689275,-0.466324924630858,-2.60328857788666,-4.279267835928E-4,-0.0010376765813141,-2.119442387036E-4,387244.906834364,3.3407E-12,938.314392089843,2.61651804295964,-8.17184021620262,-1.49822822301649
4620.0,5564310.40036066,3538181.70534386,1511306.57789944,-2284670.19176755,6185135.04001182,1512849.70689776,-4124.80896706357,-2931.13922289189,5767.25736267527,2.94151221640818,-7.96335958944404,-1.94779356358061,6758662.1172298,1.36021508433196,-0.469524890578989,-0.120595355495535,0.400825475248698,-2.3494474688801,-0.433144920451984,-2.54323893126047,-4.364779279979E-4,-0.001033894380432,-2.131595801213E-4,387868.685971114,3.2951E-12,938.183410644531,2.94151221640818,-7.96335958944404,-1.94779356358061
4680.0,5343731.41678382,3711601.58079911,1853374.45328635,-2526675.0472498,5995074.34437757,1855113.31847907,-3938.9057607779,-3401.76471208537,5637.12437041756,3.25286725588301,-7.71811992707034,-2.38829182890033,6758662.11722981,1.36459035374478,-0.470803185336817,-0.119131778065874,0.41431735650481,-2.39893508496009,-0.397477831151638,-2.48617098523271,-4.450214181937E-4,-0.0010300369354693,-2.143082943637E-4,388565.382143281,3.2481E-12,938.281433105468,3.25286725588301,-7.71811992707034,-2.38829182890033
4740.0,5099949.04015803,3869928.62185828,2186855.86119717,-2756974.10129709,5777239.10612954,2188782.40661877,-3734.76625238855,-3856.60105963538,5480.88413557353,3.54915679871022,-7.43725791317639,-2.81770218867616,6758662.11722981,1.36896562315758,-0.471723131963507,-0.117842057028362,0.427645410271201,-2.44592538983553,-0.359554735189188,-2.432004431917,-4.535535485656E-4,-0.001026105516678,-2.153898326475E-4,389324.209073303,3.2001E-12,938.5830078125,3.54915679871022,-7.43725791317639,-2.81770218867616
4800.0,4833954.96916985,4012632.05074903,2510206.384312,-2974501.11882012,5532640.03908433,2512311.68499446,-3513.33544997142,-4293.54906742187,5299.26129543554,3.82902359292116,-7.12207136408721,-3.23405516768845,6758662.11722982,1.37334089257039,-0.47230010299952,-0.116732081149208,0.440788852190207,-2.49052268117266,-0.319593169206963,-2.38062644498485,-4.620706412014E-4,-0.0010221014991118,-2.16403687901E-4,390132.821016061,3.1515E-12,939.053466796875,3.82902359292116,-7.12207136408721,-3.23405516768845
4860.0,4546838.57303108,4139243.89274019,2821928.55255719,-3178248.96410148,5262411.37880526,2824202.85584031,-3275.63757385099,-4710.59209446128,5093.0968975455,4.09118544735927,-6.77401333066193,-3.63544132467636,6758662.1172298,1.37771616198321,-0.472550606472687,-0.115806319556032,0.453727616645047,-2.53285446143083,-0.277795480597185,-2.33190228200803,-4.705690499817E-4,-0.0010180263615103,-2.173493954526E-4,390977.537626632,3.104E-12,939.736633300781,4.09118544735927,-6.77401333066193,-3.63544132467636
4920.0,4239782.45363512,4249360.26002312,3120578.71077659,-3367274.21499624,4967805.65358196,3123011.4814116,-3022.7713825432,-5105.80517789431,4863.34454389181,4.3344408559488,-6.39468555706063,-4.02001966407798,6758662.11722979,1.38209143139601,-0.472492160817923,-0.115067772502573,0.466442441392434,-2.5730626814344,-0.234348149013487,-2.28568404202016,-4.790451646164E-4,-0.0010138816849692,-2.182265336382E-4,391843.5949326,3.0595E-12,940.698364257812,4.3344408559488,-6.39468555706063,-4.02001966407798
4980.0,3914057.59873305,4342642.38711371,3404773.64029333,-3540701.48676998,4650187.92029939,3407353.60913413,-2755.90517152194,-5477.36374285303,4611.06603918626,4.55767427604698,-5.98583132250082,-4.38602574991811,6758662.11722977,1.38646670080883,-0.472143167414056,-0.114517937464517,0.478914953587945,-2.61129683202518,-0.189421823003644,-2.24181759338899,-4.874954146166E-4,-0.0010096691513976,-2.190347243245E-4,392715.417482367,3.0195E-12,941.989990234375,4.55767427604698,-5.98583132250082,-4.38602574991811
5040.0,3571018.14534454,4418817.41708778,3673196.90517686,-3697727.44657808,4311029.49095716,3675912.12123738,-2476.27146613953,-5823.55186502079,4337.42656198839,4.7598610418822,-5.54932769406832,-4.73177949214515,6758662.11722976,1.39084197022164,-0.471522782099876,-0.114156790819961,0.491127756365144,-2.64770871601579,-0.143171852989186,-2.2001478418271,-4.959162731897E-4,-0.0010053905417678,-2.197736333472E-4,393576.906397862,2.9856E-12,943.658325195312,4.7598610418822,-5.54932769406832,-4.73177949214515
5100.0,3212095.77422097,4477678.93880162,3924604.8952079,-3837624.50090302,3951901.17772055,3927442.7808493,-2185.16143113929,-6142.77005142781,4043.68937919579,4.94007189515118,-5.08717722014707,-5.05569257672882,6758662.11722975,1.39521723963445,-0.470650786986591,-0.113982785159081,0.503064515021655,-2.68244865959943,-0.0957391439571792,-2.16052258219677,-5.043042610458E-4,-0.0010010477341627,-2.204429708624E-4,394411.737835225,2.9591E-12,945.747497558593,4.94007189515118,-5.08717722014707,-5.05569257672882
5160.0,2838793.75770924,4519087.27606978,4157832.538815,-3959744.13964476,3574466.08639721,4160779.94781251,-1883.91902024147,-6433.54250684368,3731.21012611019,5.09747711591648,-4.60149909551073,-5.35627551184181,6758662.11722974,1.39959250904726,-0.469547463813647,-0.113992862061797,0.514710041784137,-2.71566290402978,-0.0472511925558242,-2.12279519706663,-5.126559501042E-4,-9.966427016265E-4,-2.210424916103E-4,395203.666247901,2.9415E-12,948.302368164062,5.09747711591648,-4.60149909551073,-5.35627551184181
5220.0,2452680.68482555,4542969.53056973,4371798.6606374,-4063519.92199771,3180471.99013575,4374841.93886384,-1573.93489026385,-6694.5238550341,3401.43067591927,5.23135023801626,-4.09451983058595,-5.63214426346591,6758662.11722974,1.40396777846008,-0.468233470001138,-0.114182479982446,0.526050378071525,-2.74749193272204,0.0021767903398752,-2.08682645187026,-5.209679670891E-4,-9.921775098253E-4,-2.215719950904E-4,395936.826849471,2.9341E-12,951.368103027343,5.23135023801626,-4.09451983058595,-5.63214426346591
5280.0,2055383.88873447,4549319.38101574,4565510.95984519,-4148470.0907431,2771743.31692651,4568636.0082966,-1256.64010515268,-6924.50528614445,3055.87262400248,5.34107133428295,-3.56856345886652,-5.88202645479721,6758662.11722972,1.40834304787288,-0.466729718435911,-0.114545656691281,0.537072873151429,-2.77806951986715,0.0524407406802297,-2.0524856071744,-5.292369970038E-4,-9.876543145249E-4,-2.220313256481E-4,396596.031779748,2.9383E-12,954.992248535156,5.34107133428295,-3.56856345886652,-5.88202645479721
5340.0,1648582.60313125,4538196.64189754,4738070.58691704,-4214199.80313419,2350172.78614719,4741262.92679517,-933.499656148964,-7122.42010355547,2696.13041397555,5.42612985797278,-3.0260413179328,-6.10476710488411,6758662.11722973,1.4127183172857,-0.465057261894052,-0.1150750255462,0.547766258089283,-2.80752232369313,0.103446631732354,-2.01965103363089,-5.374597864732E-4,-9.830753588936E-4,-2.224203724727E-4,397167.05467914,2.9556E-12,959.22314453125,5.42612985797278,-3.0260413179328,-6.10476710488411
5400.0,1234000.87524516,4509726.58580663,4888676.29823266,-4260402.96814883,1917712.73093072,4891921.13778969,-606.005825097017,-7287.34864572798,2323.8641338292,5.48612702794748,-2.46944144102157,-6.29933388302862,6758662.11722973,1.41709358669851,-0.463237182852927,-0.115761904708092,0.558120713920552,-2.83596988451155,0.155109422421705,-1.98821048099651,-5.456331469459E-4,-9.78442970638E-4,-2.227390695064E-4,397636.898661258,2.9874E-12,964.109558105468,5.48612702794748,-2.46944144102157,-6.29933388302862
5460.0,813400.26431232,4464099.03407701,5016628.16957908,-4286863.68152608,1476366.14453401,5019910.47242194,-275.671418614609,-7418.52256081583,1940.79201189197,5.5207777463307,-1.9013175975957,-6.46482185662914,6758662.1172297,1.42146885611132,-0.461290489285435,-0.116596378271578,0.568127933031926,-2.86352492158841,0.20735207935823,-1.95806112251078,-5.537539577452E-4,-9.737595589823E-4,-2.229873952664E-4,397994.04303223,3.0351E-12,969.695678710937,5.5207777463307,-1.9013175975957,-6.46482185662914
5520.0,388572.355401563,4401567.22114841,5121330.85149171,-4293457.25168644,1028177.49014966,5124635.40603641,55.9770985163864,-7515.32841417854,1548.68264365011,5.52991203859761,-1.32427802288245,-6.60045771135441,6758662.11722973,1.42584412552413,-0.459238016863161,-0.117567388161972,0.577781172814333,-2.89029385259834,0.260104679596089,-1.92910947141284,-5.618191689624E-4,-9.690276114987E-4,-2.2316537258E-4,398228.664525366,3.1004E-12,976.016357421875,5.52991203859761,-1.32427802288245,-6.60045771135441
5580.0,-38668.8805867108,4322446.43871618,5202296.35124898,-4280150.81135388,575223.314721736,5205607.84100971,387.406541815798,-7577.31061136859,1149.34698168588,5.51347600735737,-0.74097387787784,-6.70560342382885,6758662.1172297,1.43021939493695,-0.457100337828106,-0.118662835549993,0.587075300745642,-2.91637748510142,0.313303595245571,-1.90127124792635,-5.698258041839E-4,-9.642496907998E-4,-2.232730682343E-4,398332.829291556,3.1845E-12,983.088562011718,5.51347600735737,-0.74097387787784,-6.70560342382885
5640.0,-466494.849094271,4227112.46636447,5259146.32830891,-4247003.51144833,119602.708296877,5262449.40270252,717.083988020976,-7604.17362170528,744.630122144108,5.47153229246231,-0.15408748284485,-6.77975936839206,6758662.11722966,1.43459466434975,-0.454897676630023,-0.119869690459355,0.596006830170485,-2.94187185199259,0.366890757203119,-1.87447126268741,-5.777709630444E-4,-9.594284311039E-4,-2.233105925425E-4,398300.652399888,3.2886E-12,990.9013671875,5.47153229246231,-0.15408748284485,-6.77975936839206
5700.0,-893070.183874688,4115999.79598738,5291613.89201103,-4194166.29559398,-336572.348743475,5294893.23735456,1043.48376864755,-7595.78349017283,336.402922198336,5.40426003153836,0.433679631145325,-6.8225668409854,6758662.11722968,1.43896993376255,-0.452649832273117,-0.121174108188768,0.604573946164961,-2.96686918356839,0.420812992872277,-1.84864337637289,-5.85651823601E-4,-9.545665346827E-4,-2.232780988287E-4,398128.422150081,3.4136E-12,999.409851074218,5.40426003153836,0.433679631145325,-6.8225668409854
5760.0,-1316560.65577194,3989599.65788607,5299544.89246392,-4121881.2553868,-791186.707568893,5302785.30284123,1365.09444608174,-7552.16862809996,-73.4465160421865,5.31195431658264,1.01961880658277,-6.8338099848282,6758662.11722964,1.44334520317537,-0.45037610717621,-0.122561551139032,0.61277652100178,-2.99145902952036,0.475021431336321,-1.82373059556828,-5.934656445215E-4,-9.496667682033E-4,-2.231757828335E-4,397814.687072047,3.5598E-12,1008.53063964843,5.31195431658264,1.01961880658277,-6.8338099848282
5820.0,-1735141.10483061,3848457.85698819,5282898.69769017,-4030480.56837837,-1242131.79841442,5286085.14536378,1680.4257418787,-7473.51987588394,-483.021458875433,5.19502514392409,1.60102643229635,-6.81341710428772,6758662.11722961,1.44772047258818,-0.448095242228823,-0.12401691462707,0.620616118863172,-3.01572956715716,0.529470968643045,-1.79968537272441,-6.01209767083E-4,-9.447319589753E-4,-2.230038820425E-4,397360.304082191,3.7273E-12,1018.14721679687,5.19502514392409,1.60102643229635,-6.81341710428772
5880.0,-2147003.361894,3693172.4281688,5241748.45230099,-3920385.02255638,-1687315.35991639,5244866.15734626,1988.01538683103,-7360.18983391481,-890.425214529768,5.0539958565996,2.17521615574218,-6.76146135523255,6758662.11722959,1.45209574200099,-0.44582535762492,-0.125524655280774,0.6280959895821,-3.03976916077632,0.584119785381175,-1.77647019553408,-6.088816169756E-4,-9.397649911144E-4,-2.227626749414E-4,396768.446874191,3.9154E-12,1028.11889648437,5.0539958565996,2.17521615574218,-6.76146135523255
5940.0,-2550364.12561062,3524391.1201589,5176280.81521546,-3792102.13292903,-2124671.10632027,5179315.31405717,2286.43586237048,-7212.69146082895,-1293.76982915562,4.88950108005823,2.7395310845959,-6.67816080219447,6758662.11722958,1.4564710114138,-0.443583898979017,-0.127068920640012,0.63522105132415,-3.06366827629724,0.638928908313943,-1.75405858220698,-6.164787059085E-4,-9.347688016349E-4,-2.224524802003E-4,396044.574242167,4.1232E-12,1038.296875,4.88950108005823,2.7395310845959,-6.67816080219447
6000.0,-2943472.76066716,3342808.71800722,5086795.17621677,-3646223.85764391,-2552168.28865044,5089732.38875211,2574.30100297858,-7031.69594127052,-1691.18476705843,4.70228415407751,3.29135592624168,-6.56387783485931,6758662.11722955,1.46084628082662,-0.441387588177419,-0.128633678638429,0.64199786225136,-3.08752191292816,0.693861807235537,-1.73243665106863,-6.239986330155E-4,-9.297463764805E-4,-2.220736557902E-4,395196.358659387,4.3498E-12,1048.53771972656,4.70228415407751,3.29135592624168,-6.56387783485931
6060.0,-3324618.9831014,3149164.21451408,4973702.35344208,-3483423.92288503,-2967821.10615534,4976528.64843966,2850.27242951736,-6818.02982845595,-2080.8255365666,4.49319406585146,3.8281290126875,-6.41911793876339,6758662.11722958,1.46522155023942,-0.439252378391194,-0.130202845705898,0.64843458133314,-3.111432803051,0.748884017117741,-1.71160551833995,-6.314390860583E-4,-9.247007465079E-4,-2.216265980364E-4,394233.576063965,4.5938E-12,1058.71362304687,4.49319406585146,3.8281290126875,-6.41911793876339
6120.0,-3692140.39872903,2944237.84147913,4837522.77622539,-3304454.76758653,-3369697.9247543,4840225.03469676,3113.06578375338,-6572.67147001291,-2460.88222269586,4.26318189138983,4.34735415753886,-6.2445278175927,6758662.11722959,1.46959681965224,-0.437193412676907,-0.131760412310685,0.654540918587516,-3.13551577598093,0.803962773551277,-1.6915849197214,-6.387978424267E-4,-9.19634983432E-4,-2.211117406111E-4,393167.958428417,4.854E-12,1068.71887207031,4.26318189138983,4.34735415753886,-6.2445278175927
6180.0,-4044429.86104491,2728847.97199903,4678884.16004466,-3110144.12077161,-3755930.25981728,4681449.83629329,3361.45673484447,-6296.74672878952,-2829.58788769462,4.01329675464249,4.84661229095986,-6.04089286716278,6758662.11722961,1.47397208906505,-0.435224985614836,-0.133290564851477,0.660328075147038,3.12328138381381,0.859066645665953,-1.67241869173615,-6.460727699345E-4,-9.145521957462E-4,-2.205295534698E-4,392013.011308144,5.1289E-12,1078.46813964843,4.01329675464249,4.84661229095986,-6.04089286716278
6240.0,-4379942.61543406,2503847.90541446,4498518.6826564,-2901391.22605985,-4124721.48140795,4500935.86271867,3594.28672919421,-5991.52401358921,-3185.22680064407,3.74468131612507,5.32357281807312,-5.80913400399599,6758662.11722961,1.47834735847786,-0.433360507480591,-0.134777802910654,0.665808673647094,3.09842768252562,0.914165143666348,-1.65418316833946,-6.532618274124E-4,-9.09455524628E-4,-2.198805417361E-4,390783.799167214,5.4169E-12,1087.89575195312,3.74468131612507,5.32357281807312,-5.80913400399599
6300.0,-4697203.19715852,2270122.5468363,4297259.6728218,-2679162.72957994,-4474355.20111625,4299517.13002576,3810.46845585797,-5658.40863806761,-3526.1424575508,3.45856680525754,5.77600464602549,-5.55030385439659,6758662.1172296,1.48272262789067,-0.431612470511922,-0.13620705098908,0.670996679529723,3.07290705635932,0.969228264952832,-1.63700030742606,-6.603630650991E-4,-9.043481398407E-4,-2.191652445381E-4,389496.701862042,5.7161E-12,1096.95056152343,3.45856680525754,5.77600464602549,-5.55030385439659
6360.0,-4994812.05136965,2028584.99347722,4076037.82532889,-2444488.24916624,-4803203.30079962,4078125.07270879,4008.99100061206,-5298.93652931393,-3850.74535381625,3.15626761312319,6.20178682500562,-5.26558231304512,6758662.11722958,1.48709789730349,-0.429992416914893,-0.137563763957721,0.675907313942473,3.04645550964619,1.02422591749692,-1.62105879455828,-6.673746248315E-4,-8.992332356429E-4,-2.183842338011E-4,388169.146213872,6.0243E-12,1105.59167480468,3.15626761312319,6.20178682500562,-5.26558231304512
6420.0,-5271451.84433457,1780173.04027768,3835876.95828211,-2198455.64429943,-5109733.56494127,3837784.29760063,4188.92466287579,-4914.76731091284,-4157.52047160576,2.83917546489344,6.59891874886871,-4.95627148337269,6758662.11722956,1.49147316671629,-0.428510908348786,-0.138834025580277,0.680556958989287,3.01871076736443,1.07912710846417,-1.60664921202982,-6.742947400369E-4,-8.941140267158E-4,-2.175381130009E-4,386819.317109807,6.339E-12,1113.78637695312,2.83917546489344,6.59891874886871,-4.95627148337269
6480.0,-5525893.43616265,1525845.61753911,3577889.33085461,-1942206.00776415,-5392516.87991956,3579607.89799938,4349.42541090773,-4507.67678852404,-4445.03444547492,2.50875319372378,6.96552986172744,-4.62379001531508,6758662.11722956,1.4958484361291,-0.427177496733042,-0.140004639582199,0.684963056157828,2.98915053657603,1.13389867891836,-1.59422533182386,-6.811217355319E-4,-8.889937441187E-4,-2.166275158828E-4,385465.853027027,6.6572E-12,1121.50646972656,2.50875319372378,6.96552986172744,-4.62379001531508
6540.0,-5757001.48656931,1266579.17346275,3303270.54186537,-1676928.40143006,-5650233.9652604,3304792.34840274,4489.73895208257,-4079.54886920502,-4711.94237064939,2.16652814048643,7.2998888179302,-4.26966685946334,6758662.11722955,1.50022370554192,-0.426000696328098,-0.141063212862656,0.689143998805028,2.9569791702673,1.18850312289753,-1.58451704248862,-6.878540271288E-4,-8.838756312814E-4,-2.156531051493E-4,384127.531262798,6.9754E-12,1128.72729492187,2.16652814048643,7.2998888179302,-4.26966685946334
6600.0,-5963739.66661965,1003364.01464037,3013294.03164221,-1403854.35990948,-5881681.60391224,3014612.0023283,4609.20439659335,-3632.36694881624,-4956.99421959896,1.81408520624124,7.60041204428529,-3.89553446009432,6758662.11722955,1.50459897495472,-0.424987957151086,-0.14199823056587,0.693119019628699,2.92090423964348,1.24289443172893,-1.57875340045993,-6.944901210565E-4,-8.787629400451E-4,-2.146155711224E-4,382822.948461051,7.2896E-12,1135.42553710937,1.81408520624124,7.60041204428529,-3.89553446009432
6660.0,-6145175.45095185,737200.617645724,2709305.21164988,-1124252.1870936,-6085778.34073428,2710413.21771725,4707.25749461268,-3168.20480486359,-5179.04083400056,1.45305958683248,7.86567165522013,-3.50312141305499,6758662.11722954,1.50897424436754,-0.424145639892769,-0.142799122844785,0.696908074087734,2.87865468209294,1.29700926738912,-1.57914413548528,-7.010286132004E-4,-8.736589267577E-4,-2.135156303847E-4,381570.202240099,7.5957E-12,1141.57983398437,1.45305958683248,7.86567165522013,-3.50312141305499
6720.0,-6300484.46668409,469095.92493692,2392715.24828643,-839421.071713421,-6261569.62071754,2393608.13634416,4783.43342878255,-2689.21703502632,-5377.03946084752,1.08512922140741,8.09440267379569,-3.094244617953,6758662.11722955,1.51334951378035,-0.423478992600349,-0.143456323261526,0.700531720755731,2.82581208119161,1.35074561885338,-1.59004805096206,-7.074681881649E-4,-8.68566848435E-4,-2.123540244028E-4,380386.579834727,7.8891E-12,1147.16979980468,1.08512922140741,8.09440267379569,-3.094244617953
6780.0,-6428954.37705451,200059.63829785,2064994.52907032,-550685.049100422,-6408232.34095652,2065668.14547516,4837.36914587983,-2197.62908436678,-5550.05880333323,0.712006988955907,8.28550951413657,-2.67080095754278,6758662.11722957,1.51772478319316,-0.422992129478318,-0.143961318874151,0.704010999602242,2.75248083524032,1.40390157278229,-1.62130256020678,-7.138076181672E-4,-8.634899589933E-4,-2.111315181385E-4,379288.259656788,8.1651E-12,1152.17541503906,0.712006988955907,8.28550951413657,-2.67080095754278
6840.0,-6529988.27982606,-68899.4769841648,1727665.84114018,-259386.837228506,-6525078.79304703,1728117.05171771,4868.80521361631,-1695.72690679482,-5697.28355921176,0.33543268913821,8.43807168388547,-2.23475854055235,6758662.1172296,1.52210005260597,-0.422688012233668,-0.144306692156027,0.707367309192205,2.63129872477705,1.45595005116636,-1.70021284605565,-7.200457617666E-4,-8.584315055618E-4,-2.098488986523E-4,378290.031544574,8.4189E-12,1156.57739257812,0.33543268913821,8.43807168388547,-2.23475854055235
