time,gePosition_m_X,gePosition_m_Y,gePosition_m_Z,eiPosition_m_X,eiPosition_m_Y,eiPosition_m_Z,eiVelocity_m_s_X,eiVelocity_m_s_Y,eiVelocity_m_s_Z,eiAccel_m_s2_X,eiAccel_m_s2_Y,eiAccel_m_s2_Z,semiMajorAxis_m,gast_rad,eulerAngle_rad_Roll,eulerAngle_rad_Pitch,eulerAngle_rad_Yaw,eulerAngleWrtEi_rad_Roll,eulerAngleWrtEi_rad_Pitch,eulerAngleWrtEi_rad_Yaw,bodyAngularRateWrtEi_rad_s_Roll,bodyAngularRateWrtEi_rad_s_Pitch,bodyAngularRateWrtEi_rad_s_Yaw,altitudeMsl_m,airDensity_kg_m3,ambientTemperature_dgK,eiGravitation_m_s2_X,eiGravitation_m_s2_Y,eiGravitation_m_s2_Z
0.0,-1428622.31101,4163200.46562,5136049.67203,-4292653.41,955168.47,5139356.57,109.649663,-7527.72649,1484.521489,5.52898656936,-1.23026788741,-6.61954989995,6758662.11723,1.02334780893,5.666859310097427E-17,-0.2024581932313422,-1.0271182499535224E-16,-2.471593905353287,-0.03718896447605677,-1.4289931348888525,0.0,0.0,0.0,398252.763838,3.11591362917E-12,976.47737094,5.52898656936,-1.23026788741,-6.61954989995
60.0,-1789712.64868,3920255.31305,5213136.6043,-4276130.76361,501640.150639,5216447.94771,440.899504426,-7584.0430456,1084.18939672,5.50841669093,-0.646201702282,-6.71971240616,6758662.11723,1.02772307802,-5.04145989032309E-16,-0.1343880466853914,1.3653953869627944E-16,-2.471593905353287,-0.03718896447605677,-1.4289931348888525,0.0,0.0,0.0,398335.16147,3.20687244874E-12,983.702829946,5.50841669093,-0.646201702282,-6.71971240616
120.0,-2144732.03326,3662345.31178,5266057.24147,-4239785.46485,45786.4492663,5269357.6801,770.149856361,-7605.20775889,678.7772427,5.46236021842,-0.058989324127,-6.78881750198,6758662.11723,1.03209834711,-1.2795687423200214E-15,-0.0663117980950497,-3.3380054147501584E-16,-2.471593905353287,-0.03718896447605677,-1.4289931348888525,0.0,0.0,0.0,398280.483171,3.31726588913E-12,991.661468685,5.46236021842,-0.058989324127,-6.78881750198
180.0,-2492166.12293,3390599.00166,5294562.85755,-4183783.25764,-410279.480789,5297837.08957,1095.87688043,-7591.11290731,270.159254332,5.39101509823,0.528665740843,-6.82652947799,6758662.11723,1.0364736162,-7.216460977245137E-16,0.0017710140289972146,7.910351455826064E-16,-2.471593905353287,-0.03718896447605677,-1.4289931348888525,0.0,0.0,0.0,398085.378679,3.44775481373E-12,1000.300609,5.39101509823,0.528665740843,-6.82652947799
240.0,-2830524.93281,3106195.85057,5298517.62797,-4108380.89026,-864442.894078,5301750.4708,1416.572094,-7541.8131943,-139.774483848,5.29469509567,1.11405482452,-6.83265572643,6758662.11723,1.04084888529,-6.677626714540835E-16,0.06986082100316059,3.547489192106908E-16,-2.471593905353287,-0.03718896447605677,-1.4289931348888525,0.0,0.0,0.0,397748.768109,3.59852917815E-12,1009.53002767,5.29469509567,1.11405482452,-6.83265572643
300.0,-3158349.2707,2810361.12396,5277899.32319,-4013924.98617,-1314597.20057,5281075.7838,1730.7492879,-7457.52569377,-549.126655788,5.17382866283,1.69447627941,-6.80714795491,6758662.11723,1.04522415437,8.966980595572332E-16,0.13795802196364546,8.441571576289743E-16,-2.471593905353287,-0.03718896447605677,-1.4289931348888525,0.0,0.0,0.0,397271.88372,3.76928395326E-12,1019.22714303,5.17382866283,1.69447627941,-6.80714795491
360.0,-3474217.08765,2504360.5957,5232799.48317,-3900850.50203,-1758653.68795,5235904.82755,2036.95136094,-7338.62906256,-956.001393646,5.02895729882,2.26724769265,-6.75010277495,6758662.11723,1.04959942346,1.4177731278296375E-15,0.20606298200208997,2.2259038106965624E-15,-2.471593905353287,-0.03718896447605677,-1.4289931348888525,0.0,0.0,0.0,396658.271822,3.95927497991E-12,1029.24864764,5.02895729882,2.26724769265,-6.75010277495
420.0,-3776749.71579,2189495.12225,5163423.07076,-3769678.779,-2194551.17459,5166442.89226,2333.75704093,-7185.6620202,-1358.51297384,4.86073340379,2.82971808105,-6.66176165595,6758662.11723,1.05397469255,1.1533003888150634E-15,0.27417603045985506,1.387564530294023E-15,-2.471593905353287,-0.03718896447605677,-1.4289931348888525,0.0,0.0,0.0,395913.75464,4.16743259548E-12,1039.44538411,4.86073340379,2.82971808105,-6.66176165595
480.0,-4064617.96598,1867095.10307,5070087.60404,-3621015.19486,-2620265.54951,5073007.89024,2619.78746171,-6999.32109896,-1754.79449109,4.66991762971,3.37928001561,-6.54251023745,6758662.11723,1.05834996164,0.0,0.34229745936735095,1.6758193376822174E-15,-2.471593905353287,-0.03718896447605677,-1.4289931348888525,0.0,0.0,0.0,395046.35254,4.39248786983E-12,1049.67618037,4.66991762971,3.37928001561,-6.54251023745
540.0,-4336548.05782,1538514.85011,4953221.77021,-3455546.42661,-3033819.15549,4956028.96803,2893.71256637,-6780.45766981,-2143.0064719,4.4573757334,3.91338162297,-6.39287699509,6758662.11723,1.06272523073,-4.843110884819026E-16,0.41042752207308136,1.161589876280568E-15,-2.471593905353287,-0.03718896447605677,-1.4289931348888525,0.0,0.0,0.0,394066.16769,4.63306699777E-12,1059.81737392,4.4573757334,3.91338162297,-6.39287699509
600.0,-4591327.35534,1205126.8898,4813363.52578,-3274037.33485,-3433289.97225,4816044.60446,3154.25730682,-6530.07425328,-2521.34538841,4.22407493918,4.42953841007,-6.21353125793,6758662.11723,1.06710049981,8.129781848026756E-16,0.47856643203081367,1.5477853902982743E-15,-2.471593905353287,-0.03718896447605677,-1.4289931348888525,0.0,0.0,0.0,392985.230813,4.88772979641E-12,1069.76694871,4.22407493918,4.42953841007,-6.21353125793
660.0,-4827809.88176,868316.221086,4651157.69009,-3077327.483,-3816820.55719,4653700.20187,3400.20761071,-6249.32012759,-2888.05203397,3.97107982106,4.92534485816,-6.00528057771,6758662.11723,1.0714757689,2.599331714162204E-15,0.5467143617768164,2.944555457448281E-15,-2.471593905353287,-0.03718896447605677,-1.4289931348888525,0.0,0.0,0.0,391817.313346,5.15495300749E-12,1079.44416186,3.97107982106,4.92534485816,-6.00528057771
720.0,-5044921.58748,529474.553225,4467353.04181,-2866327.30621,-4182626.70184,4469745.1799,3630.4160871,-5939.48624934,-3241.41972145,3.69954771645,5.39848573122,-5.76906745355,6758662.11723,1.07585103799,3.2619734912119623E-15,0.6148714420868653,3.0198738961653018E-15,-2.471593905353287,-0.03718896447605677,-1.4289931348888525,0.0,0.0,0.0,390577.707882,5.43307543139E-12,1088.78644481,3.69954771645,5.39848573122,-5.76906745355
780.0,-5241665.34627,189994.547074,4262798.92999,-2642013.94644,-4529005.7634,4265029.58367,3843.80744331,-5601.99950563,-3579.8022658,3.41072368629,5.84674704438,-5.50596541829,6758662.11723,1.08022630708,4.0077204357882885E-15,0.6830377613304707,2.9923716200222532E-15,-2.471593905353287,-0.03718896447605677,-1.4289931348888525,0.0,0.0,0.0,389282.980377,5.72022664279E-12,1097.7452932,3.41072368629,5.84674704438,-5.50596541829
840.0,-5417125.65531,-148735.916456,4038441.41394,-2405426.77194,-4854344.63194,4040500.22042,4039.38358617,-5238.41631976,-3901.62171297,3.10593503834,6.26802663725,-5.21717449618,6758662.11723,1.08460157617,3.1900286675263224E-15,0.7512133650205838,3.3656701269064537E-15,-2.471593905353287,-0.03718896447605677,-1.4289931348888525,0.0,0.0,0.0,387950.698132,6.01425775883E-12,1106.28229852,3.10593503834,6.26802663725,-5.21717449618
900.0,-5570473.01589,-485339.417195,3795318.94811,-2157662.60064,-5157127.29515,3797196.34098,4216.22838204,-4850.41563555,-4205.37577766,2.78658543362,6.66034429836,-4.90401604459,6758662.11723,1.08897684525,3.577896623855039E-15,0.8193982555570322,3.826926360464908E-15,-2.471593905353287,-0.03718896447605677,-1.4289931348888525,0.0,0.0,0.0,386599.138075,6.3126881824E-12,1114.36594672,2.78658543362,6.66034429836,-4.90401604459
960.0,-5700967.97255,-818454.602498,3534557.63056,-1899870.6489,-5435941.96416,3536244.8846,4373.51205129,-4439.79130921,-4489.64495351,2.45414859808,7.02185138673,-4.56792699599,6758662.11723,1.09335211434,2.3742214361694763E-15,0.8875923921671792,2.198353181637758E-15,-2.471593905353287,-0.03718896447605677,-1.4289931348888525,0.0,0.0,0.0,385246.980295,6.61267311836E-12,1121.96917921,2.45414859808,7.02185138673,-4.56792699599
1020.0,-5807964.79382,-1146741.69988,3257366.03601,-1633247.22738,-5689487.73092,3258855.30808,4510.49524468,-4008.44443399,-4753.09924174,2.11016519327,7.35081513871,-4.21045258201,6758662.63168,1.09772738343,2.056893510177151E-5,0.9557971899360571,1.1285617185963198E-6,-2.4715742045828355,-0.037189734651982026,-1.4289945767734151,1.969639675837424E-6,1.5022080172318384E-7,6.527557588994916E-8,383912.996227,6.91099894537E-12,1129.0678268,2.11016165953,7.35083989175,-4.21045351233
1080.0,-5890914.81213,-1468887.93875,2965029.65787,-1359030.20173,-5916580.76897,2966314.02375,4626.53256767,-3558.37415798,-4994.50451678,1.75622163551,7.64572604553,-3.83324308341,6758664.07976,1.10210265252,3.327263645160315E-4,1.024032094549011,2.0122775013066142E-5,-2.4712775067606843,-0.03720132840662932,-1.4290162941304452,7.893368023219518E-6,6.019547819804953E-7,2.6166664835717596E-7,382615.777026,7.20410010766E-12,1135.63959156,1.75621810231,7.64575079864,-3.83324401402
1140.0,-5949369.23348,-1783612.73813,2658904.9764,-1078493.273,-6116159.83961,2659978.46341,4721.07553366,-3091.6670116,-5212.72850183,1.39396409822,7.90515726916,-3.43804099053,6758665.37384,1.10647792161,0.0010287206104237039,1.092302956688287,6.969831195853063E-5,-2.4706244136826605,-0.03722681387628188,-1.4290641134205098,1.3817096355975751E-5,1.0534801695772029E-6,4.5832276312785084E-7,381373.333147,7.48811880277E-12,1141.66342989,1.3939605662,7.9051820224,-3.43804192178
1200.0,-5982981.63585,-2089672.80737,2340413.19019,-792940.062972,-6287291.36197,2341270.80532,4793.67564073,-2610.48975387,-5406.74614038,1.02507674753,8.12787076573,-3.0266767565,6758666.5078,1.11085319069,0.0021244739697835325,1.1606095211867486,1.64539052610279E-4,-2.4696149221373576,-0.03726611287472705,-1.4291380683633694,1.974082462185097E-5,1.5046406947795481E-6,6.55442802556256E-7,380202.798456,7.75898032495E-12,1147.11918888,1.02507321735,8.1278955192,-3.02667768873
1260.0,-5991510.03268,-2385867.06018,2011033.63431,-503698.05063,-6429173.88782,2011671.38788,4843.98648659,-2117.07834489,-5575.64460443,0.651277412721,8.31279887181,-2.6010594409,6758667.47625,1.11522845978,0.0036481090537789826,1.228951466895087,3.3155748098273895E-4,-2.4682490270982274,-0.037319104484856154,-1.42923821088257,2.5664552701377382E-5,1.9552805341171837E-6,8.532256102290715E-7,379120.14993,8.01248988302E-12,1151.98733794,0.651273885028,8.31282362559,-2.60106037446
1320.0,-5974818.47592,-2671041.31352,1672296.91502,-212112.390427,-6541141.94358,1672711.83964,4871.76554777,-1613.72755176,-5718.62774806,0.274309533636,8.45904987964,-2.16316788368,6758668.27459,1.11960372887,0.0056552484731448,1.297328403589097,6.251770305336578E-4,-2.466526721863206,-0.03738562497488857,-1.4293646108139708,3.1588280378779936E-5,2.4052445016745743E-6,1.0518699744165115E-6,378139.931405,8.24444690315E-12,1156.24863722,0.274306009081,8.4590746338,-2.1631688189
1380.0,-5932878.20399,-2944092.76412,1325777.79351,80460.3616464,-6622669.23898,1325967.95823,4876.87547025,-1102.78024446,-5835.02001968,-0.104066063216,8.56591278821,-1.71504148815,6758668.89897,1.12397899796,0.008274949532063603,1.365739860914763,0.0011732501490245221,-2.4644479980023535,-0.03746546768806704,-1.4295173555479523,3.7512007313370364E-5,2.8543782403145084E-6,1.251574611592927E-6,377275.002413,8.45078422722E-12,1159.88435294,-0.10406958398,8.56593754284,-1.71504242536
1440.0,-5865768.32576,-3203974.22475,973087.851687,372658.584525,-6673371.2255,973052.371413,4859.2848626,-586.616432319,-5924.26981047,-0.482079519442,8.63286119652,-1.25877065634,6758669.34639,1.12835426705,0.011893795149927255,1.4341852411718652,0.002361132987048564,-2.4620128454276657,-0.037558382903903925,-1.4296965495651603,4.3435733011220474E-5,3.302528412931274E-6,1.4525381500289636E-6,376536.317087,8.62773065658E-12,1162.87717836,-0.482083035758,8.63288595169,-1.25877159588
1500.0,-5773676.03359,-3449698.10331,615867.974649,663121.961029,-6693006.99055,615607.01457,4819.06858493,-67.642093315,-5985.95221971,-0.857960388433,8.65955630983,-0.796486922655,6758669.61465,1.13272953613,0.018450595930693696,1.5026634805455723,0.00612637133741854,-2.4592212524803445,-0.03766407767481837,-1.429902313869271,4.935945679741146E-5,3.749542893520582E-6,1.6549591135093866E-6,375932.737676,8.77196764651E-12,1165.21192922,-0.857963899641,8.65958106563,-0.796487864837
1560.0,-5656896.34094,-3680340.10917,255780.685069,950497.848921,-6681480.47646,255295.460221,4756.40752958,451.722149767,-6019.77122029,-1.22994612462,8.64584903434,-0.330352834424,6758669.7024,1.13710480522,2.2126694932399538,1.5701473111585613,2.1971917874030424,-2.4560732059307937,-0.037782215637815364,-1.4301347853359863,5.528317778706139E-5,4.195270958275663E-6,1.859035905178312E-6,375470.886462,8.8807707959E-12,1166.87604423,-1.22994963005,8.64587379084,-0.330353779559
1620.0,-5515831.3418,-3895042.67229,-105497.633946,1233447.62352,-6638841.01691,-106204.864043,4671.58789228,969.052450978,-6025.5612107,-1.59629057395,8.59178114064,0.137448369552,6758669.60914,1.14148007431,-3.1320076893102753,1.5018685349494558,3.1321831216734517,-2.452568691065887,-0.037912416803649866,-1.4303941159503224,6.120689485862167E-5,4.639563476578649E-6,2.0649667915240674E-6,375155.039163,8.95212837592E-12,1167.85996947,-1.59629407295,8.59180589793,0.137447421161
1680.0,-5350988.99207,-4093018.06206,-466284.590472,1510652.96134,-6565283.18643,-467210.532084,4564.9999349,1481.93320436,-6003.28794305,-1.95527242058,8.49758548162,0.604723229535,6758669.33521,1.1458553434,-3.124438128677961,1.4332935635311355,3.1358711039436247,-2.4487076917936896,-0.03805425732749061,-1.430680471960127,6.713060662612637E-5,5.082273101869782E-6,2.272949886549052E-6,374987.062027,8.98482959277E-12,1168.15746734,-1.95527591247,8.49761023978,0.604722277598
1740.0,-5162981.41479,-4273551.19417,-824899.672197,1780822.03427,-6461145.96242,-826040.012502,4437.13624389,1987.9684916,-5953.04881966,-2.30520354413,8.36368525593,1.06927862966,6758668.88181,1.15023061249,-3.1190363995692865,1.3646871695627547,3.1370248804968335,-2.444490190730722,-0.038207269259338025,-1.4309940329231277,7.305431141266312E-5,5.5232544623944415E-6,2.483183136124611E-6,374966.393915,8.97851703526E-12,1167.76587759,-2.30520702824,8.36371001503,1.06927767389
1800.0,-4952522.73373,-4436002.11515,-1179672.13367,2042695.58442,-6326911.2021,-1181021.56066,4288.5894911,2484.79345667,-5875.07255443,-2.64443724206,8.19069231378,1.5289324009,6758668.25099,1.15460588158,-3.1139078327446934,1.296050677218636,3.137537407165456,-2.4399161692717737,-0.03837094028117758,-1.4313349906597364,7.897800722332059E-5,5.962364351950188E-6,2.695864302565808E-6,375090.073725,8.93370022869E-12,1166.68634975,-2.64444071771,8.19071707391,1.52893144105
1860.0,-4720426.44216,-4579808.15608,-1528948.84422,2295052.84976,-6163201.44065,-1530501.07135,4120.04970642,2970.08555029,-5769.71819826,-2.97137627174,7.9794045078,1.98152390526,6758667.44563,1.15898115066,-3.1086709229312666,1.2273850632461147,3.1377883269386433,-2.4349856077120777,-0.03854471343139236,-1.4317035481028753,8.490169172005571E-5,6.399461920284724E-6,2.911190949412161E-6,375352.812521,8.85173005715E-12,1164.92406058,-2.97137973824,7.97942926904,1.98152294106
1920.0,-4467602.31576,-4704485.74799,-1871102.05855,2536717.31189,-5970777.02002,-1872849.85386,3932.30107442,3441.57558686,-5637.47353141,-3.28448066741,7.73080209741,2.42492454342,6758666.46944,1.16335641975,-3.103197448381044,1.1586912862306311,3.1379038262486487,-2.429698485421843,-0.03872798682062346,-1.4320999180553045,9.082536219499017E-5,6.83440886363349E-6,3.129360426505074E-6,375747.108823,8.73473668681E-12,1162.48842561,-3.28448412407,7.73082685985,2.42492357463
1980.0,-4195052.88115,-4809631.89353,-2204537.07207,2766562.23762,-5750532.56136,-2206472.29193,3726.21826989,3897.05855764,-5478.95282919,-3.58227528833,7.44604322137,2.85704812837,6758665.32697,1.16773168884,-3.0974316093644974,1.0899703325258128,3.1379374698959888,-2.4240547808986124,-0.03892011334082355,-1.4325243218492076,9.674901554702292E-5,7.267069614838381E-6,3.350569855309617E-6,376263.40456,8.58553619226E-12,1159.39330988,-3.58227873445,7.4460679851,2.85704715479
2040.0,-3903869.43656,-4894925.28053,-2527699.72467,2983515.98461,-5503492.7776,-2529813.35164,3502.76221184,4334.40513462,-5294.89404932,-3.86336051604,7.12648325231,3.27586011475,6758664.90902,1.17210695793,-3.0914187257118484,1.0212290870331897,3.13792108224915,-2.418133490117979,-0.03911763756697385,-1.4329710463639544,9.872843389395554E-5,7.397068317645092E-6,3.443559965476169E-6,376890.261374,8.40751546298E-12,1155.65723804,-3.86336051604,7.12648325231,3.27586011475
2100.0,-3595227.65271,-4960127.0431,-2839083.71536,3186567.04678,-5230807.66023,-2841365.9003,3262.97587141,4751.56936348,-5086.15527571,-4.12640542373,6.77356941901,3.67939148611,6758664.90902,1.17648222702,-3.0853870169553406,0.9524875203336616,3.137883976915772,-2.4121921534803956,-0.039311163418340754,-1.4334208339594632,9.872832312506375E-5,7.376060013661285E-6,3.4711228057136326E-6,377614.570349,8.20450109685E-12,1151.30360629,-4.12640542373,6.77356941901,3.67939148611
2160.0,-3270382.88879,-5005081.23794,-3137237.68696,3374768.83346,-4933747.19727,-3139677.79498,3007.97913321,5146.5998937,-4853.71073471,-4.37017477232,6.38898206026,4.06574238709,6758664.90902,1.1808574961,-3.079350527654745,0.8837477785678528,3.1378309066543,-2.406250677582991,-0.039499975146393605,-1.4338721569280963,9.872819615777119E-5,7.355162307492079E-6,3.4986762566033186E-6,378421.898243,7.98060665188E-12,1146.36090853,-4.37017477232,6.38898206026,4.06574238709
2220.0,-2930664.99465,-5029714.88816,-3420772.05766,3547244.11924,-4613695.36113,-3423358.7178,2738.96341864,5517.6497756,-4598.64620827,-4.59352136369,5.9745276881,4.43309534871,6758664.90902,1.18523276519,-3.0733061169329936,0.8150105288599444,3.1377636422932467,-2.400309066370209,-0.039684066688382175,-1.4343249791083772,9.8728053067127E-5,7.334375181370021E-6,3.5262203515857364E-6,379296.714753,7.74010178792E-12,1140.86293617,-4.59352136369,5.9745276881,4.43309534871
2280.0,-2577472.8006,-5034037.7058,-3688365.55802,3703189.17151,-4272143.6028,-3691086.71638,2457.18609491,5862.98476141,-4322.1538612,-4.79539509686,5.5321549986,4.77972318508,6758664.90902,1.18960803428,-3.0672513448197907,0.746276440157987,3.137683087686272,-2.394367323821401,-0.03986343221909554,-1.43477926434581,9.872789392765674E-5,7.313698617597476E-6,3.5537551241188472E-6,380222.684315,7.48728332094E-12,1134.84896616,-4.79539509686,5.5321549986,4.77972318508
2340.0,-2212268.28042,-5018141.47327,-3938771.44307,3841877.52926,-3910683.83939,-3941614.41918,2163.96449328,6180.99155522,-4025.52656958,-4.97484807913,5.06394538564,5.10399740038,6758664.90902,1.19398330337,-3.061184157272048,0.6775461803663237,3.1375895707283816,-2.3884254539508243,-0.04003806615051304,-1.4352349764998622,9.872771881336235E-5,7.2931325985291605E-6,3.5812806077478797E-6,381182.974228,7.22635991867E-12,1128.36390922,-4.97484807913,5.06394538564,5.10399740038
2400.0,-1836570.40858,-4982199.08709,-4170823.34962,3962663.41414,-3531000.96417,-4173774.89571,1860.66963625,6470.18547332,-3710.15175964,-5.1310392164,4.57210278209,5.40439609225,6758664.90902,1.19835857246,-3.055102698498624,0.6088204134797609,3.1374830023728784,-2.3824834608425487,-0.04020796313093159,-1.4356920794387273,9.872752779824584E-5,7.272677106537253E-6,3.6087968360180617E-6,382160.568676,6.96135454558E-12,1121.45837797,-5.1310392164,4.57210278209,5.40439609225
2460.0,-1451948.73909,-4926463.27075,-4383440.77019,4064984.75719,-3134864.91563,-4386487.13316,1548.71970549,6729.2174762,-3377.50478856,-5.26323825788,4.05894288486,5.67951130841,6758664.90902,1.20273384154,-3.0490051897297583,0.5400997967439161,3.137362963321862,-2.3765413485980984,-0.0403731180444421,-1.4361505370480527,9.872732095526193E-5,7.2523321240811916E-6,3.636303842492075E-6,383138.58264,6.69602593058E-12,1114.18860939,-5.26323825788,4.05894288486,5.67951130841
2520.0,-1060016.73429,-4851264.96545,-4575634.11731,4148365.82667,-2724122.34438,-4578761.10301,1229.57328401,6956.88053712,-3029.14190141,-5.37082927383,3.52688182383,5.92805581702,6758664.90902,1.20710911063,-3.0428898435039513,0.4713849778853813,3.137228748514674,-2.370599121336451,-0.040533526011103965,-1.436610313227448,9.872709835719086E-5,7.2320976336378725E-6,3.663801660819868E-6,384100.569824,6.43380819823E-12,1106.6161421,-5.37082927383,3.52688182383,5.92805581702
2580.0,-662424.873704,-4757011.4088,-4746509.35359,4212419.44459,-2300687.91864,-4749702.39324,904.722407177,7152.11531564,-2666.69280023,-5.45331354842,2.97842433843,6.14886925501,6758664.90902,1.21148437972,-3.0367547962458943,0.4026765924099532,3.1370793842844864,-2.3646567832463954,-0.040689182385025245,-1.4370713718939763,9.872686007681286E-5,7.2119736177365486E-6,3.691290324668841E-6,385030.818973,6.17776598853E-12,1098.80711172,-5.45331354842,2.97842433843,6.14886925501
2640.0,-260853.573736,-4644183.91266,-4895272.16565,4256848.78133,-1866535.31084,-4898516.38392,575.685458021,7314.0151087,-2291.85286372,-5.51031187404,2.4161515278,6.34092362264,6758664.90902,1.21585964881,-3.0305980495361395,0.33397526101081887,3.136913626106821,-2.35871433849927,-0.04084008275540987,-1.4375336769821538,9.872660618586096E-5,7.191960058993742E-6,3.7187698677063958E-6,385914.63324,5.93056123121E-12,1090.8310052,-5.51031187404,2.4161515278,6.34092362264
2700.0,142994.049537,-4513335.35294,-5021231.66208,4281448.72035,-1423687.90944,-5024511.94665,243.999943112,7441.83005557,-1906.37505762,-5.54156623654,1.84270824331,6.50332809693,6758664.90902,1.2202349179,-3.024417413265729,0.26528158708844335,3.1367299407273843,-2.3527717913536765,-0.04098622294481227,-1.4379971924509316,9.872633675589368E-5,7.172056940025971E-6,3.746240323704653E-6,386738.587732,5.69442767154E-12,1082.75873379,-5.54156623654,1.84270824331,6.50332809693
2760.0,547399.541861,-4365087.38504,-5123803.57807,4286106.78668,-974209.301358,-5127104.65024,-88.7848142281,7534.97057741,-1512.0615772,-5.54694088525,1.2607901934,6.63533314097,6758664.90902,1.22461018698,-3.018210445719039,0.19659615442753622,3.1365264737512986,-2.346829146050766,-0.041127599008962866,-1.4384618822732234,9.872605185829495E-5,7.152264243519572E-6,3.7737017263833752E-6,387490.76078,5.47115069292E-12,1074.6599841,-5.54694088525,1.2607901934,6.63533314097
2820.0,950636.563033,-4200127.3999,-5202512.97198,4270803.63548,-520193.571344,-5205819.45801,-421.115026397,7593.01003622,-1110.75526487,-5.52642278539,0.673130832241,6.73633389051,6758664.90902,1.22898545607,-3.011974386430965,0.1279195250625138,3.136301002309775,-2.340886406884049,-0.04126420723624448,-1.4389277104498677,9.872575156340157E-5,7.132581952230691E-6,3.8011541095670415E-6,388160.935085,5.26205302218E-12,1066.60001073,-5.52642278539,0.673130832241,6.73633389051
2880.0,1350978.39601,-4019205.23649,-5256996.40162,4235613.09906,-63755.4655112,-5260292.90457,-751.43980261,7615.6866025,-704.330846602,-5.48012145389,0.0824881041256,6.80587280423,6758664.90902,1.23336072516,-3.0057060769315194,0.05925223733826403,3.1360508706923715,-2.334943578181941,-0.04139604414699416,-1.4393946410061385,9.872543594189937E-5,7.113010048950381E-6,3.828597507080134E-6,388740.765411,5.06799074166E-12,1058.63631556,-5.48012145389,0.0824881041256,6.80587280423
2940.0,1746705.47869,-3823129.66773,-5287003.5708,4180701.79278,392979.533251,-5290274.74234,-1078.21848178,7602.90432496,-294.686031672,-5.40826818398,-0.508368884455,6.84364156824,6758664.90902,1.23773599425,-2.99940186457819,-0.009405195759034191,3.1357729052621894,-2.329000664272859,-0.04152310649297967,-1.439862637989998,9.872510506342697E-5,7.093548516539509E-6,3.856031952799492E-6,389223.910168,4.88936673655E-12,1050.8159046,-5.40826818398,-0.508368884455,6.84364156824
3000.0,2136112.92412,-3612764.67721,-5292398.43913,4106328.2829,847885.170065,-5295629.05115,-1399.92790075,7554.73340025,116.267479367,-5.31121466713,-1.09667319343,6.84948225043,6758664.90902,1.24211126334,-2.9930574823725684,-0.07805228797033636,3.1354633030689607,-2.3230576695550322,-0.04164539125670123,-1.440331665480825,9.87247589974485E-5,7.07419733789385E-6,3.8834574806019585E-6,389606.124831,4.72616790237E-12,1043.17385149,-5.31121466713,-1.09667319343,6.84948225043
3060.0,2517517.99489,-3389025.54521,-5273159.7911,4012841.82099,1298844.37507,-5276334.80669,-1715.06956202,7471.40964468,526.613033462,-5.18943102446,-1.679673308,6.82338770445,6758664.90902,1.24648653242,-2.9866678965582,-0.14668858075891908,3.1351174863409503,-2.317114598374331,-0.041762895651042575,-1.4408016875806875,9.872439781307897E-5,7.054956495978988E-6,3.910874124451639E-6,389885.315821,4.57802715665E-12,1035.73361153,-5.18943102446,-1.679673308,6.82338770445
3120.0,2889267.49778,-3152874.7629,-5229381.26284,3900680.65232,1743759.16494,-5232485.90631,-2022.17666608,7353.33317423,934.438065656,-5.04350326319,-2.25464625855,6.76550122792,6758664.90902,1.25086180151,-2.9802271094158286,-0.21531364384322926,3.13472991093507,-2.3111714551987985,-0.04187561711822368,-1.4412726684283053,9.872402157890984E-5,7.03582597381287E-6,3.938281918260281E-6,390061.554134,4.4443035689E-12,1028.50899639,-5.04350326319,-2.25464625855,6.76550122792
3180.0,3249745.06513,-2905317.79395,-5161270.82783,3770369.90715,2180560.44169,-5164290.6535,-2319.82097429,7201.06630324,1337.84309702,-4.87413017667,-2.81891053467,6.67611548342,6758664.90902,1.2552370706,-2.9737279005706996,-0.2839270751501962,3.1342938124438318,-2.305228244444117,-0.041983553329277196,-1.441744572186833,9.872363036318347E-5,7.016805754483257E-6,3.965680896079259E-6,390137.048669,4.32416800596E-12,1021.50720439,-4.87413017667,-2.81891053467,6.67611548342
3240.0,3597378.29001,-2647398.70355,-5069149.74544,3622519.08612,2607217.64233,-5072070.70484,-2606.61946963,7015.33067603,1734.95064604,-4.6821197096,-3.36983872829,6.55567069518,6758664.90902,1.25961233969,-2.9671614820805887,-0.3525285000126075,3.1338008655245293,-2.2992849705608767,-0.04208670218369937,-1.4422173630595678,9.872322423361864E-5,6.997895821095361E-6,3.993071091890134E-6,390116.079866,4.21668090939E-12,1014.73207051,-4.6821197096,-3.36983872829,6.55567069518
3300.0,3930645.68288,-2380195.67469,-4953450.97882,3457819.15298,3021748.19386,-4956259.48594,-2881.24078389,6797.00364966,2123.91401045,-4.4683848125,-3.90486984405,6.40475213828,6758664.90902,1.26398760878,-2.9605170312984317,-0.421117569371594,3.133240720374699,-2.293341638034574,-0.042185061808751916,-1.4426910052777315,9.872280325741055E-5,6.97909615684166E-6,4.0204525397442775E-6,390004.894948,4.12085302109E-12,1008.18682261,-4.4683848125,-3.90486984405,6.40475213828
3360.0,4248083.41863,-2104816.43192,-4814717.09102,3277039.24927,3422226.72922,-4817400.08541,-3142.4113615,6547.11394949,2502.92587777,-4.23393881214,-4.42152121797,6.2240869406,6758664.90902,1.26836287786,-2.9537810471250796,-0.4896939566097301,3.132600362440628,-2.287398251368157,-0.04227863055824028,-1.443165463110944,9.872236750192885E-5,6.960406745001901E-6,4.047825273762878E-6,389811.566641,4.0356860645E-12,1001.87595947,-4.23393881214,-4.42152121797,6.2240869406
3420.0,4548291.8435,-1822393.59287,-4653597.63103,3081023.04793,3806794.02148,-4656142.63835,-3388.92133175,6266.83662279,2870.22672385,-3.97989032654,-4.91739998875,6.01454022157,6758664.90902,1.27273814695,-2.9469364457367617,-0.5582573524511817,3.1318632114434872,-2.28145481508203,-0.04236740701286271,-1.4436407008654766,9.872191703332157E-5,6.941827568838377E-6,4.075189328032217E-6,389545.817938,3.9601954649E-12,995.806198108,-3.97989032654,-4.91739998875,6.01454022157
3480.0,4829941.71297,-1534079.96777,-4470846.02346,2870684.7639,4173665.59486,-4473241.21329,-3619.63006303,5957.48731881,3224.11296056,-3.70743775538,-5.39021406993,5.77711059452,6758664.90902,1.27711341604,-2.9399612639625308,-0.6268074570518741,3.1310078278634665,-2.275511333679141,-0.042451389978290406,-1.4441166828877439,9.872145191773669E-5,6.92335861177046E-6,4.102544736690931E-6,389218.815999,3.89341978744E-12,989.986650206,-3.70743775538,-5.39021406993,5.77711059452
3540.0,5091780.13279,-1241043.82687,-4267315.97812,2647004.84166,4521139.97308,-4269550.21871,-3833.4713745,5620.51592667,3562.94479524,-3.41786337778,-5.83778257471,5.51292506248,6758664.90902,1.28148868513,-2.93282675492061,-0.6953439678310561,3.1300060118398814,-2.269567811714801,-0.0425305784856911,-1.4445933735608107,9.872097222079857E-5,6.904999857200066E-6,4.129891533930023E-6,388842.938866,3.8344219854E-12,984.428466209,-3.41786337778,-5.83778257471,5.51292506248
3600.0,5332636.17673,-944464.155786,-4043957.43777,2411025.3409,4847606.52762,-4046020.3475,-4029.4583828,5257.49960532,3885.15376654,-3.11252709135,-6.25804564949,5.22323333983,6758664.90902,1.28586395422,-2.925494515852214,-0.7638665606531603,3.1288199340942335,-2.263624253779225,-0.04260497179033279,-1.445070737309632,9.872047800813157E-5,6.886751288616384E-6,4.1572297539579464E-6,388431.51917,3.78228673395E-12,979.144174242,-3.11252709135,-6.25804564949,5.22323333983
3660.0,5551426.15623,-645525.918095,-3801812.08462,2163845.04286,5151552.89041,-3803694.07991,-4206.68796311,4870.13524226,4189.24992314,-2.79285982687,-6.6490736761,4.90940163417,6758664.90902,1.2902392233,-2.9179120198517747,-0.8323748601432431,3.1273976711336364,-2.257680664392816,-0.04267456937106017,-1.4455487386027945,9.871996934413838E-5,6.868612889578412E-6,4.1845594309657E-6,387998.569462,3.73611692432E-12,974.146889103,-2.79285982687,-6.6490736761,4.90940163417
3720.0,5747158.51889,-345415.344414,-3542008.42764,1906614.30107,5431571.89794,-3543700.76719,-4364.34480623,4460.2313799,4473.82861415,-2.46035667428,-7.00907580702,4.57290592508,6758664.90902,1.29461449239,-2.9100054112525053,-0.9008683915595309,3.125666004196854,-2.251737048180696,-0.042739370929771,-1.4460273419507732,9.871944629339617E-5,6.850584643714959E-6,4.211880599231551E-6,387558.494187,3.69503126563E-12,969.449507788,-2.46035667428,-7.00907580702,4.57290592508
3780.0,5918938.35401,-45315.2664798,-3265756.49524,1640529.66113,5686368.03591,-3267251.32018,-4501.70505556,4029.69965067,4737.57686204,-2.11656975585,-7.33640780208,4.21532477768,6758664.90902,1.29898976148,-2.9016673867233003,-0.9693464996600437,3.1235183040512977,-2.245793409698175,-0.042799376390194405,-1.4465065119111666,9.871890892013305E-5,6.832666534689746E-6,4.239193293051218E-6,387125.793625,3.65816407059E-12,965.063958935,-2.11656975585,-7.33640780208,4.21532477768
3840.00000001,6065971.4858,253599.485682,-2974342.15877,1366828.27528,5914763.3564,-2975632.52886,-4618.13950972,3580.54576359,4979.27929146,-1.76310088294,-7.62957913926,3.83833173033,6758664.90902,1.30336503057,-2.8927357494831933,-1.0378082051318116,3.1207930893264617,-2.239849753570375,-0.04285458589806536,-1.446986213088698,9.871835728752995E-5,6.814858546253757E-6,4.2664975467029695E-6,386714.765369,3.62466767807E-12,961.000538315,-1.76310088294,-7.62957913926,3.83833173033
3900.00000001,6187568.13621,550166.60606,-2669121.1145,1086782.13817,6115702.8418,-2670201.0399,-4713.11637896,3114.86008647,5197.82358952,-1.40159403281,-7.88725937649,3.44368729709,6758664.90902,1.30774029966,-2.88295303131855,-1.1062519344348505,3.1172336530166125,-2.233906084404966,-0.042904999819204884,-1.4474664101334684,9.871779145911684E-5,6.797160662227788E-6,4.2937933945523365E-6,386339.209011,3.59371753475E-12,957.267339981,-1.40159403281,-7.88725937649,3.44368729709
3960.00000001,6283146.14152,843240.737691,-2351512.55267,801692.170792,6288259.19276,-2352377.02139,-4786.20358581,2634.80786949,5392.20547567,-1.0337276817,-8.10828374545,3.03323062568,6758664.90902,1.31211556874,-2.871884326443784,-1.1746749704405803,3.1124059010538896,-2.227962406809616,-0.04295061874004359,-1.4479470677444484,9.871721149755102E-5,6.779572866467545E-6,4.321080870929947E-6,386012.139746,3.56451965235E-12,953.869779811,-1.0337276817,-8.10828374545,3.03323062568
4020.00000001,6352233.70877,1131697.78441,-2022992.54375,512882.180332,6431637.0199,-2023637.54448,-4837.07060218,2142.61915646,5561.53316183,-0.661207030343,-8.29165796211,2.60887085297,6758664.90902,1.31649083783,-2.858732394200189,-1.2430722166531956,3.1055134606620136,-2.222018725409449,-0.04299144346587643,-1.4484281506729686,9.871661746496628E-5,6.762095142933452E-6,4.348360010253693E-6,385745.516503,3.53631992779E-12,950.810201647,-0.661207030343,-8.29165796211,2.60887085297
4080.00000001,6394471.69997,1414439.09407,-1685087.17279,221692.723794,6545176.42203,-1685509.71314,-4865.48981769,1640.5784313,5705.03128575,-0.285756157282,-8.43656224292,2.17257819943,6758664.90902,1.32086610692,-2.841860897726714,-1.3114330103379326,3.0949209247168237,-2.216075044829586,-0.04302747502103711,-1.4489096237227193,9.87160094236708E-5,6.744727475638293E-6,4.375630846924014E-6,385549.990008,3.50841463477E-12,948.087553449,-0.285756157282,-8.43656224292,2.17257819943
4140.00000001,6409615.43429,1690395.49886,-1339365.45416,-70525.0963182,6628355.93639,-1339563.57413,-4871.337436,1131.01404755,5822.04430329,0.0908898648504,-8.54235451903,1.72637484481,6758664.90902,1.32524137601,-2.817297562870982,-1.37973110862642,3.0766570174291834,-2.2101313696951506,-0.04305871464732741,-1.4493914517497504,9.871538743475114E-5,6.727469848629758E-6,4.4028934153762564E-6,385434.675845,3.48016125818E-12,945.697120051,0.0908898648504,-8.54235451903,1.72637484481
4200.00000001,6397536.00033,1958531.19905,-987432.059199,-362415.875898,6680794.8494,-987404.83994,-4854.5938977,616.287489239,5912.0393277,0.466992856094,-8.60857284458,1.27232562642,6758664.90902,1.3296166451,-2.772275307760359,-1.4478813744101053,3.0379557312987857,-2.204187704648718,-0.04308516380331898,-1.4498735996607268,9.87147515596429E-5,6.710322246077713E-6,4.43014775006322E-6,385406.957139,3.45098875098E-12,943.63029888,0.466992856094,-8.60857284458,1.27232562642
4260.00000001,6358221.07256,2217847.47771,-630919.890493,-652626.164322,6702254.85915,-630667.458192,-4815.34383087,98.7825113852,5974.60840654,0.84081938553,-8.63493699825,0.812528601609,6758664.90902,1.33399191418,-2.631774213710981,-1.515377538078094,2.9037983063658563,-2.1982440542979584,-0.0431068241645279,-1.450356032425145,9.871410185890899E-5,6.6932846521869255E-6,4.45739388547261E-6,385472.32092,3.42040625307E-12,941.874404556,0.84081938553,-8.63493699825,0.812528601609
4320.00000001,6291775.22835,2467386.23436,-271482.53652,-939810.702468,6692641.08401,-271006.061507,-4753.77553194,-419.105791384,6009.47022926,1.2106485649,-8.62134928076,0.349105515167,6758664.90902,1.33836718327,-0.46728393207193974,-1.5510226864076264,0.7456756464417212,-2.192300423285446,-0.04312369762166935,-1.4508387150631166,9.87134383929378E-5,6.67635705123198E-6,4.4846318561095855E-6,385634.231582,3.38800945098E-12,940.412495074,1.2106485649,-8.62134928076,0.349105515167
4380.00000001,6198419.76383,2706233.327,89213.3589336,-1222638.6156,6652002.4143,89911.667899,-4670.17998156,-934.981940097,6016.47126103,1.57477974814,-8.56789451356,-0.115807788109,6758664.90902,1.34274245236,0.1198179299693881,-1.4867535935024638,0.1649667154623815,-2.186356816236305,-0.043135786279959475,-1.4513216126558386,9.871276122124505E-5,6.659539427592179E-6,4.511861696531668E-6,385894.044068,3.35357433803E-12,939.229356895,1.57477974814,-8.56789451356,-0.115807788109
4440.00000001,6078492.00904,2933521.71238,449495.778158,-1499799.53341,6580531.2072,450412.684382,-4564.94940217,-1446.46100286,5995.58630059,1.93154010646,-8.47483924711,-0.580070966129,6758664.90902,1.34711772145,0.19751845620000683,-1.4188625674293858,0.09368590281024748,-2.1804132377931102,-0.04314309245894085,-1.4518046903421047,9.871207040369554E-5,6.642831765664281E-6,4.539083441244013E-6,386250.958659,3.31721192125E-12,938.322201419,1.93154010646,-8.47483924711,-0.580070966129
4500.00000001,5932444.1447,3148434.37576,807695.027149,-1770009.61,6478562.32761,808826.281222,-4438.57536542,-1951.17945532,5946.91846254,2.27929204992,-8.3426301896,-1.04154875891,6758664.90902,1.35149299054,0.23103198390341412,-1.350684112953379,0.06662047441641751,-2.174469692563531,-0.04314561869108622,-1.4522879133252857,9.871136599893236E-5,6.62623404994976E-6,4.566297124873957E-6,386702.018302,3.27914858866E-12,937.686439541,2.27929204992,-8.3426301896,-1.04154875891
4560.00000001,5760841.5252,3350207.04205,1162151.41504,-2032017.41701,6346571.54074,1163491.7747,-4291.64645972,-2446.80592381,5870.69858644,2.61644046737,-8.17189186925,-1.49812050689,6758664.90902,1.35586825962,0.25166205275220443,-1.2824279088797954,0.05246863952489883,-2.16852618517269,-0.04314336772144944,-1.4527712468680938,9.87106480659476E-5,6.609746265002453E-6,4.593502781979016E-6,387242.148603,3.23967660176E-12,937.312977912,2.61644046737,-8.17189186925,-1.49812050689
4620.00000001,5564360.51414,3538130.66123,1511222.88109,-2284609.68392,6185173.26471,1512766.13567,-4124.84552944,-2931.05176558,5767.2840776,2.94143975788,-7.96342354592,-1.94768957128,6758664.90902,1.36024352871,0.2668131015794883,-1.2141429478434127,0.043827871840833046,-2.1625827202282566,-0.04313634250661824,-1.453254656294327,9.870991666251166E-5,6.59336839549837E-6,4.6207004471865235E-6,387864.239674,3.19914314721E-12,937.188311936,2.94143975788,-7.96342354592,-1.94768957128
4680.00000001,5343785.84088,3711553.66215,1853292.53535,-2526616.86017,5995117.69436,1855031.53461,-3938.94649911,-3401.68144169,5637.15718648,3.25280062802,-7.71819538952,-2.38819262069,6758664.90902,1.3646187978,0.2791368000578165,-1.145846398372321,0.03804859843807929,-2.1566393023379,-0.04312454621401617,-1.4537381069958515,9.870917184691856E-5,6.577100426113518E-6,4.6478901551587195E-6,388559.268158,3.15792968397E-12,937.294101051,3.25280062802,-7.71819538952,-2.38819262069
4740.00000001,5100007.48846,3869883.96929,2186776.07963,-2756918.47466,5777287.31001,2188702.76697,-3734.81079752,-3856.52263907,5480.92273578,3.54909663033,-7.437343945,-2.8176087492,6758664.90902,1.36899406689,0.2898178553100671,-1.0775456115803992,0.03394841692547137,-2.1506959360918354,-0.04310798222050626,-1.4542215644273657,9.870841367606602E-5,6.560942341646082E-6,4.675071940522934E-6,389316.456981,3.1164016553E-12,937.604693092,3.54909663033,-7.437343945,-2.8176087492
4800.00000001,4834017.12503,4012590.77842,2510129.07592,-2974448.26907,5532692.78747,2512234.52568,-3513.38339779,-4293.47609963,5299.30530633,3.82897041954,-7.12216690534,-3.23396839198,6758664.90902,1.37336933598,0.29946551153008216,-1.0092440840340908,0.030920623344612777,-2.144752626080279,-0.043086654113089186,-1.4547049941151262,9.870764220720087E-5,6.544894126964056E-6,4.7022458379763145E-6,390123.469562,3.07487133371E-12,938.085481795,3.82897041954,-7.12216690534,-3.23396839198
4860.00000001,4546904.09289,4139206.08778,2821854.03022,-3178199.08254,5262468.3281,2824128.48901,-3275.68849108,-4710.52511552,5093.14589497,4.09113970432,-6.77411721567,-3.6353620058,6758664.90902,1.37774460506,0.3084255143708286,-0.940943544581504,0.028622279776044483,-2.1388093768759946,-0.04306056568611074,-1.455188361646476,9.870685749687173E-5,6.528955766987794E-6,4.729411882216007E-6,390966.634609,3.03477357271E-12,938.780534991,4.09113970432,-6.77411721567,-3.6353620058
4920.00000001,4239850.97091,4249325.98225,3120507.2606,-3367227.46619,4967866.43017,3122940.19241,-3022.82481292,-5105.74465125,4863.39805943,4.33440287327,-6.3947965337,-4.01994848254,6758664.90902,1.38211987415,0.3169090618874308,-0.8726448183410048,0.026845300741894975,-2.132866193069197,-0.04302972094178544,-1.4556716326820622,9.870605960127822E-5,6.513127246724921E-6,4.756570107956607E-6,391831.19702,2.99781681211E-12,939.755436263,4.33440287327,-6.3947965337,-4.01994848254
4980.00000001,3914128.72795,4342611.66915,3404705.51917,-3540658.00739,4650252.12506,3407285.65405,-2755.96064224,-5477.31005473,4611.1235672,4.55764427506,-5.98594807268,-4.3859632651,6758664.90902,1.38649514324,0.32505284195579454,-0.8043482305093215,0.02545645956308126,-2.126923079180289,-0.04299412408949837,-1.4561547729558353,9.870524857592182E-5,6.497408551287774E-6,4.7837205499301704E-6,392701.589952,2.96548298638E-12,941.061821079,4.55764427506,-5.98594807268,-4.3859632651
5040.00000001,3571091.48642,4418790.26474,3673132.33877,-3697687.3446,4311096.704,3675847.72489,-2476.32849442,-5823.50532113,4337.48756707,4.75983913372,-5.5494488551,-4.73172613583,6758664.90902,1.39087041233,0.33294961493881486,-0.7360538135984467,0.024366857223073905,-2.1209800397645804,-0.04295377954353627,-1.4566377482663235,9.870442447612945E-5,6.481799665806152E-6,4.810863242903654E-6,393561.722807,2.93914955883E-12,942.746275501,4.75983913372,-5.5494488551,-4.73172613583
5100.00000001,3212170.91686,4477655.33182,3924544.07637,-3837587.85519,3951970.96329,3927382.13523,-2185.21953082,-6142.73087491,4043.75330397,4.94005808115,-5.0873014066,-5.05564864884,6758664.90902,1.39524568142,0.34066493541017817,-0.6677614221892927,0.02351526159745092,-2.115037079342474,-0.042908691923785665,-1.4571205244888494,9.870358735722807E-5,6.46630057553202E-6,4.83799822166147E-6,394395.27963,2.92013430518E-12,944.853403638,4.94005808115,-5.0873014066,-5.05564864884
5160.00000001,2838870.28578,4519067.1692,4157775.62652,-3959710.99996,3574537.99783,4160723.211,-1883.97770833,-6433.51083759,3731.27639922,5.09747128977,-4.60162492119,-5.35624117846,6758664.90902,1.39962095051,0.34824683790966,-0.5994708007953278,0.022858494147565574,-2.1090942024169186,-0.04285886605398756,-1.4576030675737843,9.870273727314834E-5,6.450911265787161E-6,4.865125520970577E-6,395186.022305,2.90972751578E-12,947.427639568,5.09747128977,-4.60162492119,-5.35624117846
5220.00000001,2452758.18075,4542952.85484,4371745.7794,-4063490.30938,3180545.57487,4374789.23446,-1573.99369328,-6694.49975028,3401.49872005,5.23135218983,-4.09464593026,-5.63211955715,6758664.90902,1.40399621959,0.35573172614129805,-0.5311816264468644,0.022365627272727923,-2.103151413473411,-0.04280430696156285,-1.458085343544804,9.870187427851906E-5,6.435631721945714E-6,4.892245175650294E-6,395918.092961,2.90922094739E-12,950.514456991,5.23135218983,-4.09464593026,-5.63211955715
5280.00000001,2055461.93774,4549306.04533,4565462.19956,-4148443.99826,2771818.1214,4568587.42527,-1256.69856518,-6924.48872237,3055.94186384,5.34108075623,-3.56868850929,-5.88201127713,6758664.90902,1.40837148868,0.363148108639471,-0.46289353695143065,0.022014352630318975,-2.0972087170149005,-0.04274501987551797,-1.4585673185023784,9.870099842657277E-5,6.420461929503995E-6,4.9193572205373925E-6,396576.310094,2.91993367949E-12,954.160973089,5.34108075623,-3.56868850929,-5.88201127713
5340.00000001,1648660.79731,4538186.53485,4738026.00322,-4214177.19698,2350248.36056,4741218.51986,-933.557336504,-7122.41097961,2696.20028392,5.42614635165,-3.0261640579,-6.10476123129,6758664.90902,1.41274675777,0.37051906192240125,-0.39460615074514577,0.02178864362103589,-2.0912661174570695,-0.04268101022731759,-1.4590489586237714,9.870010977089111E-5,6.4054018740106755E-6,4.946461690468646E-6,397146.453087,2.9432309429E-12,958.415649802,5.42614635165,-3.0261640579,-6.10476123129
5400.00000001,1234078.81743,4509719.57765,4888635.91333,-4260383.7891,1917788.63377,4891880.92818,-606.062315497,-7287.34678713,2323.93408538,5.48615011311,-2.46956069005,-6.29933696963,6758664.90902,1.41712202686,0.3778639169531965,-0.32631908163202467,0.02167722171868543,-2.085323619267962,-0.04261228364844102,-1.4595302301630428,9.869920836418299E-5,6.390451541101697E-6,4.973558620280823E-6,397615.530148,2.98052886853E-12,963.326598596,5.48615011311,-2.46956069005,-6.29933696963
5460.00000001,813477.571647,4464094.9789,5016591.97343,-4286847.84663,1476441.94683,5019874.44918,-275.726339798,-7418.52772509,1940.86152054,5.52080687095,-1.9014322729,-6.46483344914,6758664.90902,1.42149729595,0.38519946023180807,-0.25803195039216353,0.02167254235063636,-2.079381226845807,-0.04253884597055692,-1.4600110994580264,9.869829425898284E-5,6.375610916482813E-6,5.000648044880511E-6,397972.024998,3.03327580282E-12,968.937917861,5.52080687095,-1.9014322729,-6.46483344914
5520.00000001,388648.662553,4401565.95912,5121298.80347,-4293444.65629,1028252.77936,5124603.52758,55.9240908093,-7515.34029721,1548.75121519,5.52994659,-1.3243871544,-6.6004772557,6758664.90902,1.42587256503,0.39254082819249625,-0.18974439447355282,0.021770131012096555,-2.0734389445713814,-0.04246070322395239,-1.460491532923352,9.869736750747598E-5,6.360879985947043E-6,5.027729999139388E-6,398206.118074,3.10290078064E-12,975.283668733,5.52994659,-1.3243871544,-6.6004772557
5580.00000001,-38593.9185647,4322447.79849,5202268.38211,-4280141.33127,575297.698234,5205580.03718,387.355753567,-7577.32885453,1149.41415785,5.5135153243,-0.741076621016,-6.70563027842,6758664.90902,1.43024783412,0.3999022093951675,-0.12145607661295665,0.021968167378935918,-2.0674967768080075,-0.04237786163700939,-1.4609714970574244,9.869642816097512E-5,6.346258735374674E-6,5.054804517964039E-6,398309.878501,3.19072434257E-12,982.379691444,5.5135153243,-0.741076621016,-6.70563027842
5640.00000001,-466421.554332,4227116.26744,5259122.3425,-4246997.00534,119675.816444,5262425.57704,717.035684395,-7604.19781973,744.695485455,5.4715756778,-0.154183128844,-6.77979281769,6758664.90902,1.43462310321,0.4072974320904666,-0.05316669291259849,0.022267256271270252,-2.0615547279190096,-0.04229032763550662,-1.4614509584406792,9.869547627096745E-5,6.331747150698351E-6,5.081871636261049E-6,398277.423578,3.29783804626E-12,990.214521605,5.4715756778,-0.154183128844,-6.77979281769
5700.00000001,-892998.853694,4116005.85116,5291593.77024,-4194162.60749,-336500.860118,5294873.26967,1043.43817223,-7595.81319954,336.466099956,5.40430676538,0.433591647507,-6.82260611022,6758664.90902,1.4389983723,0.4147404937352188,0.015124019082769308,0.022670351099306,-2.0556128022153497,-0.04219810784104875,-1.4619298837390728,9.869451188824207E-5,6.317345218007801E-6,5.108931388989363E-6,398105.043074,3.42497526687E-12,998.741871703,5.40430676538,0.433591647507,-6.82260611022
5760.00000001,-1316491.56116,3989607.77561,5299528.49447,-4121880.21726,-791117.155081,5302769.05201,1365.05173592,-7552.20337582,-73.3858486592,5.31200366964,1.019538902,-6.83385425553,6758664.90902,1.44337364139,0.4222460780793817,0.08341627191141925,0.023182814514229877,-2.0496710039905386,-0.04210120907089183,-1.4624082396988471,9.869353506323897E-5,6.303052923375297E-6,5.13598381107302E-6,397791.286229,3.57240973743E-12,1007.87774205,5.31200366964,1.019538902,-6.83385425553
5820.00000001,-1735074.4894,3848467.84369,5282885.86517,-4030482.00279,-1242064.46964,5286072.45226,1680.38605331,-7473.55916848,-482.963576668,5.19507639075,1.60095487278,-6.81346553031,6758664.90902,1.44774891047,0.429830101616417,0.15171021882589583,0.023812616487371038,-2.0437293374857264,-0.04199963833654706,-1.462885993157001,9.86925458458746E-5,6.288870253047643E-6,5.163028937488416E-6,397337.009906,3.73991829987E-12,1017.50439293,5.19507639075,1.60095487278,-6.81346553031
5880.00000001,-2146939.44131,3693184.09047,5241739.01197,-3920388.74522,-1687250.51244,5244856.8479,1987.97881211,-7360.23316646,-890.370341109,5.05404828856,2.17515305724,-6.76151307909,6758664.90902,1.45212417956,0.43751033339683154,0.2200059429581861,0.02457068487581285,-2.037787806959516,-0.04189340284325718,-1.4633631110360545,9.869154428571628E-5,6.274797193289098E-6,5.190066803194498E-6,396745.386986,3.92682401031E-12,1027.4810623,5.05404828856,2.17515305724,-6.76151307909
5940.00000001,-2550303.08748,3524404.26695,5176274.58187,-3792107.95529,-2124608.9673,5179309.20232,2286.40245204,-7212.73832587,-1293.71813675,4.88955401777,2.73947641647,-6.67821497121,6758664.90902,1.45649944865,0.44530714046528236,0.2883034442585482,0.025471440350973394,-2.031846416618151,-0.04178250998842572,-1.4638395603475394,9.869053043215684E-5,6.260833730468641E-6,5.217097443185116E-6,396021.874696,4.13210280633E-12,1037.65859128,4.88955401777,2.73947641647,-6.67821497121
6000.00000001,-2943414.76495,3342823.16234,5086791.95579,-3646231.58933,-2552109.05494,5089729.27997,2574.27076801,-7031.74583742,-1691.13637727,4.70233695906,3.2913095174,-6.56393361707,6758664.90902,1.46087471774,0.4532444272421585,0.35660262316589664,0.026533569380147434,-2.0259051706329685,-0.04166696736179144,-1.464315308188509,9.868950433389096E-5,6.246979851077425E-6,5.2441208924715774E-6,395174.143205,4.35451092917E-12,1047.89370397,4.70233695906,3.2913095174,-6.56393361707
6060.00000001,-3324564.16288,3149179.77535,4973701.946,-3483433.37397,-2967764.94492,4976528.34203,2850.24534404,-6818.08226862,-2080.78052209,4.4932461512,3.82809056034,-6.41917453805,6758664.90902,1.46524998683,0.4613508642912251,0.4249032594650584,0.02778112002135442,-2.019964073140399,-0.04154678274350855,-1.4647903217502631,9.868846603943881E-5,6.2332355416240515E-6,5.2711371860302774E-6,394211.965422,4.59268687733E-12,1058.05938482,4.4932461512,3.82809056034,-6.41917453805
6120.00000001,-3692088.86144,2944254.34517,4837524.97881,-3304465.75071,-3369644.97455,4840227.32713,3113.0417885,-6572.72598892,-2460.84060989,4.26323273126,4.3473232383,-6.24458448791,6758664.90902,1.46962525591,0.46966154604556404,0.4932049841026725,0.029245052338059324,-2.014023128259419,-0.04142196410344857,-1.465264568313115,9.868741559662241E-5,6.219600788774209E-6,5.298146358889975E-6,393147.069589,4.84519972739E-12,1068.04989526,4.26323273126,4.3473232383,-6.24458448791
6180.00000001,-4044381.69006,2728865.25354,4678888.76939,-3110156.45306,-3755880.63212,4681454.52375,3361.43574102,-6296.80288988,-2829.54965999,4.0133458924,4.84658837417,-6.04094892553,6758664.90902,1.474000525,0.4782202895772413,0.561507240421682,0.030965449633247415,-2.0080823400740995,-0.04129251960050212,-1.4657380152481343,9.868635305308924E-5,6.206075579211032E-6,5.3251484460968835E-6,391992.956853,5.11054076516E-12,1077.78104455,4.0133458924,4.84658837417,-6.04094892553
6240.00000001,-4379897.87199,2503865.80952,4498525.49758,-2901404.73073,-4124675.2625,4500942.74358,3594.26862285,-5991.58141498,-3185.19190267,3.74472837099,5.323555281,-5.80918884207,6758664.90902,1.47837579409,0.4870829069657359,0.6298092293737033,0.032994718694565495,-2.0021417126161505,-0.04115845758188091,-1.466210630020638,9.868527845596318E-5,6.192659899757286E-6,5.352143482697212E-6,390764.686626,5.38707355982E-12,1087.18742398,3.74472837099,5.323555281,-5.80918884207
6300.00000001,-4697161.92254,2270140.92863,4297268.49647,-2679177.23732,-4474312.45434,4299526.00703,3810.45310262,-5658.46691758,-3526.11079993,3.4586114773,5.77599279064,-5.55035694829,6758664.90902,1.48275106318,0.49632198989119175,0.6981098297714424,0.035402314312642444,-1.996201249917283,-0.041019786581372286,-1.4666823801919366,9.868419185201907E-5,6.179353737323002E-6,5.379131503719718E-6,389478.633101,5.67296410916E-12,1096.21837656,3.4586114773,5.77599279064,-5.55035694829
6360.00000001,-4994774.26933,2028603.71905,4076048.46702,-2444503.59923,-4803164.06906,4078135.75485,4008.9782506,-5298.99536847,-3850.71681848,3.15630968661,6.20177989606,-5.26563323139,6758664.90902,1.48712633227,0.5060341086917213,0.7664074786079768,0.03828188773239718,-1.990260955921941,-0.040876515319339356,-1.467153233415844,9.868309328785718E-5,6.166157078853117E-6,5.406112544245523E-6,388152.216869,5.9661105109E-12,1104.83396651,3.15630968661,6.20177989606,-5.26563323139
6420.00000001,-5271417.56366,1780191.98689,3835889.23506,-2198471.68525,-5109697.87342,3837796.60167,4188.91435585,-4914.82643778,-4157.49491753,2.83921480979,6.59891595289,-4.95631989328,6758664.90902,1.49150160135,0.5163509949898653,0.8346999853903756,0.041762426149445274,-1.984320834592022,-0.04072865270080102,-1.467623157442165,9.868198280920517E-5,6.153069911432194E-6,5.433086639338288E-6,386803.616063,6.26408597557E-12,1113.00160606,2.83921480979,6.59891595289,-4.95631989328
6480.00000001,-5525862.6534,1525864.6736,3577903.0687,-1942222.59798,-5392484.73893,3579621.64979,4349.41738139,-4507.73597946,-4445.01171472,2.50878976548,6.96553038648,-4.62383568631,6758664.90902,1.49587687044,0.5274575559618597,0.9029842331787608,0.046026229714491794,-1.9783808898370632,-0.040576207815431996,-1.4680921201166997,9.86808604616161E-5,6.14009222221461E-6,5.460053824079133E-6,385451.461935,6.5641035092E-12,1120.69353816,2.50878976548,6.96553038648,-4.62383568631
6540.00000002,-5756974.18872,1266598.23825,3303285.57652,-1676945.40924,-5650205.37316,3304807.38354,4489.73303445,-4079.60794935,-4711.92229456,2.16656197799,7.2998918521,-4.26970966516,6758664.90902,1.50025213953,0.5396221530390468,0.9712556759105392,0.05133915758992971,-1.9724411254793361,-0.040419189935992104,-1.4685600893864759,9.867972629046856E-5,6.127223998459461E-6,5.487014133566627E-6,384114.524142,6.8630066049E-12,1127.88511307,2.16656197799,7.2998918521,-4.26970966516
6600.00000002,-5963715.83387,1003382.9978,3013310.20904,-1403871.66346,-5881656.55001,3014628.16672,4609.20042996,-3632.42579148,-4956.97662507,1.81411642807,7.60041679688,-3.89557437771,6758664.90902,1.50462740862,0.5532501367672675,1.0395074490207576,0.058104133772363856,-1.9665015453585648,-0.04025760851762801,-1.46902703329277,9.867858034026841E-5,6.114465227495657E-6,5.513967602881892E-6,382811.391329,7.15728770051E-12,1134.55368948,1.81411642807,7.60041679688,-3.89557437771
6660.00000002,-6145155.05928,737219.438449,2709322.38804,-1124269.67393,-6085756.80815,2710430.36763,4707.25532746,-3168.26332974,-5179.02554959,1.45308838583,7.86567737434,-3.50315852071,6758664.90902,1.50900267771,0.5689845145218131,1.1077286951198269,0.06696178850388071,-1.9605621532795672,-0.04009147319700066,-1.4694929199780868,9.867742265552159E-5,6.101815896739376E-6,5.54091426714095E-6,381560.152825,7.44313439034E-12,1140.67797179,1.45308838583,7.86567737434,-3.50315852071
6720.00000002,-6300467.49038,469114.511334,2392733.28993,-839438.638084,-6261551.58907,2393626.13815,4783.43292323,-2689.27520531,-5377.02632273,1.08515585773,8.09440866441,-3.09427908983,6758664.90902,1.51337794679,0.5879103757076691,1.1759011585786432,0.07899485924677162,-1.954622952942441,-0.03992079379088896,-1.469957717686161,9.867625328003584E-5,6.08927599371151E-6,5.567854161459825E-6,380378.087345,7.71650183773E-12,1146.2376145,1.08515585773,8.09440866441,-3.09427908983
6780.00000002,-6428940.79098,200077.92582,2065013.31162,-550702.599016,-6408217.78886,2065686.87498,4837.37018147,-2197.68690282,-5550.04766083,0.712031781709,8.28551515451,-2.67083305703,6758664.90902,1.51775321588,0.6120132184063128,1.2439915326298283,0.09618649454244106,-1.9486839480821911,-0.039745580295666195,-1.4704213947619558,9.867507225761891E-5,6.076845506020224E-6,5.594787320954542E-6,379281.364624,7.97320806758E-12,1151.21294717,0.712031781709,8.28551515451,-2.67083305703
6840.00000002,-6529978.06147,-68881.5464839,1727685.2487,-259404.281325,-6525067.70036,1728136.39327,4868.80769057,-1695.78441091,-5697.27427991,0.335456006785,8.4380764403,-2.23478861145,6758664.90902,1.52212848497,0.6453525596149239,1.311931789601307,0.12259384240834331,-1.9427451423291024,-0.03956584288642737,-1.4708839196499177,9.867387963120592E-5,6.0645244213784E-6,5.621713780741125E-6,378284.765733,8.20904588018E-12,1155.58464927,0.335456006785,8.4380764403,-2.23478861145
6900.00000002,-6603100.7338,-336759.743806,1382317.21744,33101.1698935,-6611552.32513,1382543.8438,4877.59103263,-1185.90356509,-5818.01089589,-0.0428129046,8.55135210823,-1.78817600345,6758664.90902,1.52650375406,0.6976927536045224,1.3795579077591948,0.1679788472987342,-1.9368065392960063,-0.039381591915418436,-1.4713452608992146,9.867267544355744E-5,6.052312727568732E-6,5.648633575953054E-6,377401.427589,8.41991627634E-12,1159.3337887,-0.0428129046,8.55135210823,-1.78817600345
6960.00000002,-6647950.94777,-602560.749406,1030515.35361,325452.517368,-6667264.03771,1030516.40696,4863.67165681,-670.419122984,-5911.6856646,-0.421006011367,8.62478576582,-1.33307803439,6758664.90902,1.53087902315,0.799578775292509,1.446351366866007,0.26288401210530465,-1.9308681425608276,-0.03919283791168714,-1.4718053871654782,9.867145973708494E-5,6.040210412478636E-6,5.675546741741259E-6,376642.616781,8.60198952222E-12,1162.44271463,-0.421006011367,8.62478576582,-1.33307803439
7020.00000002,-6664293.3952,-865300.477055,673916.322163,616288.797307,-6691938.58776,673691.797633,4827.10724951,-151.733624208,-5977.85304168,-0.79735242403,8.65800818986,-0.871620237523,6758664.90902,1.53525429223,1.1076405042435888,1.5095166615187077,0.5639366603647027,-1.9249299556491317,-0.03899959157986139,-1.4722642672038235,9.86702325538509E-5,6.028217464065339E-6,5.702453313256671E-6,376017.537269,8.7518636187E-12,1164.89580008,-0.79735242403,8.65800818986,-0.871620237523
7080.00000002,-6652016.62127,-1124010.1942,314179.673313,904255.692061,-6685456.42849,313730.616282,4768.06159693,367.73391164,-6016.19604533,-1.17008778733,8.65083956715,-0.405960798308,6758664.90902,1.53962956132,2.5846392564601883,1.5336622350785214,2.03389544544711,-1.9189919820166705,-0.03880186379910201,-1.4727218698775775,9.866899393504507E-5,6.01633387044315E-6,5.729353325632767E-6,375533.175928,8.86670868638E-12,1166.67996691,-1.17008778733,8.65083956715,-0.405960798308
7140.00000002,-6611133.7746,-1377739.97048,-47019.9189663,1188011.87925,-6647843.3637,-47691.4174346,4686.80393828,885.559393643,-6026.52790763,-1.53746277114,8.60329080762,0.0617197353743,6758664.90902,1.54400483041,-2.9618152207049135,1.479372200984653,2.763552628773404,-1.9130542251017424,-0.038599665622230106,-1.4731781641582762,9.866774392220628E-5,6.0045596197263776E-6,5.7562468140379325E-6,375194.189112,8.94438969397E-12,1167.78508633,-1.53746277114,8.60329080762,0.0617197353743
7200.00000002,-6541782.80042,-1625562.03957,-408000.498858,1466235.3268,-6579270.50829,-408891.311494,4583.70781024,1399.3251188,-6008.79310354,-1.89775152477,8.51556391444,0.529228900484,6758664.90902,1.5483800995,-2.796858392971346,1.4136537475017006,2.9213991810475552,-1.9071166882902861,-0.03839300827485435,-1.4736331191186856,9.866648255582617E-5,5.99289470020386E-6,5.783133813605645E-6,375002.832599,8.98356003457E-12,1168.20429859,-1.89775152477,8.51556391444,0.529228900484
7260.00000002,-6444226.0737,-1866574.06271,-767080.71354,1737629.50354,-6480053.56132,-768186.69121,4459.24938663,1906.63122492,-5963.06774966,-2.24926004926,8.38805140156,0.994372869127,6758664.90902,1.55275536859,-2.7259004753454636,1.346329867603719,2.9852070613149877,-1.9011793748984276,-0.038181903154323814,-1.4740867039432723,9.866520987639638E-5,5.981339100234253E-6,5.810014359539196E-6,374958.936365,8.98372006384E-12,1167.93428073,-2.24926004926,8.38805140156,0.994372869127
7320.00000002,-6318849.47194,-2099902.28272,-1122587.70298,2000929.47506,-6350651.39334,-1123903.69383,4314.00531909,2405.10707991,-5889.5593683,-2.59033444218,8.22133475442,1.45496704612,6758664.90902,1.55713063767,-2.6846316466970968,1.2785083928594447,3.019282742954928,-1.8952422882248388,-0.03796636182815719,-1.474538887928204,9.866392592371041E-5,5.96989280822857E-6,5.836888486972062E-6,375059.924681,8.94523708982E-12,1166.9754832,-2.59033444218,8.22133475442,1.45496704612
7380.00000002,-6166160.88984,-2324704.55766,-1472864.9566,2254907.85539,-6191663.95384,-1474384.82991,4148.65008825,2892.42254992,-5788.60601569,-2.91936896957,8.01618193559,1.90884665701,6758664.90902,1.56150590676,-2.6563505160838026,1.2104711400752342,3.0403240205367217,-1.889305431498379,-0.03774639603456637,-1.474989640470878,9.866263073756179E-5,5.958555812772356E-6,5.8637562310726295E-6,375300.881084,8.86932610481E-12,1165.33234953,-2.91936896957,8.01618193559,1.90884665701
