time,gePosition_m_X,gePosition_m_Y,gePosition_m_Z,eiPosition_m_X,eiPosition_m_Y,eiPosition_m_Z,eiVelocity_m_s_X,eiVelocity_m_s_Y,eiVelocity_m_s_Z,eiAccel_m_s2_X,eiAccel_m_s2_Y,eiAccel_m_s2_Z,semiMajorAxis_m,gast_rad,eulerAngle_rad_Roll,eulerAngle_rad_Pitch,eulerAngle_rad_Yaw,eulerAngleWrtEi_rad_Roll,eulerAngleWrtEi_rad_Pitch,eulerAngleWrtEi_rad_Yaw,bodyAngularRateWrtEi_rad_s_Roll,bodyAngularRateWrtEi_rad_s_Pitch,bodyAngularRateWrtEi_rad_s_Yaw,altitudeMsl_m,airDensity_kg_m3,ambientTemperature_dgK,eiGravitation_m_s2_X,eiGravitation_m_s2_Y,eiGravitation_m_s2_Z
0.0,-1428622.33421605,4163200.23408807,5136049.85325658,-4292653.41,955168.470000001,5139356.57,109.64966300148,-7527.72649000027,1484.52148900137,5.52898656935719,-1.23026788740986,-6.61954989994584,6758662.11722982,1.02331933954551,0.0,-0.202458193231342,0.0,-2.47159390535496,-0.0371889644762902,-1.42899313488834,0.0,0.0,0.0,398254.54116932,3.4018E-12,990.9677734375,5.52898656935719,-1.23026788740986,-6.61954989994584
60.0,-1789712.66688801,3920255.07286153,5213136.77866225,-4276130.76360603,501640.150638707,5216447.94770985,440.899504427431,-7584.04304560393,1084.18939672429,5.50841669093311,-0.646201702281487,-6.719712406156,6758662.11722981,1.02769460895833,1.0E-15,-0.134388046685337,-2.0E-16,-2.47159390535496,-0.0371889644762902,-1.42899313488834,0.0,0.0,0.0,398336.992349355,3.2024E-12,984.492431640625,5.50841669093311,-0.646201702281487,-6.719712406156
120.0,-2144732.04662905,3662345.06425589,5266057.40817693,-4239785.46485052,45786.4492663021,5269357.68010088,770.149856362154,-7605.2077588941,678.777242700872,5.46236021841777,-0.058989324126963,-6.78881750197518,6758662.11722981,1.03206987837114,8.0E-16,-0.0663117980950702,-3.0E-16,-2.47159390535496,-0.0371889644762902,-1.42899313488834,0.0,0.0,0.0,398282.351312264,3.31E-12,992.429565429687,5.46236021841777,-0.058989324126963,-6.78881750197518
180.0,-2492166.13162718,3390598.74813122,5294563.01581385,-4183783.25764123,-410279.480789338,5297837.0895684,1095.87688043119,-7591.11290731518,270.1592543332,5.39101509822649,0.528665740843096,-6.82652947798967,6758662.11722984,1.03644514778395,3.0E-16,0.0017710140290111,-5.0E-16,-2.47159390535496,-0.0371889644762902,-1.42899313488834,0.0,0.0,0.0,398087.267115198,3.4386E-12,1001.05029296875,5.39101509822649,0.528665740843096,-6.82652947798967
240.0,-2830524.93703077,3106195.59239715,5298517.77706277,-4108380.89026428,-864442.894077582,5301750.47079932,1416.57209400392,-7541.81319429672,-139.774483846494,5.29469509567205,1.11405482451913,-6.8326557264296,6758662.11722987,1.04082041719676,5.0E-16,0.0698608210031927,-6.0E-16,-2.47159390535496,-0.0371889644762902,-1.42899313488834,0.0,0.0,0.0,397750.659501357,3.5884E-12,1010.26550292968,5.29469509567205,1.11405482451913,-6.8326557264296
300.0,-3158349.27065452,2810360.86253624,5277899.46242089,-4013924.98616862,-1314597.20057474,5281075.7837958,1730.74928790111,-7457.5256937731,-549.126655786194,5.17382866282707,1.69447627941298,-6.80714795491118,6758662.11722986,1.04519568660958,9.0E-16,0.137958021963591,-7.0E-16,-2.47159390535496,-0.0371889644762902,-1.42899313488834,0.0,0.0,0.0,397273.760669469,3.7594E-12,1019.95324707031,5.17382866282707,1.69447627941298,-6.80714795491118
360.0,-3474217.08356248,2504360.33240143,5232799.61189834,-3900850.50203059,-1758653.68795009,5235904.82755119,2036.95136094596,-7338.62906255893,-956.001393644212,5.0289572988201,2.26724769265309,-6.75010277495491,6758662.11722984,1.04957095602238,1.0E-15,0.206062982002869,-1.0E-16,-2.47159390535496,-0.0371889644762902,-1.42899313488834,0.0,0.0,0.0,396660.117186776,3.9509E-12,1029.97082519531,5.0289572988201,2.26724769265309,-6.75010277495491
420.0,-3776749.70791139,2189494.85846839,5163423.18837942,-3769678.77900081,-2194551.17459288,5166442.89226219,2333.75704093164,-7185.66202019759,-1358.51297383502,4.8607334037903,2.82971808104518,-6.66176165594942,6758662.11722984,1.0539462254352,-6.0E-16,0.274176030459384,-6.0E-16,-2.47159390535496,-0.0371889644762902,-1.42899313488834,0.0,0.0,0.0,395915.551844032,4.162E-12,1040.1689453125,4.8607334037903,2.82971808104518,-6.66176165594942
480.0,-4064617.95455067,1867094.84019274,5070087.71000333,-3621015.19485857,-2620265.54951372,5073007.89024537,2619.78746171101,-6999.32109896113,-1754.79449109273,4.66991762971271,3.37928001560925,-6.54251023745121,6758662.11722982,1.05832149484801,9.0E-16,0.342297459366975,-3.0E-16,-2.47159390535496,-0.0371889644762902,-1.42899313488834,0.0,0.0,0.0,395048.085877479,4.3915E-12,1050.40612792968,4.66991762971271,3.37928001560925,-6.54251023745121
540.0,-4336548.04310486,1538514.58951118,4953221.86403547,-3455546.42660893,-3033819.15548765,4956028.96803487,2893.71256636928,-6780.45766980717,-2143.00647189824,4.45737573340016,3.91338162296542,-6.39287699509382,6758662.11722981,1.06269676426082,6.0E-16,0.410427522072975,-1.5E-15,-2.47159390535496,-0.0371889644762902,-1.42899313488834,0.0,0.0,0.0,394067.822610533,4.6383E-12,1060.55859375,4.45737573340016,3.91338162296542,-6.39287699509382
600.0,-4591327.33761593,1205126.63283089,4813363.60702585,-3274037.33484955,-3433289.97225013,4816044.60446501,3154.25730682394,-6530.07425328243,-2521.34538840811,4.22407493918241,4.42953841007267,-6.21353125792628,6758662.11722981,1.06707203367362,-1.0E-15,0.478566432031296,-1.3E-15,-2.47159390535496,-0.0371889644762902,-1.42899313488834,0.0,0.0,0.0,392986.794192961,4.901E-12,1070.52355957031,4.22407493918241,4.42953841007267,-6.21353125792628
660.0,-4827809.86129808,868315.969071724,4651157.75838314,-3077327.48299857,-3816820.55719292,4653700.20187493,3400.20761071461,-6249.32012759444,-2888.05203397277,3.97107982105355,4.92534485815665,-6.00528057770799,6758662.11722982,1.07144730308643,-1.7E-15,0.546714361776774,-1.3E-15,-2.47159390535496,-0.0371889644762902,-1.42899313488834,0.0,0.0,0.0,391818.773731068,5.1781E-12,1080.21948242187,3.97107982105355,4.92534485815665,-6.00528057770799
720.0,-5044921.56455813,529474.307458965,4467353.0968242,-2866327.30620439,-4182626.70183835,4469745.17990494,3630.41608710393,-5939.48624933605,-3241.41972144849,3.6995477164527,5.3984857312233,-5.76906745354909,6758662.11722981,1.07582257249925,-1.8E-15,0.614871442086146,-1.3E-15,-2.47159390535496,-0.0371889644762902,-1.42899313488834,0.0,0.0,0.0,390579.055703467,5.4681E-12,1089.58361816406,3.6995477164527,5.3984857312233,-5.76906745354909
780.0,-5241665.32116445,189994.308806901,4262798.97147704,-2642013.94644313,-4529005.76339754,4265029.58367401,3843.80744331334,-5601.99950563128,-3579.80226580021,3.41072368628999,5.846747044375,-5.50596541829331,6758662.1172298,1.08019784191205,-2.2E-15,0.683037761330237,-8.0E-16,-2.47159390535496,-0.0371889644762902,-1.42899313488834,0.0,0.0,0.0,389284.208134281,5.7689E-12,1098.56665039062,3.41072368628999,5.846747044375,-5.50596541829331
840.0,-5417125.62830558,-148736.146016441,4038441.44171074,-2405426.77194258,-4854344.63194323,4040500.22042439,4039.38358616932,-5238.41631975566,-3901.62171297017,3.10593503833352,6.26802663725345,-5.21717449618125,6758662.1172298,1.08457311132487,-2.5E-15,0.751213365021135,-1.6E-15,-2.47159390535496,-0.0371889644762902,-1.42899313488834,0.0,0.0,0.0,387951.800540123,6.0783E-12,1107.12976074218,3.10593503833352,6.26802663725345,-5.21717449618125
900.0,-5570472.98726818,-485339.636897017,3795318.96202706,-2157662.60064273,-5157127.29514892,3797196.34098206,4216.2283820388,-4850.41563555417,-4205.37577765619,2.78658543361583,6.66034429835499,-4.90401604458825,6758662.1172298,1.08894838073768,-3.3E-15,0.819398255557208,-2.9E-15,-2.47159390535496,-0.0371889644762902,-1.42899313488834,0.0,0.0,0.0,386600.112168255,6.3938E-12,1115.24084472656,2.78658543361583,6.66034429835499,-4.90401604458825
960.0,-5700967.94258045,-818454.811245904,3534557.63056348,-1899870.64890283,-5435941.96416304,3536244.88459791,4373.51205128858,-4439.79130921397,-4489.64495351173,2.45414859808007,7.02185138672442,-4.56792699598553,6758662.11722981,1.09332365015049,-3.0E-15,0.887592392167986,-3.1E-15,-2.47159390535496,-0.0371889644762902,-1.42899313488834,0.0,0.0,0.0,385247.825488108,6.7121E-12,1122.87268066406,2.45414859808007,7.02185138672442,-4.56792699598553
1020.0,-5807964.76278954,-1146741.89665154,3257366.022101,-1633247.22738,-5689487.73094216,3258855.30807876,4510.49524479722,-4008.44443481228,-4753.09924171117,2.11016519024312,7.35081515971544,-4.21045258277373,6758662.63254929,1.0976989195633,2.07044936883E-5,0.955797199812815,1.1359996834E-6,-2.47157407475201,-0.0371897397278168,-1.42899458627587,1.9760186112E-6,1.507073051E-7,6.54869872E-8,383913.714353282,7.0298E-12,1130.00073242187,2.11016165950545,7.35083989171681,-4.21045351230443
1080.0,-5890914.78029503,-1468888.12258968,2965029.63010644,-1359030.20172321,-5916580.76899878,2966314.02375247,4626.53256760573,-3558.37415753563,-4994.50451679512,1.75622163247945,7.64572606651565,-3.83324308415254,6758664.07940382,1.10207418897612,3.332472545512E-4,1.0240321322156,2.01542940547E-5,-2.47127701144065,-0.0372013477534623,-1.42901633039011,7.8991385105E-6,6.023947479E-7,2.618580625E-7,382616.372266475,7.3429E-12,1136.60229492187,1.75621810228108,7.64575079858311,-3.83324401397324
1140.0,-5949369.2010316,-1783612.90809633,2658904.93491619,-1078493.27300638,-6116159.83958249,2659978.46340738,4721.07553341511,-3091.66700989648,-5212.72850188785,1.3939640952382,7.90515729024884,-3.43804099136667,6758665.37238539,1.10644945838892,0.0010295952393909,1.09230301932711,6.97576650042E-5,-2.4706235894955,-0.0372268460084327,-1.42906417377927,1.38222583952E-5,1.053873469E-6,4.584943442E-7,381373.811922384,7.6471E-12,1142.65649414062,1.39396056622645,7.90518202246169,-3.43804192182439
1200.0,-5982981.60297107,-2089672.96261188,2340413.13517231,-792940.062996034,-6287291.36179653,2341270.80531559,4793.67564030819,-2610.48975089245,-5406.74614049887,1.02507674463013,8.12787078711875,-3.0266767574967,6758666.50537945,1.11082472780174,0.002125672805764,1.16060960596112,1.64632205175E-4,-2.4696138056707,-0.0372661562755788,-1.42913815018209,1.9745378213E-5,1.5049872326E-6,6.55594672E-7,380203.169364348,7.9378E-12,1148.142578125,1.02507321745315,8.12789551955637,-3.02667768893649
1260.0,-5991509.99953926,-2385867.19993187,2011033.56600974,-503698.050684734,-6429173.88743487,2011671.38786869,4843.98648600091,-2117.07834061704,-5575.64460460569,0.651277409898059,8.31279889371083,-2.60105944210267,6758667.47300895,1.11519999721455,0.0036496063427061,1.2289515709607,3.316943146335E-4,-2.46824765496858,-0.0373191576152776,-1.42923831152593,2.56684978442E-5,1.9555802492E-6,8.533578466E-7,379120.42358417,8.2102E-12,1153.04125976562,0.651273885205309,8.3128236264527,-2.60106037486658
1320.0,-5974818.44266579,-2671041.43710023,1672296.83375802,-212112.390522139,-6541141.94289745,1672711.83961181,4871.76554700797,-1613.72754614655,-5718.62774831541,0.274309530842619,8.45904990229693,-2.16316788507894,6758668.27066187,1.11957526662736,0.0056570261022128,1.29732852409019,6.253751955394E-4,-2.46652513066339,-0.037385686282497,-1.42936472765478,3.15916170731E-5,2.4054973668E-6,1.0519826138E-6,378140.12024358,8.4597E-12,1157.33288574218,0.27430600928527,8.45907463542269,-2.1631688195049
1380.0,-5932878.17076008,-2944092.87094208,1325777.69964715,80460.361500488,-6622669.2379121,1325967.95818569,4876.87546931652,-1102.78023745861,-5835.02002002475,-0.104066066071323,8.56591281187882,-1.71504148968888,6758668.89451468,1.12395053604017,0.0082770073676108,1.36573999498673,0.0011735453940756,-2.4644462243337,-0.0374655356157351,-1.42951748596103,3.75147355589E-5,2.8545842622E-6,1.2516676472E-6,377275.120461124,8.6815E-12,1160.99890136718,-0.104069583839924,8.56593754546828,-1.71504242610968
1440.0,-5865768.29266603,-3203974.31430837,973087.745663171,372658.584318499,-6673371.22396974,973052.371345061,4859.28486149346,-586.616423864554,-5924.26981090858,-0.482079522493906,8.63286122144974,-1.25877065790735,6758669.34155278,1.12832580545299,0.0118961874902054,1.43418538592362,0.0023616156065341,-2.46201092590365,-0.0375584558989032,-1.42969669092085,4.3437852808E-5,3.3026876323E-6,1.4526115325E-6,376536.379699854,8.8714E-12,1164.02136230468,-0.482083035817816,8.63288595558296,-1.25877159664953
1500.0,-5773676.00074627,-3449698.17519331,615867.856949575,663121.960750161,-6693006.98846585,615607.014472148,4819.06858362566,-67.6420833213198,-5985.95222024115,-0.857960391858838,8.65955633624939,-0.796486924069742,6758669.60958692,1.13270107486579,0.0184536542036911,1.50266363295462,0.0061274088660258,-2.45921922369335,-0.0376641541974484,-1.42990246353304,4.93609681449E-5,3.7496553846E-6,1.6550127509E-6,375932.761247096,9.0257E-12,1166.38562011718,-0.857963900079113,8.65958107100665,-0.796487865452515
1560.0,-5656896.30841304,-3680340.16306108,255780.556235658,950497.848556864,-6681480.47373276,255295.460089662,4756.40752805335,451.722161395023,-6019.77122089532,-1.22994612863433,8.64584906243329,-0.330352835458833,6758669.69726549,1.1370763442786,2.21280288685484,1.57014715951029,2.19732308546592,-2.45607110447878,-0.0377822941703231,-1.43013494066105,5.52840806852E-5,4.1953368288E-6,1.8590696628E-6,375470.888115791,9.1412E-12,1168.07836914062,-1.22994963108863,8.64587379789518,-0.330353779793009
1620.0,-5515831.30964868,-3895042.70797062,-105497.773317202,1233447.62305919,-6638841.01342831,-106204.864212177,4671.58789048733,969.052464345137,-6025.56121135418,-1.59629057881375,8.59178117054059,0.137448369180829,6758669.60408321,1.14145161369142,-3.13200662106093,1.50186837399134,3.13218205590605,-2.45256655356144,-0.0379124958596514,-1.43039427427782,6.12071893072E-5,4.6395828676E-6,2.0649804921E-6,375155.036431904,9.2157E-12,1169.09033203125,-1.59629407483596,8.59180590678799,0.137447421593936
1680.0,-5350988.96032961,-4093018.07940906,-466284.739733525,1510652.96075671,-6565283.18209645,-467210.532293151,4564.9999327853,1481.93321958158,-6003.28794369302,-1.95527242656433,8.497585513394,0.604723230161086,6758669.33038576,1.14582688310422,-3.12443653853069,1.43329340331158,3.13587055802382,-2.44870555484843,-0.0380543354602286,-1.43068063061335,6.71302926252E-5,5.0822461873E-6,2.2729433103E-6,374987.072520481,9.2478E-12,1169.41455078125,-1.95527591548421,8.49761025050817,0.604722279030756
1740.0,-5162981.383471,-4273551.19313733,-824899.830652123,1780822.03355702,-6461145.95711792,-826040.01274763,4437.13624138154,1987.968508775,-5953.04882022406,-2.30520355152855,8.36368528955584,1.06927863165043,6758668.87737015,1.15020215251704,-3.11903466262477,1.36468701265182,3.13702451588914,-2.44448809094316,-0.0382073450712454,-1.43099418920445,7.30533889623E-5,5.5231814487E-6,2.4831560209E-6,374966.434988422,9.2372E-12,1169.048828125,-2.3052070326714,8.36371002761836,1.06927767669763
1800.0,-4952522.70283132,-4436002.09580096,-1179672.30057204,2042695.58354175,-6326911.19570375,-1181021.56093981,4288.58948809929,2484.79347592014,-5875.07255482453,-2.64443725117826,8.19069234915019,1.5289324046641,6758668.24708111,1.15457742192984,-3.11390607154885,1.29605052629121,3.13753713805444,-2.43991414324734,-0.0383710124329346,-1.43133514184657,7.8976476324E-5,5.9622454775E-6,2.6958163435E-6,375090.162149003,9.1847E-12,1167.99340820312,-2.64444072386463,8.19071708824307,1.52893144562261
1860.0,-4720426.41164541,-4579808.11855882,-1528949.01878568,2295052.84868227,-6163201.43302968,-1530501.07163597,4120.04970280529,2970.08557171347,-5769.71819836366,-2.9713762828679,7.97940454469492,1.98152391120222,6758667.44240339,1.15895269134266,-3.10866920860562,1.22738492096745,3.13778811901426,-2.43498369207478,-0.0385447806510689,-1.4317036914472,8.48995523724E-5,6.3992974552E-6,2.9111217995E-6,375352.96416856,9.0917E-12,1166.25390625,-2.97137974641329,7.97942928490056,1.98152294781974
1920.0,-4467602.28556983,-4704485.69253086,-1871102.2399363,2536717.31056753,-5970777.011046,-1872849.85414808,3932.30107007115,3441.57561053039,-5637.47353108598,-3.2844806808274,7.73080213551295,2.4249245519578,6758666.46704988,1.16332796075546,-3.10319583486243,1.15869115523064,3.13790366256691,-2.42969671677749,-0.0387280479125268,-1.43210005078072,9.08226144005E-5,6.8341991089E-6,3.1292696964E-6,375747.338367013,8.9609E-12,1163.83898925781,-3.28448413454204,7.73082687691419,2.42492358399704
1980.0,-4195052.85122099,-4809631.82044281,-2204537.25941196,2766562.23601575,-5750532.55090254,-2206472.29217836,3726.21826466529,3897.05858362288,-5478.95282826746,-3.58227530427953,7.44604326025376,2.85704813990829,6758665.32554568,1.16770323016828,-3.0974301432402,1.08997021539018,3.13793734103683,-2.42405319588467,-0.0389201671954065,-1.4325244411443,9.67456593072E-5,7.2668149018E-6,3.3504571133E-6,376263.725198254,8.7955E-12,1160.76318359375,-3.58227874746815,7.44606800293384,2.85704716714816
2040.0,-3903869.40677949,-4894925.1902017,-2527699.91704841,2983515.98265653,-5503492.76548289,-2529813.35181413,3502.76220551918,4334.40516334111,-5294.89404761856,-3.86336053184487,7.12648327042935,3.27586013051301,6758664.90901862,1.17207849958109,-3.09141768949568,1.02122900525005,3.13792100074601,-2.4181323811183,-0.039117674253555,-1.43297113014858,9.87182930966E-5,7.3962997772E-6,3.4432177192E-6,376890.684552297,8.5995E-12,1157.0439453125,-3.86336053184487,7.12648327042935,3.27586013051301
2100.0,-3595227.6230149,-4960126.93603726,-2839083.91183092,3186567.04441353,-5230807.64635197,-2841365.90034306,3262.97586405153,4751.56939328195,-5086.1552729489,-4.12640544240104,6.77356943670779,3.67939150553357,6758664.90901862,1.1764537689939,-3.08538654750956,0.95248748331982,3.13788394275717,-2.41219165472954,-0.0393111791320302,-1.43342087184421,9.87181823446E-5,7.3752960384E-6,3.4707746466E-6,377615.105645472,8.3772E-12,1152.70458984375,-4.12640544240104,6.77356943670779,3.67939150553357
2160.0,-3270382.85912962,-5005081.11473341,-3137237.88653262,3374768.83061887,-4933747.18157237,-3139677.79481519,3007.97912464609,5146.59992452952,-4853.71073067121,-4.37017479381505,6.38898207673967,4.06574241029897,6758664.9090186,1.18082903840671,-3.07935063413113,0.883747785725241,3.13783091273639,-2.40625078909753,-0.0394999708750167,-1.4338721485913,9.87180553994E-5,7.3544028639E-6,3.4983221883E-6,378422.553136876,8.1333E-12,1147.77416992187,-4.37017479381505,6.38898207673967,4.06574241029897
2220.0,-2930664.96496179,-5029714.74948685,-3420772.25932339,3547244.11585105,-4613695.34355488,-3423358.71734714,2738.96340871072,5517.6498073596,-4598.64620272448,-4.59352138790702,5.97452770256319,4.43309537574333,6758664.9090186,1.18520430781953,-3.07330680643965,0.81501057957927,3.13776368367019,-2.40030978817068,-0.0396840434216977,-1.43432492423813,9.87179123359E-5,7.3336202361E-6,3.5258603778E-6,379297.494465147,7.8727E-12,1142.28588867187,-4.59352138790702,5.97452770256319,4.43309537574333
2280.0,-2577472.77083475,-5034037.55238028,-3688365.76073007,3703189.16747836,-4272143.58329532,-3691086.71554528,2457.18608344509,5862.98479395549,-4322.15385392163,-4.79539512361801,5.53215501023957,4.77972321587606,6758664.9090186,1.18957957723233,-3.06725262318172,0.746276533824624,3.1376831608943,-2.39436865593656,-0.0398633909486926,-1.43477916264267,9.87177532288E-5,7.3129481373E-6,3.5533892486E-6,380223.591710308,7.6001E-12,1136.27856445312,-4.79539512361801,5.53215501023957,4.77972321587606
2340.0,-2212268.25050392,-5018141.30591936,-3938771.64577235,3841877.52448899,-3910683.81791539,-3941614.41785254,2163.96448014233,6180.99158836175,-4025.52656034952,-4.97484810816128,5.06394539366818,5.1039974347863,6758664.90901858,1.19395484664514,-3.06118602941754,0.677546316357909,3.13758967340563,-2.38842739642082,-0.0400380078695373,-1.43523482767405,9.8717578152E-5,7.2923865498E-6,3.580908834E-6,381184.009770228,7.3203E-12,1129.79736328125,-4.97484810816128,5.06394539366818,5.1039974347863
2400.0,-1836570.37845678,-4982198.90667822,-4170823.55123379,3962663.40852753,-3531000.94069314,-4173774.89376202,1860.66962131301,6470.18550681562,-3710.15174823427,-5.13103924737057,4.57210278577034,5.40439613001112,6758664.90901857,1.19833011605796,-3.05510516878114,0.60882059116308,3.13748313290792,-2.38248601368599,-0.040207888834159,-1.43569188321404,9.87173871792E-5,7.271935456E-6,3.6084191677E-6,382161.730424719,7.0375E-12,1122.89306640625,-5.13103924737057,4.57210278577034,5.40439613001112
2460.0,-1451948.70869529,-4926463.07819757,-4383440.96964295,4064984.75062029,-3134864.89013784,-4386487.13045823,1548.71968864187,6729.217509772,-3377.50477479904,-5.26323829040317,4.05894288348715,5.67951134917925,6758664.90901857,1.20270538547076,-3.04900826216495,0.540100015478975,3.1373631207383,-2.37654451183038,-0.0403730287283504,-1.43615029315847,9.87171803836E-5,7.2515948383E-6,3.6359202832E-6,383139.866292061,6.7559E-12,1115.62158203125,-5.26323829040317,4.05894288348715,5.67951134917925
2520.0,-1060016.70358161,-4851264.7617475,-4575634.3135054,4148365.81903471,-2724122.31688125,-4578761.09941402,1229.57326517486,6956.8805704389,-3029.14188512348,-5.37082930743467,3.52688181678904,5.92805586036696,6758664.90901858,1.20708065488357,-3.04289352184145,0.471385237023209,3.1372289323372,-2.37060289498692,-0.0405334226732171,-1.43661002141879,9.87169578381E-5,7.2313646793E-6,3.6634122142E-6,384101.968804742,6.4792E-12,1108.04418945312,-5.37082930743467,3.52688181678904,5.92805586036696
2580.0,-662424.842629648,-4757011.19497527,-4746509.54543539,4212419.43575867,-2300687.88915774,-4749702.38858055,904.722386307312,7152.11534835339,-2666.69278127415,-5.45331358261106,2.97842432517241,6.14886930041464,6758664.90901859,1.21145592429638,-3.03675908412336,0.402676891294141,3.1370795944659,-2.36466116732197,-0.0406890660246324,-1.43707103192344,9.87167196151E-5,7.2112449615E-6,3.6908949942E-6,385032.32456179,6.2104E-12,1100.22741699218,-5.45331358261106,2.97842432517241,6.14886930041464
2640.0,-260853.542268946,-4644183.68979847,-4895272.35207251,4256848.77118912,-1866535.27941812,-4898516.37804581,575.685435096562,7314.01514042196,-2291.85284199986,-5.51031190826293,2.41615150789053,6.34092366951215,6758664.90901856,1.2158311937092,-3.03060295055449,0.333975598973341,3.13691386299599,-2.35871933303423,-0.0408399543726855,-1.43753328861935,9.87164657864E-5,7.1912356675E-6,3.718368657E-6,385916.2347431,5.9524E-12,1092.2412109375,-5.51031190826293,2.41615150789053,6.34092366951215
2700.0,142994.081414607,-4513335.1221706,-5021231.84201907,4281448.70877404,-1423687.87615561,-5024511.93938965,243.999918148117,7441.83008589439,-1906.37503306046,-5.54156627020152,1.84270821641067,6.50332814462685,6758664.90901856,1.220206463122,-3.0244229310507,0.265281963452256,3.13673020501414,-2.35277739635354,-0.0409860835411042,-1.43799675547342,9.87161964237E-5,7.1713367799E-6,3.7458332363E-6,386740.272682448,5.7074E-12,1084.15600585937,-5.54156627020152,1.84270821641067,6.50332814462685
2760.0,547399.574149772,-4365087.1475297,-5123803.75048334,4286106.77354242,-974209.266310171,-5127104.64141358,-88.7848411805987,7534.97060590321,-1512.06154977093,-5.54694091776544,1.26079015929318,6.63533318877563,6758664.90901856,1.22458173253482,-3.01821658403383,0.196596568509139,3.13652676648108,-2.34683536153972,-0.0411274495866881,-1.4384613964739,9.8715911598E-5,7.1515482815E-6,3.7732887658E-6,387492.515177589,5.4772E-12,1076.04211425781,-5.54694091776544,1.26079015929318,6.63533318877563
2820.0,950636.595718066,-4200127.15683657,-5202513.1358455,4270803.62067101,-520193.534652158,-5205819.44745771,-421.115055250131,7593.01006245041,-1110.75523458669,-5.52642281613577,0.673130790840792,6.73633393768487,6758664.90901859,1.22895700194763,-3.01198114918069,0.12791997616563,3.13630132490346,-2.34089323288142,-0.0412640487987223,-1.43892717563188,9.87156113801E-5,7.1318701551E-6,3.8007352792E-6,388162.743654999,5.2631E-12,1067.96508789062,-5.52642281613577,0.673130790840792,6.73633393768487
2880.0,1350978.42905699,-4019204.98911136,-5256996.55596158,4235613.08245895,-63755.4273246289,-5260292.89211695,-751.439833239621,7615.68662602422,-704.330813525269,-5.48012148224686,0.0824880554691022,6.80587284999725,6758664.90901859,1.23333227136044,-3.00571346827755,0.0592527247572547,3.13605122495364,-2.33495101469496,-0.0413958776983873,-1.43939405698271,9.87152958402E-5,7.1123023833E-6,3.8281728105E-6,388742.611890326,5.0656E-12,1059.98278808593,-5.48012148224686,0.0824880554691022,6.80587284999725
2940.0,1746705.51204963,-3823129.41728167,-5287003.71466879,4180701.77429957,392979.572757127,-5290274.72781846,-1078.21851402728,7602.90434535072,-294.68599591091,-5.40826820935427,-0.508368940194036,6.84364161182111,6758664.9090186,1.23770754077325,-2.99940988894066,-0.0094046727408957,3.13577329339407,-2.32900871132314,-0.04152293303816,-1.43986200458746,9.87149650482E-5,7.0928449491E-6,3.8556013935E-6,389225.777604041,4.8853E-12,1052.14245605468,-5.40826820935427,-0.508368940194036,6.84364161182111
3000.0,2136112.95772158,-3612764.42495681,-5292398.57163678,4106328.26243827,847885.210689795,-5295629.03440535,-1399.92793441307,7554.73341709368,116.267517657974,-5.31121468894783,-1.09667325594746,6.84948229103617,6758664.90901858,1.24208281018606,-2.99306614459653,-0.0780517300818764,3.13546372776731,-2.32306632713409,-0.0416452118012089,-1.44033098253429,9.87146190734E-5,7.0734978353E-6,3.883021062E-6,389607.995893386,4.7219E-12,1044.47985839843,-5.31121468894783,-1.09667325594746,6.84948229103617
3060.0,2517518.02864158,-3389025.29244097,-5273159.91140758,4012841.79847398,1298844.41658806,-5276334.78757121,-1715.06959687226,7471.40965758057,526.613074080305,-5.18943104218254,-1.67967337684998,6.82338774132144,6758664.90901857,1.24645807959887,-2.98667720194828,-0.146687988741768,3.13511795080696,-2.31712386652009,-0.0417627112007716,-1.44080095493993,9.8714257985E-5,7.0542610251E-6,3.91043185E-6,389887.173120024,4.5749E-12,1037.01843261718,-5.18943104218254,-1.67967337684998,6.82338774132144
3120.0,2889267.53157362,-3152874.51088795,-5229381.37016427,3900680.62768635,1743759.20710143,-5232485.88468952,-2022.17670185972,7353.33318282407,934.438108356607,-5.04350327631694,-2.25464633318118,6.76550126031896,6758664.90901855,1.25083334901168,-2.98023706386506,-0.215313018453636,3.1347304190146,-2.31118133389641,-0.0418754286795444,-1.44127188595106,9.87138818514E-5,7.0351345013E-6,3.9378337913E-6,390063.380538336,4.4436E-12,1029.77270507812,-5.04350327631694,-2.25464633318118,6.76550126031896
3180.0,3249745.09884856,-2905317.54398267,-5161270.92145149,3770369.88033989,2180560.48423003,-5164290.62926601,-2319.8210107085,7201.0663071958,1337.84314151457,-4.87413018476818,-2.81891061439845,6.67611551064898,6758664.90901856,1.2552086184245,-2.97373851067739,-0.283926417159761,3.13429436874697,-2.30523873370013,-0.04198336190904,-1.44174373974573,9.87134907409E-5,7.0161182471E-6,3.9652269201E-6,390138.82761796,4.327E-12,1022.74963378906,-4.87413018476818,-2.81891061439845,6.67611551064898
3240.0,3597378.32350738,-2647398.45690952,-5069149.82472111,3622519.05711852,2607217.68496871,-5072070.67789451,-2606.61950637111,7015.33067506851,1734.95069199208,-4.68211971229688,-3.36983881231839,6.55567071661533,6758664.90901859,1.2595838878373,-2.96717275534017,-0.352527810211794,3.13380147553764,-2.29929607038897,-0.0420865087889518,-1.44221648053477,9.87130847212E-5,6.9972122456E-6,3.9926112702E-6,390117.795677621,4.224E-12,1015.95355224609,-4.68211971229688,-3.36983881231839,6.55567071661533
3300.0,3930645.71601375,-2380195.43263408,-4953451.0431815,3457819.12176846,3021748.23628245,-4956259.45620299,-2881.24082062401,6797.00364354892,2123.91405750256,-4.46838480950164,-3.90486993149522,6.40475215335142,6758664.90901859,1.26395915725012,-2.96052897633068,-0.42111684857175,3.1332413907153,-2.29335334844009,-0.0421848674465117,-1.44269007256318,9.87126638597E-5,6.97841648E-6,4.0199868757E-6,390006.533101946,4.1336E-12,1009.38800048828,-4.46838480950164,-3.90486993149522,6.40475215335142
3360.0,4248083.45122966,-2104816.19568513,-4814717.13997344,3277039.21586541,3422226.77111362,-4817400.05282281,-3142.41139788029,6547.11393805355,2502.92592552419,-4.23393880321774,-4.42152130785597,6.2240869488293,6758664.9090186,1.26833442666293,-2.95379367391788,-0.489693205645971,3.1326011011029,-2.28741057234898,-0.0422784362358329,-1.4431644801115,9.87122282231E-5,6.9597309335E-6,4.0473537708E-6,389813.114052079,4.0546E-12,1003.05737304687,-4.23393880321774,-4.42152130785597,6.2240869488293
3420.0,4548291.87538785,-1822393.36368177,-4653597.66416696,3081023.01236382,3806794.06253039,-4656142.60288691,-3388.92136741725,6266.83660591646,2870.22677188314,-3.97989031156842,-4.91740008003933,6.01454022256499,6758664.90901858,1.27270969607574,-2.94694976609476,-0.558256572189244,3.13186402820521,-2.28146774662821,-0.0423672137372482,-1.44363966749726,9.87117778781E-5,6.9411555896E-6,4.0747119894E-6,389547.263198223,3.9859E-12,996.968933105468,-3.97989031156842,-4.91740008003933,6.01454022256499
3480.0,4829941.74397245,-1534079.7468055,-4470846.0404589,2870684.72622513,4173665.63473532,-4473241.17494917,-3619.63009760797,5957.48729644289,3224.11300842687,-3.70743773430056,-5.39021416152466,5.77711058798205,6758664.90901856,1.27708496548855,-2.93997529195972,-0.626806648393597,3.13100873476395,-2.27552487580631,-0.0424511987566438,-1.4441155990763,9.87113128907E-5,6.9226904315E-6,4.1020615657E-6,389220.149591522,3.9263E-12,991.131408691406,-3.70743773430056,-5.39021416152466,5.77711058798205
3540.0,5091780.16272302,-1241043.61527526,-4267315.97874002,2647004.80194974,4521140.01144867,-4269550.17750792,-3833.47140763422,5620.51589882298,3562.9448424872,-3.41786335064739,-5.83778266548432,5.51292504823022,6758664.90901857,1.28146023490136,-2.93284150769362,-0.695343131725807,3.13000702390493,-2.2695819644266,-0.0425303903247783,-1.44459223924413,9.87108333265E-5,6.9043354427E-6,4.1294025339E-6,388844.153345756,3.875E-12,985.556091308593,-3.41786335064739,-5.83778266548432,5.51292504823022
3600.0,5332636.20539763,-944463.954650685,-4043957.42188164,2411025.29925068,4847606.5641504,-4046020.30349858,-4029.45841413338,5257.49957208428,3885.1538126985,-3.11252705829955,-6.25804573829977,5.22323331778499,6758664.90901855,1.28583550431417,-2.92551001457291,-0.763865698106541,3.12882107038548,-2.26363901704596,-0.0426047876966025,-1.44506955243738,9.87103392508E-5,6.8860906067E-6,4.1567349281E-6,388432.609307129,3.8307E-12,980.255859375,-3.11252705829955,-6.25804573829977,5.22323331778499
3660.0,5551426.18346127,-645525.728462667,-3801812.05215765,2163844.99939792,5151552.92479189,-3803694.03318753,-4206.68799228103,4870.1352037825,4189.24996774386,-2.79285978813622,-6.64907376180366,4.90940160437506,6758664.90901855,1.29021077372699,-2.91792829127025,-0.83237397224209,3.12739895625477,-2.25769603823371,-0.0426743903505628,-1.44554750313507,9.87098307284E-5,6.8679559071E-6,4.1840587826E-6,387999.532343888,3.7924E-12,975.243835449218,-2.79285978813622,-6.64907376180366,4.90940160437506
3720.0,5747158.5444917,-345415.167267373,-3542008.37865888,1906614.2559301,5431571.92986038,-3543700.71784129,-4364.34483291508,4460.23133639984,4473.82865673392,-2.46035663017692,-7.0090758885025,4.57290588769369,6758664.90901855,1.29458604313979,-2.9100224900181,-0.900867479499402,3.12566747056061,-2.25175303257045,-0.0427391979879158,-1.44602605586,9.87093078237E-5,6.8499313275E-6,4.2113741316E-6,387559.329275696,3.7592E-12,970.532836914062,-2.46035663017692,-7.0090758885025,4.57290588769369
3780.0,5918938.37781043,-45315.1027331389,-3265756.42986672,1640529.61446895,5686368.0650785,-3267251.26835607,-4501.705079453,4029.6996024394,4737.57690215982,-2.1165697067722,-7.33640787825584,4.21532473295465,6758664.90901853,1.29896131255261,-2.90168531899923,-0.96934556479361,3.123519995524,-2.24581000464685,-0.0427992105320027,-1.4465051751801,9.87087706007E-5,6.8320168516E-6,4.2386810093E-6,387126.502774466,3.73E-12,966.134765625,-2.1165697067722,-7.33640787825584,4.21532473295465
3840.0,6065971.50763836,253599.635185787,-2974342.0772267,1366828.22728237,5914763.38253519,-2975632.47470736,-4618.13953052583,3580.54571096836,4979.27932868621,-1.76310082937121,-7.62957920909831,3.83833167865695,6758664.90901853,1.30333658196542,-2.8927545989493,-1.03780724904269,3.12079506722485,-2.23986695906248,-0.042854428127551,-1.44698482570976,9.87082191229E-5,6.8142124631E-6,4.2659794501E-6,386715.352793631,3.7039E-12,962.059936523437,-1.76310082937121,-7.62957920909831,3.83833167865695
3900.0,6187568.15593556,550166.740555067,-2669121.01709431,1086782.08902073,6115702.86465595,-2670200.98361116,-4713.11639643626,3114.86002987669,5197.82362344375,-1.40159397529958,-7.88725943905452,3.44368723893924,6758664.9090185,1.30771185137822,-2.88297288970448,-1.10625095907577,3.11723600659369,-2.23392390042471,-0.0429048511399495,-1.44746497211117,9.87076534535E-5,6.7965181458E-6,4.2932694883E-6,386339.681210102,3.6798E-12,958.316772460937,-1.40159397529958,-7.88725943905452,3.44368723893924
3960.0,6283146.15900169,843240.856495093,-2351512.43981188,801692.120699131,6288259.21211556,-2352376.96317638,-4786.20359973261,2634.8078093837,5392.2055059273,-1.03372762087057,-8.10828379988185,3.03323056164559,6758664.90901848,1.31208712079104,-2.87190533324353,-1.1746739783851,3.11240876732528,-2.22798083334747,-0.0429504801545224,-1.44794557909562,9.87070736552E-5,6.7789338837E-6,4.3205511582E-6,386012.505384429,3.6568E-12,954.910400390625,-1.03372762087057,-8.10828379988185,3.03323056164559
4020.0,6352233.72387898,1131697.88692904,-2022992.41591454,512882.129515503,6431637.03556051,-2023637.48456653,-4837.0706123608,2142.61909334934,5561.53318808856,-0.661206966852517,-8.2916580076529,2.6088707837087,6758664.90901846,1.31646239020385,-2.85875477772849,-1.24307121161338,3.10551706529206,-2.22203776245013,-0.0429913159757957,-1.44842661142484,9.87064797903E-5,6.7614596607E-6,4.3478244941E-6,385745.786251861,3.6342E-12,951.843200683593,-0.661206966852517,-8.2916580076529,2.6088707837087
4080.0,6394471.7126026,1414439.17980808,-1685087.03055194,221692.672482418,6545176.4338261,-1685509.65177907,-4865.48982400558,1640.57836573562,5705.03130771738,-0.285756091847341,-8.43656227893504,2.17257812570038,6758664.90901852,1.32083765961666,-2.841885071659,-1.31143199837694,3.09492567865482,-2.21609469235634,-0.0430273596267526,-1.4489080339123,9.87058719209E-5,6.7440954608E-6,4.3750895306E-6,385550.176345897,3.6109E-12,949.114379882812,-0.285756091847341,-8.43656227893504,2.17257812570038
4140.0,6409615.44437665,1690395.56740217,-1339365.29815151,-70525.1478902644,6628355.9441924,-1339563.51158927,-4871.33743834683,1131.01398012716,5822.04432071811,0.0908899314838859,-8.54235454501798,1.72637476742494,6758664.90901851,1.32521292902947,-2.81732440262379,-1.37973010159998,3.07666379324809,-2.21015162769287,-0.0430586123480887,-1.44938981142451,9.87052501082E-5,6.726841268E-6,4.4023463019E-6,385434.792825156,3.5864E-12,946.718872070312,0.0908899314838859,-8.54235454501798,1.72637476742494
4200.0,6397536.00780706,1958531.25010202,-987431.890136918,-362415.927490453,6680794.85310927,-987404.776494099,-4854.59389603163,616.287420565748,5912.03934039632,0.466992923160037,-8.60857286016551,1.27232554625875,6758664.90901849,1.32958819844228,-2.77230723488301,-1.44788040325209,3.03796694758147,-2.20420857308844,-0.0430850755974608,-1.44987190888233,9.87046144135E-5,6.7096970667E-6,4.4295948426E-6,385407.020126339,3.5599E-12,944.6484375,0.466992923160037,-8.60857286016551,1.27232554625875
4260.0,6358221.07738905,2217847.51106089,-630919.709153433,-652626.215694355,6702254.85872046,-630667.394129452,-4815.34382518856,98.7824420939898,5974.6084143632,0.840819452252885,-8.63493700321686,0.812528519592945,6758664.90901848,1.33396346785509,-2.63182346795263,-1.51537675275939,2.90382619975256,-2.1982655331726,-0.0431067510487203,-1.45035429126221,9.87039648973E-5,6.6926628408E-6,4.4568351871E-6,385472.346305925,3.5308E-12,942.890014648437,0.840819452252885,-8.63493700321686,0.812528519592945
4320.0,6291775.23051689,2467386.24991818,-271482.343741504,-939810.75337926,6692641.07942074,-271005.997124005,-4753.77552228265,-419.105860652122,6009.47023213244,1.21064863051151,-8.62134927502378,0.349105432236082,6758664.90901851,1.33833873726791,-0.467294473529757,-1.55102445479545,0.745664173755458,-2.19232251257457,-0.0431236405911424,-1.45083692359753,9.87033016199E-5,6.6757385749E-6,4.4840673699E-6,385634.236473692,3.4989E-12,941.426818847656,1.21064863051151,-8.62134927502378,0.349105432236082
4380.0,6198419.76335214,2706233.32476861,89213.5622580613,-1222638.66581093,6652002.40557317,89911.7323053143,-4670.17996802213,-934.982008701353,6016.47125891769,1.57477981187588,-8.56789449718446,-0.115807870996199,6758664.90901845,1.34271400668071,0.11980963483322,-1.48675497279299,0.164952339762325,-2.18637951592209,-0.0431357463286653,-1.45131977097981,9.87026246412E-5,6.6589242531E-6,4.5112914254E-6,385894.045973909,3.4637E-12,940.242309570312,1.57477981187588,-8.56789449718446,-0.115807870996199
4440.0,6078492.00594524,2933521.69248282,449495.991085965,-1499799.58269647,6580531.19438925,450412.748513255,-4564.9493848775,-1446.46107016778,5995.58629353008,1.93154016759225,-8.47483922032074,-0.580071048016188,6758664.90901848,1.34708927609353,0.197504052595327,-1.41886387826413,0.0936769752885485,-2.1804365478403,-0.0431430705791015,-1.45180279856002,9.87019340205E-5,6.6422198601E-6,4.5385073884E-6,386250.97515556,3.4254E-12,939.33251953125,1.93154016759225,-8.47483922032074,-0.580071048016188
4500.0,5932444.13904594,3148434.33843119,807695.248696478,-1770009.6581409,6478562.31081807,808826.344783376,-4438.57534455781,-1951.17952071942,5946.91845062061,2.27929210775824,-8.3426301527515,-1.04154883886229,6758664.90901845,1.35146454550634,0.231014568400052,-1.35068540552046,0.0666138947125862,-2.17449361295058,-0.0431456158733477,-1.45228597154979,9.87012298169E-5,6.6256253801E-6,4.5657152932E-6,386702.066709003,3.3844E-12,938.69287109375,2.27929210775824,-8.3426301527515,-1.04154883886229
4560.0,5760841.51706112,3350206.98761081,1162151.64418617,-2032017.46379848,6346571.52009801,1163491.83740786,-4291.64643550514,-2446.80598670519,5870.69856980535,2.61644052126402,-8.17189182284084,-1.49812058399502,6758664.90901845,1.35583981491915,0.251642685320767,-1.28242919815578,0.0524633436657683,-2.16855071586946,-0.0431433849545965,-1.45276925522268,9.87005120889E-5,6.6091407979E-6,4.5929151745E-6,387242.245660466,3.3409E-12,938.314270019531,2.61644052126402,-8.17189182284084,-1.49812058399502
4620.0,5564360.5036087,3538130.59012622,1511223.11678515,-2284609.72916286,6185173.24038139,1512766.19723523,-4124.84550211541,-2931.05182541637,5767.28405644865,2.94143980724984,-7.96342349056736,-1.94768964467299,6758664.90901843,1.36021508433196,0.266792260549903,-1.21414423986894,0.0438233772567975,-2.16260786120743,-0.0431363807775376,-1.45325261491541,9.86997808948E-5,6.5927660981E-6,4.6201070669E-6,387864.40122584,3.2954E-12,938.182983398437,2.94143980724984,-7.96342349056736,-1.94768964467299
4680.0,5343785.82807701,3711553.57491911,1853292.77652827,-2526616.90369062,5995117.66654534,1855031.59478327,-3938.94646897248,-3401.6814979552,5637.15716105982,3.25280067235496,-7.71819532597159,-2.38819268957506,6758664.90901842,1.36459035374478,0.279114739930777,-1.14584769588426,0.0380446461352337,-2.15666505356789,-0.0431246065075533,-1.4537360160291,9.86990362923E-5,6.5765012653E-6,4.647291005E-6,388559.50886132,3.2485E-12,938.281066894531,3.25280067235496,-7.71819532597159,-2.38819268957506
4740.0,5100007.4735208,3869883.86657662,2186776.3252046,-2756918.51629548,5777287.27894043,2188702.82549587,-3734.81076489065,-3856.52269130268,5480.92270637843,3.54909666918406,-7.43734387411591,-2.81760881284189,6758664.90901844,1.36896562315758,0.289794726582052,-1.07754691581153,0.0339448516299842,-2.15072229754599,-0.0431080655199008,-1.45421942403046,9.86982783388E-5,6.5603462845E-6,4.6744670235E-6,389316.79002852,3.2005E-12,938.582458496093,3.54909666918406,-7.43734387411591,-2.81760881284189
4800.0,4834017.10810391,4012590.66097603,2510129.32478918,-2974448.30868172,5532692.75339691,2512234.58232898,-3513.38336300136,-4293.47614741222,5299.30527328199,3.82897045255617,-7.1221668280453,-3.23396844972933,6758664.90901841,1.37334089257039,0.299441409848947,-1.00924539542778,0.0309173443172935,-2.14477959772753,-0.0430867613989017,-1.45470280445301,9.86975070911E-5,6.5443011404E-6,4.7016351569E-6,390123.906440251,3.1521E-12,939.052673339843,3.82897045255617,-7.1221668280453,-3.23396844972933
4860.0,4546904.07413003,4139205.95643554,2821854.28128886,-3178199.12000102,5262468.29129897,2824128.54357899,-3275.68845449204,-4710.5251584977,5093.14585864852,4.09113973122615,-6.7741171329895,-3.63536205708917,6758664.90901841,1.37771616198321,0.308400503697264,-0.940944863124435,0.0286192176185355,-2.13883695868785,-0.0430606979371217,-1.45518612289829,9.86967226059E-5,6.528365818E-6,4.7287954401E-6,390967.184885342,3.1047E-12,939.735778808593,4.09113973122615,-6.7741171329895,-3.63536205708917
4920.0,4239850.9504844,4249325.83793673,3120507.51277956,-3367227.50141276,4967866.39094405,3122940.24471361,-3022.82477491028,-5105.74468912938,4863.39802024196,4.33440289387734,-6.39479644671159,-4.01994852691523,6758664.90901838,1.38209143139601,0.316883186557455,-0.872646143733911,0.0268424052969576,-2.13289438499073,-0.0430298791345292,-1.45566934503705,9.86959249393E-5,6.5125403023E-6,4.7559479076E-6,391831.868162833,3.0602E-12,940.697326660156,4.33440289387734,-6.39479644671159,-4.01994852691523
4980.0,3914128.70603401,4342611.51286556,3404705.77137196,-3540658.04030058,4650252.08372252,3407285.70392545,-2755.96060318578,-5477.3100872939,4611.12352556393,4.55764428927595,-5.98594798250336,-4.38596330220839,6758664.90901838,1.38646670080883,0.32502613345623,-0.804349562266696,0.025453693093549,-2.1269518811873,-0.0429943091976743,-1.45615243661042,9.8695114147E-5,6.4968245784E-6,4.7830925942E-6,392702.38719745,3.0202E-12,941.98876953125,4.55764428927595,-5.98594798250336,-4.38596330220839
5040.0,3571091.46319811,4418790.09757908,3673132.58991331,-3697687.37514179,4311096.66087413,3675847.77220024,-2476.32845469646,-5823.50534821058,4337.4875234301,4.75983914155786,-5.54944876287202,-4.73172616542687,6758664.90901839,1.39084197022164,0.33292209594705,-0.736055151098093,0.0243641903235524,-2.12100945181495,-0.0429539925388426,-1.45663536343109,9.86942902842E-5,6.4812186315E-6,4.8102295347E-6,393562.649064708,2.9863E-12,943.656982421875,4.75983914155786,-5.54944876287202,-4.73172616542687
5100.0,3212170.89250424,4477655.15494496,3924544.32541035,-3837587.88334061,3951970.91869928,3927382.17986991,-2185.21949081523,-6142.7308964248,4043.75325878244,4.94005808268833,-5.08730131346854,-5.05564867079567,6758664.90901838,1.39521723963445,0.340636622315502,-0.667762764710127,0.0235126706155359,-2.11506710139624,-0.0429089337752153,-1.45711809138448,9.86934534059E-5,6.4657224468E-6,4.8373587638E-6,394396.335429328,2.9599E-12,945.745971679687,4.94005808268833,-5.08730131346854,-5.05564867079567
5160.0,2838870.26047765,4519066.98382119,4157775.87243922,-3959711.02571298,3574537.95211759,4160723.25290242,-1883.97766841885,-6433.51085351644,3731.27635294277,5.0974712852027,-4.60162482829306,-5.35624119275885,6758664.90901837,1.39959250904726,0.348217742441995,-0.599472147539991,0.0228559594858911,-2.10912483443784,-0.0428591377280073,-1.45760058642987,9.86926035666E-5,6.4503360097E-6,4.8644803163E-6,395187.205791247,2.9424E-12,948.30078125,5.0974712852027,-4.60162482829306,-5.35624119275885
5220.0,2452758.15467327,4542952.66224092,4371746.02118865,-4063490.33275012,3180545.52836932,4374789.273562,-1573.99365382213,-6694.49976066809,3401.49867314477,5.23135217940792,-4.09464583868721,-5.63211956387503,6758664.90901841,1.40396777846008,0.355701856460227,-0.531182976552618,0.0223631322248133,-2.10318265542941,-0.0428046094216248,-1.45808281460159,9.86917408203E-5,6.4350593055E-6,4.8915942269E-6,395919.399936109,2.9351E-12,951.366394042968,5.23135217940792,-4.09464583868721,-5.63211956387503
5280.0,2055461.9110471,4549305.84684106,4565462.43625959,-4148444.01928304,2771818.07444105,4568587.46155108,-1256.69852651735,-6924.48872733223,3055.94181675333,5.34108074030983,-3.5686884200979,-5.88201127649027,6758664.9090184,1.40834304787288,0.363117470068426,-0.462894889503959,0.0220118825537131,-2.09724056884262,-0.0427453540827974,-1.4585647420101,9.86908652207E-5,6.4198923197E-6,4.9187005306E-6,396577.734093448,2.9393E-12,954.990295410156,5.34108074030983,-3.5686884200979,-5.88201127649027
5340.0,1648660.77016756,4538186.33182653,4738026.233913,-4214177.21571949,2350248.31346061,4741218.55331524,-933.557298949801,-7122.4109793205,2696.20023708807,5.42614633063812,-3.02616397208047,-6.10476122358147,6758664.9090184,1.4127183172857,0.370487657459256,-0.394607504781492,0.0217861853270845,-2.09129857913,-0.0426813771397047,-1.45904633484315,9.8689976821E-5,6.404835038E-6,4.945799262E-6,397147.985507058,2.9566E-12,959.22119140625,5.42614633063812,-3.02616397208047,-6.10476122358147
5400.0,1234078.78998785,4509719.37149001,4888636.13711528,-4260383.80562198,1917788.58684223,4891880.95885122,-606.062279343931,-7287.34678181055,2323.93403921163,5.48615008748239,-2.46956060850513,-6.29933695526219,6758664.90901842,1.41709358669851,0.377831747602366,-0.326320436143941,0.0216747630044407,-2.08535669072395,-0.042612684221124,-1.45952755936688,9.86890756741E-5,6.3898874459E-6,4.972890456E-6,397617.160406866,2.9884E-12,964.107299804687,5.48615008748239,-2.46956060850513,-6.29933695526219
5460.0,813477.544032619,4464094.77101145,5016592.18947278,-4286847.86103837,1476441.90036549,5019874.47710121,-275.726305308678,-7418.52771502943,1940.86147541972,5.52080684123633,-1.90143219644173,-6.46483342859177,6758664.90901845,1.42146885611132,0.385166525238916,-0.258033304327119,0.0216700716237632,-2.07941490803569,-0.0425392811555353,-1.46000838192696,9.86881618325E-5,6.3750495291E-6,4.9999741476E-6,397973.740730207,3.0362E-12,969.693420410156,5.52080684123633,-1.90143219644173,-6.46483342859177
5520.0,388648.634887931,4401565.75094341,5121299.01096932,-4293444.66868003,1028252.73363625,5124603.55284057,55.9241234083499,-7515.34028272675,1548.75117147527,5.52994655678592,-1.3243870837226,-6.60047722954259,6758664.90901847,1.42584412552413,0.392507125180289,-0.189745746741374,0.0217676369752484,-2.07347323545419,-0.0424611739702515,-1.46048876894961,9.86872353482E-5,6.3603212735E-6,5.0270503715E-6,398207.905360477,3.1015E-12,976.013916015625,5.52994655678592,-1.3243870837226,-6.60047722954259
5580.0,-38593.9461791956,4322447.59144538,5202268.58031917,-4280141.34176167,575297.653497772,5205580.05986578,387.355784082912,-7577.32883599623,1149.41411585951,5.5135152881818,-0.741076556717062,-6.70563024727385,6758664.90901847,1.43021939493695,0.399867734427489,-0.121457426073921,0.0219656387496159,-2.06753167734517,-0.0423783688905277,-1.46096868694278,9.86862962727E-5,6.3457026649E-6,5.0541191627E-6,398311.722123066,3.1857E-12,983.0859375,5.5135152881818,-0.741076556717062,-6.70563024727385
5640.0,-466421.581810163,4227116.06296265,5259122.53071781,-4246997.01406849,119675.772931141,5262425.59726078,717.035712672942,-7604.19779754313,744.695445462624,5.47157563941491,-0.154183071386454,-6.77979278224687,6758664.90901845,1.43459466434975,0.407262179679404,-0.0531680383836434,0.0222646815181442,-2.06159023805008,-0.0422908723386721,-1.46144810249714,9.86853446574E-5,6.3311936893E-6,5.0811805561E-6,398279.307292248,3.2898E-12,990.898681640625,5.47157563941491,-0.154183071386454,-6.77979278224687
5700.0,-892998.880968677,4116005.65065464,5291593.94780945,-4194162.61459346,-336500.902200193,5294873.28755758,1043.43819815525,-7595.81317412441,336.466062200531,5.40430672537761,0.433591697786953,-6.82260607121056,6758664.90901844,1.43896993376255,0.414704456788996,0.015122678835269,0.022667718178915,-2.05564892188506,-0.0421986909331557,-1.46192698228721,9.8684380553E-5,6.3167943328E-6,5.1082345865E-6,398106.94991027,3.4149E-12,999.406982421875,5.40430672537761,0.433591697786953,-6.82260607121056
5760.0,-1316491.58818409,3989607.58046113,5299528.66078726,-4121880.22288657,-791117.195551701,5302769.06770576,1365.05175941238,-7552.20334760947,-73.3858839855053,5.31200362864918,1.01953894490277,-6.83385421370036,6758664.90901844,1.44334520317537,0.422209247787587,0.0834149381766194,0.0231801105937578,-2.04970773313996,-0.0421018314877039,-1.46240529307237,9.86834040099E-5,6.3025045815E-6,5.1352812889E-6,397793.198793563,3.5612E-12,1008.52795410156,5.31200362864918,1.01953894490277,-6.83385421370036
5820.0,-1735074.51613831,3848467.65525402,5282886.01969546,-4030482.00707264,-1242064.5083456,5286072.46591972,1680.38607432935,-7473.55913791898,-482.963609419693,5.19507634939878,1.6009549082246,-6.81346548644018,6758664.90901841,1.44772047258818,0.429792467281718,0.151708892955371,0.0238098276365262,-2.04376667607734,-0.0420003010104007,-1.46288300169793,9.86824150782E-5,6.2883244215E-6,5.1623206983E-6,397338.910695148,3.7287E-12,1018.14434814453,5.19507634939878,1.6009549082246,-6.81346548644018
5880.0,-2146939.46774399,3693183.91005541,5241739.15420334,-3920388.74831804,-1687250.54924785,5244856.85967515,1987.97883064987,-7360.23313399496,-890.370371185806,5.05404824745928,2.1751530852927,-6.76151303392771,6758664.90901845,1.45209574200099,0.437471882182727,0.220004626374526,0.0245677957113182,-2.03782575493145,-0.0418941067027778,-1.46336007509616,9.86814138074E-5,6.2742538392E-6,5.1893528496E-6,396747.258700988,3.9168E-12,1028.11608886718,5.05404824745928,2.1751530852927,-6.76151303392771
5940.0,-2550303.11362566,3524404.09581073,5176274.71136541,-3792107.95735479,-2124609.00211485,5179309.2123715,2286.40246814027,-7212.73829193123,-1293.71816409458,4.88955397749115,2.73947643730867,-6.67821492552466,6758664.90901841,1.4564710114138,0.445267857051922,0.288302138468932,0.0254684336100363,-2.03188497390728,-0.041783255958904,-1.46383648028729,9.86804002467E-5,6.260292821E-6,5.2163777777E-6,396023.700557758,4.1247E-12,1038.29382324218,4.88955397749115,2.73947643730867,-6.67821492552466
6000.0,-2943414.79081353,3342823.00168522,5086792.07216058,-3646231.59049458,-2552109.08768975,5089729.2884575,2574.27078172315,-7031.74580244664,-1691.13640187894,4.70233692012952,3.29130953133281,-6.56393357157324,6758664.90901842,1.46084628082662,0.453204293378799,0.356601329774102,0.0265304253932733,-2.02594433717958,-0.041667756364466,-1.46431218438056,9.86793744448E-5,6.2464413534E-6,5.2433955177E-6,395175.907255649,4.3513E-12,1048.53466796875,4.70233692012952,3.29130953133281,-6.56393357157324
6060.0,-3324564.18849489,3149179.62630574,4973702.04890785,-3483433.37437886,-2967764.97555193,4976528.34912278,2850.2453554784,-6818.08223300238,-2080.780543993,4.49324611408986,3.82809056777452,-6.41917449342378,6758664.90901842,1.46522155023942,0.461309858178213,0.424901980198751,0.0277778160455894,-2.0200038488919,-0.041547615695853,-1.46478715457521,9.86783364503E-5,6.2326994228E-6,5.2704061045E-6,394213.652817132,4.5954E-12,1058.71069335937,4.49324611408986,3.82809056777452,-6.41917449342378
6120.0,-3692088.88684966,2944254.20879399,4837525.06798068,-3304465.75050764,-3369645.00303691,4840227.33298465,3113.04179777261,-6572.72595304469,-2460.8406291586,4.2632326963889,4.34732323975927,-6.24458444478215,6758664.9090184,1.46959681965224,0.469619641521315,0.493203720831334,0.0292415616917213,-2.0140635131556,-0.0414228419192328,-1.46526135816144,9.8677286311E-5,6.2190670159E-6,5.2974095731E-6,393148.666869416,4.8556E-12,1068.71606445312,4.2632326963889,4.34732323975927,-6.24458444478215
6180.0,-4044381.71532278,2728865.13083057,4678888.84457456,-3110156.45235897,-3755880.65844916,4681454.52853296,3361.43574827528,-6296.80285408075,-2829.54967672789,4.01334586011767,4.84658837025707,-6.04094888447379,6758664.9090184,1.47397208906505,0.478177455006567,0.561505995199113,0.0309617405480142,-2.00812333404894,-0.0412934431896151,-1.46573476252144,9.86762240744E-5,6.2055441195E-6,5.3244059586E-6,391994.45219536,5.1305E-12,1078.46557617187,4.01334586011767,4.84658837025707,-6.04094888447379
6240.0,-4379897.89716279,2503865.70135415,4498525.55861539,-2901404.72964799,-4124675.2866905,4500942.74743031,3594.26862825695,-5991.58137955781,-3185.19191702022,3.74472834156766,5.3235552723827,-5.80918880356295,6758664.90901839,1.47834735847786,0.487039103717862,0.629808004489534,0.0329907527611069,-2.00218331561615,-0.0411594278499355,-1.46620733513034,9.86751497879E-5,6.1921307204E-6,5.351395296E-6,390766.07006213,5.4185E-12,1087.89318847656,3.74472834156766,5.3235552723827,-5.80918880356295
6300.0,-4697161.94768653,2270140.83582991,4297268.54321797,-2679177.23596723,-4474312.47642344,4299526.01008809,3810.45310634534,-5658.4668827995,-3526.11081205748,3.45861145095009,5.77599277805906,-5.5503569127557,6758664.90901838,1.48272262789067,0.496277170208087,0.698108627817222,0.0353980443233484,-1.99624346186645,-0.041020804430107,-1.46667904355715,9.86740634981E-5,6.1788268054E-6,5.3783776203E-6,389479.896708258,5.7177E-12,1096.94812011718,3.45861145095009,5.77599277805906,-5.5503569127557
6360.0,-4994774.29451499,2028603.64231814,4076048.49940503,-2444503.59769289,-4803164.08908274,4078135.75724113,4008.9782528445,-5298.99533454043,-3850.71682857035,3.15630966344655,6.20177988029942,-5.26563319913929,6758664.90901838,1.48709789730349,0.505988212635398,0.766406302575237,0.0382772546124899,-1.99030377677318,-0.0408775816460915,-1.46714985546573,9.86729652513E-5,6.1656323616E-6,5.4053529666E-6,388153.354920746,6.0259E-12,1105.58947753906,3.15630966344655,6.20177988029942,-5.26563319913929
6420.0,-5271417.58896535,1780191.92683684,3835889.25306504,-2198471.68362327,-5109697.89143935,3837796.60351289,4188.91435680256,-4914.82640487616,-4157.49492578818,2.83921478986849,6.59891593473917,-4.95631986455371,6758664.90901838,1.49147316671629,0.516303945970835,0.834698838822265,0.0417573544648827,-1.98436426427287,-0.0407297683989543,-1.46761973861572,9.86718550936E-5,6.152547376E-6,5.4323213698E-6,386804.625142365,6.3406E-12,1113.7841796875,2.83921478986849,6.59891593473917,-4.95631986455371
6480.0,-5525862.6788821,1525864.63073568,3577903.07235106,-1942222.59632861,-5392484.75500718,3579621.65118844,4349.41738124683,-4507.73594768752,-4445.01172136262,2.50878974876476,6.9655303667589,-4.6238356612336,6758664.90901836,1.4958484361291,0.527409253959065,0.902983120384115,0.0460206208808357,-1.97842492826434,-0.0405773737739186,-1.46808866086349,9.86707330704E-5,6.1395718357E-6,5.4592828652E-6,385452.341004321,6.6587E-12,1121.50463867187,2.50878974876476,6.9655303667589,-4.6238356612336
6540.0,-5756974.21444346,1266598.21298444,3303285.56589048,-1676945.40762532,-5650205.3873629,3304807.38458118,4489.73303339244,-4079.6079187878,-4711.92229981552,2.16656196437687,7.29989183160867,-4.26970964377702,6758664.90901834,1.50022370554192,0.539572463940296,0.971254602318619,0.0513328792073868,-1.9724857726078,-0.0404204070394174,-1.468556590163,9.8669599227E-5,6.1267057281E-6,5.4862374876E-6,384115.274567478,6.9768E-12,1128.72534179687,2.16656196437687,7.29989183160867,-4.26970964377702
6600.0,-5963715.85988493,1003382.99042649,3013310.18427453,-1403871.66193392,-5881656.56241773,3014628.1674794,4609.20042817085,-3632.42576215527,-4956.97662914937,1.81411641737782,7.60041677638923,-3.89557435996697,6758664.90901834,1.50459897495472,0.553198874852925,1.03950642174552,0.0580970020968496,-1.96654680112399,-0.0402588776461475,-1.46902349456676,9.8668453608E-5,6.1139490405E-6,5.5131852724E-6,382812.01686319,7.2909E-12,1135.42370605468,1.81411641737782,7.60041677638923,-3.89557435996697
6660.0,-6145155.08564098,737219.44915042,2709322.3493146,-1124269.67252924,-6085756.81883279,2710430.36817801,4707.2553251156,-3168.26330162912,-5179.02555271413,1.45308837781552,7.86567735458278,-3.50315850646168,6758664.90901834,1.50897424436754,0.568931412015581,1.10772772395761,0.0669535380010588,-1.9606080175933,-0.0400927952261115,-1.46948934222671,9.86672962579E-5,6.1013017603E-6,5.5401262544E-6,381560.659538808,7.5969E-12,1141.57824707031,1.45308837781552,7.86567735458278,-3.50315850646168
6720.0,-6300467.51711073,469114.54019365,2392733.23747657,-839438.636834651,-6261551.59809993,2393626.13852604,4783.43292048064,-2689.27517833985,-5377.02632509041,1.08515585208901,8.09440864606507,-3.09427907884874,6758664.90901834,1.51334951378035,0.587855026101719,1.17590025785421,0.0789850859129481,-1.95466942575489,-0.0399221695916588,-1.46995410139507,9.86661272204E-5,6.0887638751E-6,5.5670604688E-6,380378.483521359,7.8902E-12,1147.16845703125,1.08515585208901,8.09440864606507,-3.09427907884874
6780.0,-6428940.81810022,200077.972809685,2065013.24572315,-550702.597941011,-6408217.79630917,2065686.87523987,4837.37017844596,-2197.6868768925,-5550.04766262148,0.712031778086889,8.28551513817775,-2.67083304899415,6758664.90901835,1.51772478319316,0.611954961112728,1.24399072498604,0.096174540561966,-1.94873102930588,-0.0397470107345323,-1.47041774042524,9.86649465393E-5,6.0763353724E-6,5.5939879507E-6,379281.660603578,8.166E-12,1152.17431640625,0.712031778086889,8.28551513817775,-2.67083304899415
6840.0,-6529978.0889776,-68881.4815008326,1727685.16969364,-259404.280437005,-6525067.70628355,1728136.39343285,4868.8076873785,-1695.78438589597,-5697.27428130405,0.33545600478284,8.43807642649505,-2.23478860597132,6758664.90901836,1.52210005260597,0.645290215609578,1.31193111474049,0.122578531798347,-1.94279283190045,-0.039567328824906,-1.47088022777267,9.86637542576E-5,6.0640162399E-6,5.6209087353E-6,378284.973722739,8.4196E-12,1156.57629394531,0.33545600478284,8.43807642649505,-2.23478860597132
6900.0,-6603100.76168795,-336759.661071946,1382317.12572042,33101.1705872942,-6611552.32956973,1382543.84388202,4877.59102935536,-1185.90354081259,-5818.01089702242,-0.0428129054142563,8.55135209737638,-1.78817600009297,6758664.90901839,1.52647532201879,0.697623910415495,1.37955744659006,0.167957770905455,-1.93685483714907,-0.039383134210413,-1.47134153199568,9.8662550418E-5,6.0518064655E-6,5.6478228575E-6,377401.561438018,8.6463E-12,1160.35571289062,-0.0428129054142563,8.55135209737638,-1.78817600009297
6960.0,-6647950.97600503,-602560.649266424,1030515.2496084,325452.517864028,-6667264.04071756,1030516.40698079,4863.67165350894,-670.419099262606,-5911.68566557528,-0.421006011448867,8.62478575824598,-1.33307803265133,6758664.90901837,1.53085059143159,0.799497335099136,1.44635132935967,0.262851075709312,-1.93091704861765,-0.0391944374151897,-1.47180162175631,9.86613350628E-5,6.0397060371E-6,5.6747303527E-6,376642.691716351,8.8417E-12,1163.49450683593,-0.421006011448867,8.62478575824598,-1.33307803265133
7020.0,-6664293.42373679,-865300.359956509,673916.206378098,616288.797605636,-6691938.58934858,673691.797600691,4827.10724620967,-151.73360083716,-5977.85304258876,-0.797352423848747,8.65800818576371,-0.871620236861206,6758664.9090184,1.53522586084441,1.10752665685864,1.50951789584088,0.56387205768187,-1.92497946982671,-0.0390012491388964,-1.47226046582115,9.86601082341E-5,6.0277149425E-6,5.7016312558E-6,376017.569613262,9.0021E-12,1165.97741699218,-0.797352423848747,8.65800818576371,-0.871620236861206
7080.0,-6652016.65003884,-1124010.06068773,314179.546283073,904255.692161501,-6685456.42868745,313730.616196489,4768.06159364462,367.733934872312,-6016.19604621961,-1.17008778735458,8.65083956662699,-0.405960798160148,6758664.90901843,1.53960113025722,2.58461309776275,1.53366634147633,2.03391927657168,-1.91904210425064,-0.0388035802557522,-1.47271803306213,9.86588699733E-5,6.01583317E-6,5.728525602E-6,375533.182791448,9.1242E-12,1167.79028320312,-1.17008778735458,8.65083956662699,-0.405960798160148
