time,gePosition_m_X,gePosition_m_Y,gePosition_m_Z,eiPosition_m_X,eiPosition_m_Y,eiPosition_m_Z,eiVelocity_m_s_X,eiVelocity_m_s_Y,eiVelocity_m_s_Z,eiAccel_m_s2_X,eiAccel_m_s2_Y,eiAccel_m_s2_Z,semiMajorAxis_m,gast_rad,eulerAngle_rad_Roll,eulerAngle_rad_Pitch,eulerAngle_rad_Yaw,eulerAngleWrtEi_rad_Roll,eulerAngleWrtEi_rad_Pitch,eulerAngleWrtEi_rad_Yaw,bodyAngularRateWrtEi_rad_s_Roll,bodyAngularRateWrtEi_rad_s_Pitch,bodyAngularRateWrtEi_rad_s_Yaw,altitudeMsl_m,airDensity_kg_m3,ambientTemperature_dgK,eiGravitation_m_s2_X,eiGravitation_m_s2_Y,eiGravitation_m_s2_Z
0.0,-1428622.31112709,4163200.4655738,5136049.67204027,-4292653.41,955168.47,5139356.57,109.649663,-7527.72649,1484.521489,5.5289865693572,-1.23026788740987,-6.61954989994585,6758662.11722884,1.02331944621101,-1.0E-16,-0.202458193231342,2.0E-16,-2.4715939053549,-0.0371889644761342,-1.42899313488854,0.0,0.0,0.0,398252.763838142,3.1122E-12,976.192653674721,5.5289865693572,-1.23026788740987,-6.61954989994585
60.0,-1789712.64876688,3920255.3134273,5213136.60397904,-4276130.76360613,501640.15063872,5216447.94770978,440.899504425955,-7584.04304560366,1084.18939672292,5.50841669093322,-0.646201702281534,-6.71971240615587,6758662.11722887,1.02769471546425,-4.0E-16,-0.134388046685342,-0.0,-2.4715939053549,-0.0371889644761342,-1.42899313488854,0.0,0.0,0.0,398335.161468169,3.2024E-12,983.369143358291,5.50841669093322,-0.646201702281534,-6.71971240615587
120.0,-2144732.0333194,3662345.3126043,5266057.24088062,-4239785.46485071,45786.449266332,5269357.68010073,770.149856360686,-7605.20775889381,678.777242699508,5.46236021841803,-0.0589893241270332,-6.78881750197499,6758662.11722883,1.0320699847175,-3.0E-16,-0.0663117980950796,6.0E-16,-2.4715939053549,-0.0371889644761342,-1.42899313488854,0.0,0.0,0.0,398280.483168024,3.312E-12,991.275655191297,5.46236021841803,-0.0589893241270332,-6.78881750197499
180.0,-2492166.12299056,3390599.0029,5294562.85672707,-4183783.25764152,-410279.480789291,5297837.08956815,1095.87688042975,-7591.11290731489,270.159254331849,5.39101509822693,0.52866574084301,-6.82652947798943,6758662.11722882,1.03644525395931,-2.9E-15,0.0017710140289967,4.0E-16,-2.4715939053549,-0.0371889644761342,-1.42899313488854,0.0,0.0,0.0,398085.3786748,3.4417E-12,999.861374013802,5.39101509822693,0.52866574084301,-6.82652947798943
240.0,-2830524.93283794,3106195.85223943,5298517.62697299,-4108380.89026465,-864442.894077516,5301750.47079899,1416.5720940025,-7541.81319429643,-139.77448384783,5.29469509567264,1.11405482451904,-6.83265572642931,6758662.11722884,1.04082052320969,-1.7E-15,0.0698608210031735,1.0E-16,-2.4715939053549,-0.0371889644761342,-1.42899313488854,0.0,0.0,0.0,397748.768104346,3.5916E-12,1009.03826093396,5.29469509567264,1.11405482451904,-6.83265572642931
300.0,-3158349.27068251,2810361.12607352,5277899.32207647,-4013924.98616908,-1314597.20057467,5281075.78379538,1730.74928789973,-7457.52569377281,-549.126655787512,5.17382866282785,1.69447627941292,-6.80714795491088,6758662.11722881,1.04519579246293,-3.7E-15,0.137958021963569,-3.0E-16,-2.4715939053549,-0.0371889644761342,-1.42899313488854,0.0,0.0,0.0,397271.883714379,3.7614E-12,1018.68603174665,5.17382866282785,1.69447627941292,-6.80714795491088
360.0,-3474217.0876188,2504360.59818322,5232799.48200484,-3900850.50203112,-1758653.68795,5235904.82755069,2036.95136094463,-7338.62906255864,-956.00139364551,5.02895729882105,2.26724769265305,-6.75010277495461,6758662.1172288,1.04957106170188,-3.0E-15,0.206062982002844,-7.0E-16,-2.4715939053549,-0.0371889644761342,-1.42899313488854,0.0,0.0,0.0,396658.271816294,3.9505E-12,1028.66356558606,5.02895729882105,2.26724769265305,-6.75010277495461
420.0,-3776749.7157209,2189495.1251204,5163423.06959608,-3769678.77900142,-2194551.17459278,5166442.89226163,2333.75704093037,-7185.6620201973,-1358.5129738363,4.86073340379137,2.82971808104516,-6.66176165594907,6758662.11722882,1.05394633095227,-2.0E-15,0.274176030459355,-6.0E-16,-2.4715939053549,-0.0371889644761342,-1.42899313488854,0.0,0.0,0.0,395913.754633969,4.1579E-12,1038.82359594937,4.86073340379137,2.82971808104516,-6.66176165594907
480.0,-4064617.96585945,1867095.10630415,5070087.60293968,-3621015.19485927,-2620265.54951359,5073007.89024476,2619.7874617098,-6999.32109896086,-1754.79449109399,4.66991762971392,3.37928001560926,-6.54251023745084,6758662.11722886,1.05832160020265,-7.0E-16,0.342297459366943,-6.0E-16,-2.4715939053549,-0.0371889644761342,-1.42899313488854,0.0,0.0,0.0,395046.352534709,4.3822E-12,1049.02643605174,4.66991762971392,3.37928001560926,-6.54251023745084
540.0,-4336548.05765017,1538514.85367808,4953221.76924825,-3455546.42660972,-3033819.1554875,4956028.9680342,2893.71256636816,-6780.45766980691,-2143.00647189947,4.45737573340151,3.91338162296548,-6.39287699509342,6758662.11722893,1.06269686945303,-1.4E-15,0.410427522072939,-4.0E-16,-2.4715939053549,-0.0371889644761342,-1.42899313488854,0.0,0.0,0.0,394066.16768517,4.6222E-12,1059.14947100887,4.45737573340151,3.91338162296548,-6.39287699509342
600.0,-4591327.35512146,1205126.89368974,4813363.52501608,-3274037.3348504,-3433289.97224998,4816044.60446428,3154.25730682291,-6530.07425328215,-2521.34538840932,4.22407493918389,4.42953841007283,-6.21353125792587,6758662.11722894,1.06707213870913,-2.4E-15,0.478566432031261,-3.0E-16,-2.4715939053549,-0.0371889644761342,-1.42899313488854,0.0,0.0,0.0,392985.230809613,4.8764E-12,1069.09131825969,4.22407493918389,4.42953841007283,-6.21353125792587
660.0,-4827809.88150349,868316.225201669,4651157.68959356,-3077327.48299947,-3816820.55719276,4653700.20187414,3400.20761071366,-6249.32012759414,-2888.05203397396,3.97107982105512,4.92534485815692,-6.00528057770761,6758662.11722897,1.0714474079538,1.5E-15,0.546714361776741,1.6E-15,-2.4715939053549,-0.0371889644761342,-1.42899313488854,0.0,0.0,0.0,391817.313344238,5.1433E-12,1078.7715032867,3.97107982105512,4.92534485815692,-6.00528057770761
720.0,-5044921.58717981,529474.557546531,4467353.04163684,-2866327.30620534,-4182626.70183817,4469745.17990409,3630.41608710307,-5939.48624933574,-3241.41972144966,3.69954771645439,5.39848573122372,-5.76906745354871,6758662.11722898,1.07582267720419,2.0E-15,0.614871442086113,2.0E-16,-2.4715939053549,-0.0371889644761342,-1.42899313488854,0.0,0.0,0.0,390577.707881745,5.4213E-12,1088.12741165133,3.69954771645439,5.39848573122372,-5.76906745354871
780.0,-5241665.34592555,189994.551533034,4262798.93021112,-2642013.94644413,-4529005.76339734,4265029.58367307,3843.80744331259,-5601.99950563094,-3579.80226580135,3.41072368629182,5.84674704437561,-5.50596541829295,6758662.11722894,1.08019794645171,-1.9E-15,0.683037761330207,-9.0E-16,-2.4715939053549,-0.0371889644761342,-1.42899313488854,0.0,0.0,0.0,389282.980377661,5.7085E-12,1097.11022049672,3.41072368629182,5.84674704437561,-5.50596541829295
840.0,-5417125.65492679,-148735.911961008,4038441.41462094,-2405426.77194363,-4854344.63194301,4040500.22042338,4039.38358616868,-5238.41631975528,-3901.62171297128,3.10593503833543,6.26802663725425,-5.21717449618087,6758662.11722895,1.08457321569067,-2.3E-15,0.751213365021107,-1.7E-15,-2.4715939053549,-0.0371889644761342,-1.42899313488854,0.0,0.0,0.0,387950.698134415,6.0029E-12,1105.68096071401,3.10593503833543,6.26802663725425,-5.21717449618087
900.0,-5570473.01547434,-485339.412664834,3795318.94930193,-2157662.60064381,-5157127.29514867,3797196.34098099,4216.22838203827,-4850.41563555375,-4205.37577765728,2.7865854336178,6.66034429835598,-4.90401604458787,6758662.11722896,1.08894848494105,-1.9E-15,0.819398255557184,-1.7E-15,-2.4715939053549,-0.0371889644761342,-1.42899313488854,0.0,0.0,0.0,386599.138079688,6.3018E-12,1113.80733938154,2.7865854336178,6.66034429835598,-4.90401604458787
960.0,-5700967.97210349,-818454.597994031,3534557.63232429,-1899870.64890394,-5435941.96416277,3536244.88459677,4373.51205128819,-4439.79130921346,-4489.6449535128,2.45414859808208,7.02185138672565,-4.56792699598511,6758662.11722897,1.09332375419143,-1.8E-15,0.887592392167968,2.0E-16,-2.4715939053549,-0.0371889644761342,-1.42899313488854,0.0,0.0,0.0,385246.980300878,6.6025E-12,1121.46132185438,2.45414859808208,7.02185138672565,-4.56792699598511
1020.0,-5807964.79337453,-1146741.69544258,3257366.03840082,-1633247.22738113,-5689487.73094189,3258855.30807755,4510.49524479685,-4008.44443481087,-4753.09924171224,2.11016519023944,7.35081515975698,-4.21045258277476,6758662.63254767,1.09769902344753,2.06721668896E-5,0.955797197457816,1.1342259525E-6,-2.47157410571428,-0.0371897385172618,-1.42899458400996,1.9745761161E-6,1.505972901E-7,6.543918E-8,383912.996251637,6.9017E-12,1128.6175899771,2.11016165950744,7.35083989171823,-4.21045351230392
1080.0,-5890914.8116838,-1468887.93448483,2965029.66092959,-1359030.20172437,-5916580.76899833,2966314.0237512,4626.53256760514,-3558.37415753172,-4994.50451679626,1.75622163247599,7.64572606655767,-3.83324308415376,6758664.07939984,1.10207429269791,3.331426747377E-4,1.02403212465357,2.01479660099E-5,-2.47127711088567,-0.0372013438690161,-1.42901632311057,7.8983044635E-6,6.023311617E-7,2.618303905E-7,382615.777061961,7.1959E-12,1135.2525532007,1.75621810228317,7.64575079858498,-3.83324401397285
1140.0,-5949369.2329548,-1783612.73413662,2658904.98017799,-1078493.27300758,-6116159.83958171,2659978.46340604,4721.07553341431,-3091.66700989003,-5212.72850188908,1.39396409523494,7.90515729029166,-3.43804099136819,6758665.37237931,1.10644956193401,0.0010294558811881,1.09230300934619,6.97482084323E-5,-2.47062372081708,-0.0372268408883504,-1.4290641641622,1.38220327962E-5,1.0538563103E-6,4.584868091E-7,381373.333126643,7.4812E-12,1141.34376752658,1.39396056622868,7.90518202246435,-3.43804192182427
1200.0,-5982981.63522888,-2089672.80355727,2340413.19471917,-792940.062997296,-6287291.36179531,2341270.80531416,4793.6756403072,-2610.48975088339,-5406.74614050019,1.02507674462696,8.12787078716268,-3.02667675749851,6758666.50537159,1.11082483119011,0.0021255368749845,1.16060959634715,1.646216445504E-4,-2.46961393226247,-0.037266151353652,-1.42913814090548,1.97457610621E-5,1.5050164664E-6,6.55607318E-7,380202.798305831,7.7535E-12,1146.86961441099,1.02507321745548,8.12789551956014,-3.02667768893667
1260.0,-5991510.03190086,-2385867.05661256,2011033.63961957,-503698.05068606,-6429173.88743304,2011671.38786718,4843.98648599973,-2117.0783406053,-5575.64460460711,0.651277409894838,8.31279889375635,-2.60105944210476,6758667.47299955,1.11520010044049,0.0036495133159045,1.22895156449232,3.316858180061E-4,-2.46824774022362,-0.0373191543119353,-1.42923830527348,2.56694891414E-5,1.955655807E-6,8.533907609E-7,379120.149566789,8.0085E-12,1151.80908320103,0.651273885207651,8.31282362645808,-2.60106037486707
1320.0,-5974818.47489338,-2671041.31029431,1672296.92114102,-212112.390523543,-6541141.94289483,1672711.8396102,4871.76554700659,-1613.72754613201,-5718.62774831695,0.274309530839108,8.45904990234453,-2.16316788508119,6758668.27065117,1.11957536967945,0.0056570179497309,1.29732852353355,6.25374300331E-4,-2.46652513797388,-0.037385685995881,-1.42936472711963,3.15932168182E-5,2.4056191468E-6,1.0520359259E-6,378139.930744578,8.242E-12,1156.14148522096,0.274306009287459,8.45907463543017,-2.16316881950563
1380.0,-5932878.20269647,-2944092.76118376,1325777.80044684,80460.3614989946,-6622669.23790853,1325967.95818399,4876.87546931488,-1102.78023744115,-5835.02002002641,-0.104066066075452,8.56591281192895,-1.71504148969105,6758668.89450293,1.12395063893269,0.0082771318335028,1.36574000308905,0.0011735632872276,-2.46444611709056,-0.037465539712756,-1.42951749384939,3.7516943752E-5,2.8547521295E-6,1.2517415295E-6,377275.001364224,8.4499E-12,1159.8466502838,-0.10406958383815,8.56593754547832,-1.71504242611044
1440.0,-5865768.32413501,-3203974.2221243,973087.859457789,372658.584316898,-6673371.22396506,973052.371343257,4859.28486149155,-586.61642384399,-5924.26981091033,-0.482079522499052,8.63286122150281,-1.25877065790911,6758669.34154032,1.12832590818593,0.0118965096631823,1.43418540540234,0.00236168069329,-2.46201066749623,-0.0375584657062592,-1.42969670995558,4.34406694487E-5,3.3029014188E-6,1.4527061998E-6,376536.315559253,8.6284E-12,1162.90590190115,-0.48208303581679,8.63288595559596,-1.25877159665001
1500.0,-5773676.03157747,-3449698.10103071,615867.983253806,663121.960748437,-6693006.98845985,615607.014470235,4819.06858362339,-67.6420832974702,-5985.952220243,-0.857960391865491,8.65955633630585,-0.796486924070626,6758669.60957396,1.13270117743631,0.0184543272075782,1.50266366645589,0.0061276374557905,-2.45921877750906,-0.037664170992597,-1.429902496457,4.93643932329E-5,3.74991489E-6,1.6551284606E-6,375932.735577201,8.7741E-12,1165.30282342515,-0.857963900079258,8.65958107102309,-0.796487865452292
1560.0,-5656896.33845034,-3680340.10726827,255780.694502675,950497.848554989,-6681480.47372523,255295.46008764,4756.40752805061,451.72216142237,-6019.77122089717,-1.22994612864306,8.64584906249347,-0.330352835458294,6758669.69725227,1.13707644668384,2.21284535042815,1.57014711110039,2.1973648803448,-2.4560704339028,-0.0377823191724091,-1.4301349902403,5.52881142198E-5,4.1956418203E-6,1.8592067148E-6,375470.883701305,8.8843E-12,1167.0238143856,-1.22994963109045,8.64587379791538,-0.330353779791563
1620.0,-5515831.33872872,-3895042.67082612,-105497.623693419,1233447.62305714,-6638841.01341906,-106204.864214307,4671.58789048398,969.052464376203,-6025.56121135592,-1.59629057882516,8.59178117060458,0.137448369183458,6758669.60406999,1.14145171592279,-3.13200615659463,1.50186830391869,3.13218159029814,-2.45256562197645,-0.0379125302203665,-1.43039434330467,6.12118312875E-5,4.6399330806E-6,2.0651392289E-6,375155.035652111,8.9569E-12,1168.05851828821,-1.59629407483999,8.59180590681206,0.137447421597244
1680.0,-5350988.98840643,-4093018.06094808,-466284.579415541,1510652.96075443,-6565283.18208521,-467210.53229538,4564.99993278117,1481.93321961661,-6003.28794369451,-1.95527242657909,8.49758551346191,0.604723230166552,6758669.33037277,1.14582698517889,-3.12443562472342,1.43329331129922,3.13587024311807,-2.4487043256343,-0.0380543802546164,-1.43068072190903,6.713554305E-5,5.0826413259E-6,2.2731241167E-6,374987.057681484,8.9907E-12,1168.4001618683,-1.95527591549104,8.49761025053622,0.604722279036645
1740.0,-5162981.41042802,-4273551.19342026,-824899.660356136,1780822.03355448,-6461145.95710449,-826040.012749933,4437.13624137639,1987.96850881422,-5953.04882022512,-2.30520355154733,8.36368528962746,1.06927863165953,6758668.87735767,1.15020225442927,-3.11903337022292,1.36468689609167,3.13702424350641,-2.44448652747673,-0.0382074012884424,-1.43099430562165,7.30592478299E-5,5.5236211862E-6,2.4833593239E-6,374966.388657208,8.9853E-12,1168.04583233463,-2.30520703268165,8.36371002765021,1.06927767670688
1800.0,-4952522.72859149,-4436002.11475457,-1179672.12106472,2042695.58353886,-6326911.19568785,-1181021.56094216,4288.5894880929,2484.79347596376,-5875.07255482491,-2.64443725120177,8.19069234922523,1.52893240467771,6758668.24706939,1.15457752367966,-3.11390439104102,1.29605038267165,3.13753688008208,-2.43991220890222,-0.0383710809668286,-1.43133528627158,7.89829436322E-5,5.9627294571E-6,2.6960426126E-6,375090.067482536,8.9412E-12,1166.99671164474,-2.64444072387892,8.19071708827841,1.52893144563607
1860.0,-4720426.43614871,-4579808.15600847,-1528948.83088067,2295052.84867895,-6163201.43301103,-1530501.07163832,4120.04970279733,2970.08557176166,-5769.71819836305,-2.97137628289681,7.97940454477286,1.98152391122122,6758667.44239257,1.15895279293004,-3.10866711404219,1.22738474784531,3.13778786356616,-2.43498135022115,-0.0385448622908887,-1.43170386680178,8.49066281183E-5,6.3998252904E-6,2.9113715464E-6,375352.805231888,8.8597E-12,1165.25828156641,-2.97137974643224,7.9794292849389,1.98152294783826
1920.0,-4467602.30871939,-4704485.74825232,-1871102.04449058,2536717.31056368,-5970777.01102432,-1872849.85415035,3932.30107006129,3441.57561058332,-5637.47353108404,-3.28448068086237,7.73080213559309,2.42492455198307,6758666.46704016,1.16332806216899,-3.10319329468406,1.15869095023202,3.13790340313124,-2.42969393078196,-0.0387281433333489,-1.43210026002357,9.08302985804E-5,6.8347703847E-6,3.1295434747E-6,375747.100433984,8.7431E-12,1162.84050928157,-3.28448413456622,7.73082687695481,2.4249235840215
1980.0,-4195052.8730564,-4809631.89399576,-2204537.05732195,2766562.23601123,-5750532.55087754,-2206472.29218047,3726.21826465313,3897.05858368066,-5478.95282826379,-3.5822753043211,7.44604326033511,2.85704813994067,6758665.32553728,1.16770333142223,-3.09742712338396,1.0899699762158,3.13793707334249,-2.42404992911022,-0.0389202769485951,-1.43252468727214,9.67539519167E-5,7.267429175E-6,3.350755519E-6,376263.395029168,8.5941E-12,1159.75802022479,-3.58227874749804,7.44606800297579,2.85704716717938
2040.0,-3903869.42729077,-4894925.28111643,-2527699.70924579,2983515.98265121,-5503492.76545432,-2529813.35181596,3502.76220550481,4334.40516340219,-5294.89404761276,-3.86336053188081,7.12648327047141,3.27586013055168,6758664.9090107,1.17207860067547,-3.09141410031572,1.02122872538099,3.13792071751364,-2.41812853905534,-0.0391178007993633,-1.43297142053824,9.87284338085E-5,7.3970507647E-6,3.4435829384E-6,376890.250642894,8.4162E-12,1156.03026016694,-3.86336053188081,7.12648327047141,3.27586013055168
2100.0,-3595227.64212228,-4960127.04381152,-2839083.69927841,3186567.04440728,-5230807.64631964,-2841365.90034447,3262.97586403482,4751.5693933455,-5086.15527294056,-4.12640544244318,6.77356943674844,3.67939150558018,6758664.90901068,1.17645386991157,-3.08538235324674,0.952487160735166,3.1378836422324,-2.41218720231379,-0.0393113227248292,-1.43342120942759,9.8728323026E-5,7.3760425529E-6,3.4711457708E-6,377614.558442525,8.2132E-12,1151.68165157285,-4.12640544244318,6.77356943674844,3.67939150558018
2160.0,-3270382.87690842,-5005081.23866377,-3137237.67021943,3374768.83061153,-4933747.18153614,-3139677.79481601,3007.97912462667,5146.59992459543,-4853.71073065984,-4.37017479386334,6.38898207677728,4.06574241035378,6758664.90901065,1.1808291391591,-3.07934583194201,0.883747421025078,3.13783059532255,-2.40624572630275,-0.0395001305218542,-1.4338725336611,9.87281960452E-5,7.3551449388E-6,3.4986992139E-6,378421.885216043,7.9892E-12,1146.74175946973,-4.37017479386334,6.38898207677728,4.06574241035378
2220.0,-2930664.98145976,-5029714.8888183,-3420772.04026069,3547244.11584245,-4613695.34351463,-3423358.71734717,2738.96340868822,5517.64980742762,-4598.64620270958,-4.59352138796121,5.97452770259607,4.4330953758064,6758664.90901062,1.18520440840948,-3.07330139370503,0.815010173373479,3.13776334935524,-2.40030411497191,-0.0396842181279106,-1.43432535707562,9.87280529412E-5,7.3343579049E-6,3.5262433011E-6,379296.700667772,7.7486E-12,1141.24542941575,-4.59352138796121,5.97452770259607,4.4330953758064
2280.0,-2577472.78612719,-5034037.70626974,-3688365.53994617,3703189.16746831,-4272143.58325092,-3691086.71554429,2457.18608341917,5862.9847940253,-4322.1538539027,-4.79539512367776,5.53215501026606,4.77972321594728,6758664.90901061,1.18957967766558,-3.06724659738402,0.746276086733,3.13768280935333,-2.39436237231013,-0.0398635797180086,-1.4347796435177,9.87278937883E-5,7.3136814332E-6,3.5537780659E-6,380222.669236535,7.4957E-12,1135.23291567287,-4.79539512367776,5.53215501026606,4.77972321594728
2340.0,-2212268.26460595,-5018141.47348262,-3938771.42430795,3841877.52447728,-3910683.81786676,-3941614.41785028,2163.96448011268,6180.99158843293,-4025.5265603261,-4.97484810822602,5.06394539368658,5.10399743486535,6758664.90901063,1.1939549469131,-3.06117938805976,0.677545829010288,3.13758930405863,-2.38842050234438,-0.0400382097041709,-1.43523535684504,9.87277186609E-5,7.2931155063E-6,3.5813035418E-6,381182.958226931,7.2346E-12,1128.74997476513,-4.97484810822602,5.06394539368658,5.10399743486535
2400.0,-1836570.39139497,-4982199.08694743,-4170823.330137,3962663.40851392,-3531000.94064021,-4173774.89375821,1860.66962127934,6470.18550688763,-3710.15174820588,-5.13103924743964,4.57210278577908,5.40439613009749,6758664.90901063,1.19833021615206,-3.05509790932857,0.608820064199503,3.13748274495118,-2.38247850913849,-0.0402081027349162,-1.43569246092797,9.87275276324E-5,7.2726601064E-6,3.6088197624E-6,382160.551827406,6.9695E-12,1121.84788759233,-5.13103924743964,4.57210278577908,5.40439613009749
2460.0,-1451948.7206202,-4926463.27009292,-4383440.74996432,4064984.75060452,-3134864.89008057,-4386487.13045255,1548.71968860394,6729.21750984421,-3377.50477476526,-5.26323829047576,4.05894288348476,5.67951134927224,6758664.90901063,1.2027054854053,-3.04900038199946,0.540099449549863,3.13736271315865,-2.37653639679213,-0.0403732536947255,-1.43615091965093,9.87273207763E-5,7.252315216E-6,3.6363267612E-6,383138.565021247,6.7041E-12,1114.58334764486,-5.26323829047576,4.05894288348476,5.67951134927224
2520.0,-1060016.71455269,-4851264.96416397,-4575634.09629296,4148365.81901654,-2724122.31681965,-4578761.09940615,1229.5732651325,6956.8805705106,-3029.14188508396,-5.37082930750984,3.52688181677413,5.92805586046568,6758664.90901065,1.20708075465283,-3.04288501822229,0.471384632789578,3.13722850391452,-2.37059416943954,-0.0405336577034858,-1.43661069691396,9.87270981652E-5,7.2320808176E-6,3.6638245719E-6,384100.551518017,6.4419E-12,1107.01811816702,-5.37082930750984,3.52688181677413,5.92805586046568
2580.0,-662424.852715064,-4757011.4067441,-4746509.33172962,4212419.43573781,-2300687.88909187,-4749702.38857012,904.722386260378,7152.1153484238,-2666.69278122855,-5.45331358268772,2.97842432514379,6.14886930051803,6758664.90901066,1.21145602389464,-3.03674995415068,0.402676249427858,3.13707914376638,-2.36465183124848,-0.0406893101159629,-1.4370717566341,9.87268598718E-5,7.2119568938E-6,3.6913132281E-6,385030.800063719,6.1858E-12,1099.21832373926,-5.45331358268772,2.97842432514379,6.14886930051803
2640.0,-260853.551624698,-4644183.90968896,-4895272.14290136,4256848.77116531,-1866535.27934809,-4898516.37803248,575.685435045014,7314.01514049021,-2291.85284194795,-5.51031190833991,2.41615150784718,6.34092366961896,6758664.90901066,1.21583129314788,-3.0305931911329,0.333974920157437,3.1369133883575,-2.35870938641901,-0.0408402065212272,-1.4375340627469,9.87266059678E-5,7.1919434271E-6,3.7187927635E-6,385914.613816029,5.9386E-12,1091.25321745439,-5.51031190833991,2.41615150784718,6.34092366961896
2700.0,142994.072696193,-4513335.34891992,-5021231.63839296,4281448.70874698,-1423687.87608158,-5024511.93937301,243.999918091969,7441.83008595959,-1906.37503300207,-5.54156627027765,1.84270821635184,6.50332814473575,6758664.90901067,1.22020656239826,-3.02441253885068,0.265281248381297,3.13672970452418,-2.35276683918234,-0.0409863427420929,-1.43799757920787,9.8726336525E-5,7.1720404001E-6,3.746263212E-6,386738.567881769,5.7026E-12,1083.19328263315,-5.54156627027765,1.84270821635184,6.50332814473575
2760.0,547399.565959382,-4365087.37983619,-5123803.55339037,4286106.77351188,-974209.266232337,-5127104.64139325,-88.7848412412558,7534.97060596441,-1512.06154970598,-5.54694091783939,1.26079015921828,6.63533318888506,6758664.90901072,1.22458183164864,-3.01820555544912,0.196595817889673,3.13652623794682,-2.34682419379969,-0.0411277148345375,-1.4384622699939,9.87260516144E-5,7.1522477956E-6,3.7737246071E-6,387490.740595916,5.4793E-12,1075.1076253768,-5.54694091783939,1.26079015921828,6.63533318888506
2820.0,950636.587932099,-4200127.39337139,-5202512.9462466,4270803.62063671,-520193.534570796,-5205819.44743327,-421.115055315129,7593.01006250663,-1110.7552345152,-5.52642281620627,0.673130790749537,6.7363339377933,6758664.90901074,1.22895710090188,-3.01196948027953,0.127919190716745,3.13630076581324,-2.34088145456112,-0.0412643190871201,-1.43892809910475,9.87257513068E-5,7.1325655964E-6,3.8011769828E-6,388160.914659508,5.2703E-12,1067.06081633643,-5.52642281620627,0.673130790749537,6.7363339377933
2880.0,1350978.42163279,-4019205.22849954,-5256996.37478587,4235613.08242062,-63755.4272400685,-5260292.89208804,-751.439833308709,7615.68662607446,-704.330813447339,-5.48012148231255,0.0824880553614635,6.80587285010301,6758664.90901076,1.23333237013798,-3.00570115474569,0.059251905211252,3.13605063242822,-2.33493862578436,-0.0413961520204002,-1.43939503056441,9.87254356725E-5,7.1129937851E-6,3.8286203728E-6,388740.744838678,5.0763E-12,1059.10962027322,-5.48012148231255,0.0824880553614635,6.80587285010301
2940.0,1746705.50481483,-3823129.65816758,-5287003.54280899,4180701.77425697,392979.572844498,-5290274.72778469,-1078.21851410014,7602.90434539401,-294.685995826757,-5.40826820941385,-0.508368940317808,6.84364161192254,6758664.90901074,1.23770763938837,-2.99939692601335,-0.0094055256376785,3.13577266412546,-2.32899571181364,-0.0415232103863275,-1.43986302842263,9.87251047813E-5,7.0935323446E-6,3.8560548111E-6,389223.889543602,4.8977E-12,1051.30029830589,-5.40826820941385,-0.508368940317808,6.84364161192254
3000.0,2136112.95056531,-3612764.6659636,-5292398.4099449,4106328.26239119,847885.210779529,-5295629.03436635,-1399.92793448929,7554.73341712905,116.26751774804,-5.31121468900001,-1.09667325608684,6.84948229113156,6758664.9090107,1.24208290863875,-2.993052526976,-0.0780526155680312,3.13546305794231,-2.3230527170185,-0.0416454911676366,-1.44033205675625,9.87247587027E-5,7.0741812579E-6,3.8834803315E-6,389606.104249287,4.7345E-12,1043.66720810821,-5.31121468900001,-1.09667325608684,6.84948229113156
3060.0,2517518.02149441,-3389025.53216294,-5273159.76069063,4012841.79842224,1298844.41667966,-5276334.78752663,-1715.06959695135,7471.40965760714,526.613074175872,-5.18943104222614,-1.67967337700418,6.8233877414091,6758664.90901069,1.2464581778777,-2.98666292370235,-0.146688906039543,3.13511723601102,-2.31710964579268,-0.0417629915772319,-1.44080207967071,9.87243975058E-5,7.054940508E-6,3.910896968E-6,389885.295377136,4.5863E-12,1036.23314527565,-5.18943104222614,-1.67967337700418,6.8233877414091
3120.0,2889267.52428089,-3152874.74798837,-5229381.23118037,3900680.62762978,1743759.20719433,-5232485.88463907,-2022.17670194113,7353.33318284098,934.438108457162,-5.04350327635079,-2.2546463333491,6.76550126039725,6758664.90901071,1.25083344713094,-2.98022211830082,-0.215313966767314,3.13472965411031,-2.31116650255288,-0.0418757090575709,-1.44127306130141,9.87240212591E-5,7.0358100777E-6,3.9383047544E-6,390061.533922662,4.4526E-12,1029.01133848895,-5.04350327635079,-2.2546463333491,6.76550126039725
3180.0,3249745.09132055,-2905317.77709993,-5161270.79490598,3770369.88027838,2180560.48432363,-5164290.62920941,-2319.82101079163,7201.06630720225,1337.84314161951,-4.87413018479124,-2.81891061457873,6.6761155107163,6758664.90901073,1.25520871638133,-2.97372289018181,-0.283927395673617,3.13429354771911,-2.30522329173763,-0.0419836412800186,-1.44174496581513,9.87236300309E-5,7.0167899503E-6,3.9657037249E-6,390137.028782487,4.3323E-12,1022.00849631331,-4.87413018479124,-2.81891061457873,6.6761155107163
3240.0,3597378.31565067,-2647398.68471163,-5069149.71126308,3622519.057052,2607217.68506237,-5072070.67783151,-2606.61950645527,7015.3306750638,1734.95069210068,-4.68211971230826,-3.36983881250949,6.55567071667021,6758664.90901076,1.25958398563171,-2.96715645117626,-0.352528818087462,3.13380059129364,-2.29928001780611,-0.0420867861442199,-1.44221775741146,9.87232238889E-5,6.9978801088E-6,3.9930939134E-6,390116.060398106,4.2246E-12,1015.22807216276,-4.68211971230826,-3.36983881250949,6.55567071667021
3300.0,3930645.70774191,-2380195.65381872,-4953450.94340046,3457819.12169687,3021748.23637549,-4956259.45613337,-2881.24082070848,6797.00364353246,2123.91405761406,-4.46838480950062,-3.90486993169536,6.40475215339259,6758664.90901073,1.26395925488209,-2.96051197837306,-0.421117884944795,3.133240434825,-2.29333668523695,-0.0421851417774559,-1.44269140032416,9.87228029005E-5,6.9790805364E-6,4.020475354E-6,390004.875987669,4.1286E-12,1008.6730347417,-4.46838480950062,-3.90486993169536,6.40475215339259
3360.0,4248083.44248811,-2104816.40893837,-4814717.05439637,3277039.21578875,3422226.77120532,-4817400.05274644,-3142.41139796431,6547.11393802486,2502.9259256377,-4.23393880320367,-4.42152130806313,6.22408694885553,6758664.90901073,1.26833452412105,-2.95377597030456,-0.489694269621365,3.13260006345446,-2.28739329852709,-0.0422787065339839,-1.44316585882257,9.87223671326E-5,6.9603912165E-6,4.0478480807E-6,389811.548276746,4.0431E-12,1002.34775930749,-4.23393880320367,-4.42152130806313,6.22408694885553
3420.0,4548291.86607404,-1822393.5678403,-4653597.59325552,3081023.01228216,3806794.06262,-4656142.60280368,-3388.92136750003,6266.83660587517,2870.22677199774,-3.97989031154088,-4.91740008025135,6.01454022257527,6758664.9090107,1.27270979337429,-2.94693134276061,-0.558257662835307,3.13186289654281,-2.28144986219058,-0.0423674789943656,-1.44364109721301,9.87219166517E-5,6.9418121322E-6,4.0752121278E-6,389545.800255699,3.9673E-12,996.258986136985,-3.97989031154088,-4.91740008025135,6.01454022257527
3480.0,4829941.73403604,-1534079.94067262,-4470845.98460708,2870684.72613856,4173665.63482207,-4473241.17485907,-3619.63009768869,5957.48729638879,3224.11300854159,-3.70743773425929,-5.3902141617392,5.77711058797559,6758664.9090107,1.27708506262181,-2.93995613199976,-0.626807764733712,3.13100749405539,-2.27550638075743,-0.042451457964816,-1.44411707984016,9.8721451524E-5,6.9233432669E-6,4.1025675293E-6,389218.79908126,3.9001E-12,990.416004605828,-3.70743773425929,-5.3902141617392,5.77711058797559
3540.0,5091780.15212213,-1241043.7976923,-4267315.93827198,2647004.80185841,4521140.01153181,-4269550.17741097,-3833.47140771205,5620.51589875597,3562.94484260101,-3.41786335059231,-5.83778266569894,5.51292504820638,6758664.90901074,1.28146033186077,-2.93282159047523,-0.695344272726908,3.13000565545837,-2.26956285877241,-0.0425306424765149,-1.44459377108839,9.87209718151E-5,6.9049846042E-6,4.1299143194E-6,388842.922791952,3.8406E-12,984.830300019496,-3.41786335059231,-5.83778266569894,5.51292504820638
3600.0,5332636.194077,-944464.124607492,-4043957.39704988,2411025.29915477,4847606.56422914,-4046020.30339485,-4029.45841420749,5257.49957200447,3885.15381281036,-3.1125270582308,-6.25804573851206,5.22323331774346,6758664.90901074,1.28583560110829,-2.92548931446773,-0.763866862662662,3.12881955058603,-2.2636193007939,-0.0426050317849338,-1.44507113538318,9.87204775902E-5,6.8867361274E-6,4.1572525322E-6,388431.504015429,3.788E-12,979.514888824016,-3.1125270582308,-6.25804573851206,5.22323331774346
3660.0,5551426.17138595,-645525.885008841,-3801812.04314169,2163844.99929771,5151552.92486546,-3803694.03307718,-4206.68799235059,4870.1352036901,4189.24996785269,-2.79285978805414,-6.64907376201108,4.90940160431571,6758664.90901074,1.29021087036154,-2.91790677579153,-0.832375159150224,3.12739725470684,-2.2576757113927,-0.0426746253691208,-1.44554913719246,9.87199689142E-5,6.8685978202E-6,4.1845822021E-6,387998.555298872,3.7413E-12,974.483516604847,-2.79285978805414,-6.64907376201108,4.90940160431571
3720.0,5747158.53164701,-345415.309465006,-3542008.38556403,1906614.25582587,5431571.92992802,-3543700.71772451,-4364.34483297931,4460.2313362952,4473.82865683865,-2.46035663008204,-7.00907588870259,4.57290588761664,6758664.90901069,1.29458613960906,-2.9100001169939,-0.900868687422999,3.12566554726649,-2.25173209515087,-0.0427394229310312,-1.44602774102793,9.87194458516E-5,6.8505696661E-6,4.2119033633E-6,387558.481081249,3.6996E-12,969.749835026214,-2.46035663008204,-7.00907588870259,4.57290588761664
3780.0,5918938.36418733,-45315.2298052626,-3265756.45272339,1640529.61436104,5686368.06513951,-3267251.26823317,-4501.70507951119,4029.69960232301,4737.57690225943,-2.1165697066652,-7.33640787844613,4.21532473286021,6758664.90901072,1.29896140886516,-2.90166203211325,-0.969346792205098,3.12351779643039,-2.24578845666056,-0.0427994243948023,-1.44650691144647,9.87189084663E-5,6.8326516489E-6,4.2392160501E-6,387125.781638849,3.6622E-12,965.326625552211,-2.1165697066652,-7.33640787844613,4.21532473286021
3840.0,6065971.49323975,253599.524101101,-2974342.11598998,1366828.22717117,5914763.38258888,-2975632.47457866,-4618.13953057726,3580.54571084091,4979.27932877965,-1.76310082925295,-7.62957920927643,3.83833167854574,6758664.90901073,1.30333667810126,-2.89273032037029,-1.03780849412881,3.12079251685851,-2.23984480052285,-0.0428546299060387,-1.44698661305144,9.8718356822E-5,6.8148437522E-6,4.2665202967E-6,386714.754559595,3.6281E-12,961.225103145436,-1.76310082925295,-7.62957920927643,3.83833167854574
3900.0,6187568.14077688,550166.646026771,-2669121.07164386,1086782.08890666,6115702.86470169,-2670200.98347707,-4713.11639648028,3114.86002973898,5197.82362353004,-1.4015939751711,-7.88725943921822,3.44368723881204,6758664.90901072,1.30771194735164,-2.88294750718263,-1.10625221957245,3.11723299516449,-2.23390113134656,-0.0429050398311082,-1.447466810494,9.87177909817E-5,6.7971459599E-6,4.2938161376E-6,386339.199429943,3.5966E-12,957.454311175601,-1.4015939751711,-7.88725943921822,3.44368723881204
3960.0,6283146.14311046,843240.779084623,-2351512.50995232,801692.120582654,6288259.21215277,-2352376.96303735,-4786.20359976864,2634.80780923666,5392.20550600549,-1.03372762073306,-8.10828380002904,3.03323056150346,6758664.90901072,1.31208721660202,-2.87187867581526,-1.1746752512681,3.11240512643831,-2.2279574537471,-0.042950654756403,-1.44794746847446,9.87172110083E-5,6.7795582559E-6,4.321103607E-6,386012.131438542,3.5668E-12,954.020606209387,-1.03372762073306,-8.10828380002904,3.03323056150346
4020.0,6352233.70727774,1131697.82719306,-2022992.50137603,512882.129397118,6431637.03558865,-2023637.48442307,-4837.07061238834,2142.61909319401,5561.5331881578,-0.661206966707296,-8.2916580077817,2.60887078355288,6758664.90901071,1.31646248583812,-2.85872656540483,-1.24307249246159,3.10551251764399,-2.22201377234532,-0.0429914754875921,-1.4484285517436,9.87166169641E-5,6.7620806241E-6,4.3483827394E-6,385745.509508607,3.5381E-12,950.927225003509,-0.661206966707296,-8.2916580077817,2.60887078355288
4080.0,6394471.6953531,1414439.13802414,-1685087.13099122,221692.672362648,6545176.43384467,-1685509.65163174,-4865.4898240242,1640.57836557316,5705.03130777689,-0.285756091695857,-8.43656227904386,2.17257812553236,6758664.9090107,1.3208377550885,-2.84185479670062,-1.31143327988158,3.09491971931764,-2.21607009176633,-0.0430275030489124,-1.44891002510395,9.87160089111E-5,6.7447130485E-6,4.3756535692E-6,385549.984359747,3.5097E-12,948.173923275342,-0.285756091695857,-8.43656227904386,2.17257812553236
4140.0,6409615.42653913,1690395.5438374,-1339365.41315326,-70525.1480108764,6628355.94420103,-1339563.51143869,-4871.33743835621,1131.0139799588,5822.0443207672,0.090889931640118,-8.54235454510535,1.72637476724631,6758664.90901065,1.32521302433889,-2.81729099003752,-1.37973136934681,3.07665535017525,-2.21012641663838,-0.0430587386823921,-1.44939185341112,9.87153869107E-5,6.7274555132E-6,4.4029161307E-6,385434.671569309,3.4811E-12,945.756674854484,0.090889931640118,-8.54235454510535,1.72637476724631
4200.0,6397535.98945744,1958531.24490313,-987432.01921543,-362415.927611344,6680794.85310765,-987404.776340882,-4854.59389603155,616.287420392822,5912.03934043447,0.466992923319416,-8.60857286023023,1.27232554607122,6758664.9090107,1.32958829359213,-2.77226770926205,-1.4478816194027,3.03795304845861,-2.20418275159164,-0.0430851838471117,-1.44987400157508,9.8714751024E-5,6.7103080023E-6,4.4301704586E-6,385406.954255096,3.4515E-12,943.667419363635,0.466992923319416,-8.60857286023023,1.27232554607122
4260.0,6358221.05860219,2217847.52430832,-630919.851754694,-652626.215814951,6702254.85870836,-630667.393974286,-4815.34382517886,98.7824419178824,5974.60841438988,0.840819452413766,-8.63493700325807,0.812528519398404,6758664.90901071,1.33396356284251,-2.63176277562765,-1.51537773324274,2.90379179416034,-2.19823910125713,-0.0431068402184275,-1.45035643456145,9.87141013118E-5,6.6932705001E-6,4.4574165872E-6,385472.319441925,3.4207E-12,941.893845754527,0.840819452413766,-8.63493700325807,0.812528519398404
4320.0,6291775.21135308,2467386.28164226,-271482.499245529,-939810.753498986,6692641.07939799,-271005.996967592,-4753.7755222633,-419.105860829983,6009.47023214729,1.21064863067225,-8.62134927504093,0.349105432036501,6758664.90901068,1.33833883208147,-0.467281097556706,-1.55102227841843,0.745677748170217,-2.19229547026553,-0.0431237096872204,-1.45083911739278,9.87134378343E-5,6.6763429908E-6,4.484654551E-6,385634.231514452,3.3881E-12,940.419197117405,1.21064863067225,-8.62134927504093,0.349105432036501
4380.0,6198419.74393352,2706233.37475112,89213.3945345395,-1222638.66592922,6652002.40553975,89911.7324622568,-4670.17996799318,-934.982008879511,6016.47125892048,1.57477981203479,-8.56789449717717,-0.115807871198802,6758664.90901069,1.34271410133185,0.119819758206195,-1.48675327787356,0.164969834037394,-2.18635186324601,-0.0431357943591136,-1.4513220151498,9.87127606513E-5,6.6595254588E-6,4.5118843847E-6,385894.045411896,3.3535E-12,939.226729973821,1.57477981203479,-8.56789449717717,-0.115807871198802
4440.0,6078491.9863841,2933521.76045793,449495.811886506,-1499799.58281273,6580531.19434516,450412.748669997,-4564.9493848391,-1446.46107034478,5995.58629352065,1.9315401677477,-8.47483922028909,-0.580071048219747,6758664.90901067,1.34708937058509,0.197521520173751,-1.41886227420733,0.0936877964243383,-2.18040828482515,-0.0431430965536934,-1.45180509297274,9.87120698223E-5,6.6428178885E-6,4.5391061227E-6,386250.961405406,3.3171E-12,938.312306530501,1.9315401677477,-8.47483922028909,-0.580071048219747
4500.0,5932444.11944488,3148434.42406625,807695.058821651,-1770009.65825458,6478562.31076342,808826.344939187,-4438.57534451024,-1951.17952089379,5946.91845059901,2.27929210790863,-8.34263015269582,-1.04154883906474,6758664.90901066,1.35146463983547,0.231035590720747,-1.35068383069197,0.0666218361967876,-2.17446473962579,-0.0431456188037209,-1.45228831606248,9.87113654063E-5,6.6262202644E-6,4.5663197996E-6,386702.022436236,3.2789E-12,937.670970321892,2.27929210790863,-8.34263015269582,-1.04154883906474
4560.0,5760841.49753599,3350207.09045518,1162151.44448999,-2032017.46390904,6346571.52003303,1163491.83756202,-4291.64643544875,-2446.80598687552,5870.69856977168,2.6164405214078,-8.1718918227617,-1.49812058419431,6758664.9090107,1.35583990908586,0.25166596318435,-1.28242763404886,0.0524697089607885,-2.16852123226584,-0.043143363854339,-1.45277164968191,9.8710647462E-5,6.609732571E-6,4.59352545E-6,387242.15410511,3.2394E-12,937.293071996916,2.6164405214078,-8.1718918227617,-1.49812058419431
4620.0,5564360.48422922,3538130.7097109,1511222.90817126,-2284609.72926978,6185173.24030634,1512766.19738701,-4124.84550205063,-2931.05182558128,5767.28405640317,2.94143980738562,-7.96342349046571,-1.94768964486714,6758664.9090107,1.36021517832195,0.266817207127722,-1.21414267892693,0.0438287577152261,-2.16257776735726,-0.0431363346622685,-1.45325505915708,9.87099160475E-5,6.5933547931E-6,4.6207231086E-6,387864.246514996,3.1988E-12,937.164358882801,2.94143980738562,-7.96342349046571,-1.94768964486714
4680.0,5343785.80901502,3711553.71051765,1853292.55994586,-2526616.90379341,5995117.66646058,1855031.59493197,-3938.94646889983,-3401.68149811336,5637.1571610029,3.25280067248143,-7.71819532584863,-2.38819268976218,6758664.90901068,1.36459044757234,0.279141042688061,-1.14584613459609,0.0380493591018732,-2.15663434950482,-0.0431245343950059,-1.45373850987847,9.87091712206E-5,6.5770869153E-6,4.6479128099E-6,388559.276304883,3.1575E-12,937.265517160687,3.25280067248143,-7.71819532584863,-2.38819268976218
4740.0,5100007.4548917,3869884.01746747,2186776.1016441,-2756918.51639368,5777287.27884639,2188702.82564082,-3734.81076481073,-3856.52269145286,5480.92270631052,3.54909666930007,-7.43734387397308,-2.81760881302022,6758664.90901064,1.36896571681986,0.289822200462621,-1.07754535250979,0.0339490872855809,-2.15069098330509,-0.0431079664300219,-1.45422196730221,9.87084130387E-5,6.5609289224E-6,4.6750945887E-6,389316.466392384,3.1159E-12,937.569480456306,3.54909666930007,-7.43734387397308,-2.81760881302022
4800.0,4834017.08998885,4012590.82638878,2510129.09527777,-2974448.30877493,5532692.75329416,2512234.58246953,-3513.38336291481,-4293.47614755329,5299.30527320367,3.82897045266063,-7.1221668278842,-3.23396844989714,6758664.90901063,1.37334098605596,0.299469937025727,-1.00924382940864,0.0309212259602201,-2.14474767334525,-0.0430866343539214,-1.45470539695126,9.87076415589E-5,6.5448807993E-6,4.7022684796E-6,390123.480191856,3.0743E-12,938.041380809502,3.82897045266063,-7.1221668278842,-3.23396844989714
4860.0,4546904.05673627,4139206.13536292,2821854.04688577,-3178199.12008884,5262468.29118804,2824128.54371455,-3275.68845439959,-4710.52515862859,5093.14585856051,4.09113973131823,-6.77411713281201,-3.63536205724502,6758664.90901062,1.37771625531206,0.308430005178265,-0.940943294239744,0.0286228300953955,-2.13880442420202,-0.0430605419616432,-1.45518876441664,9.87068568375E-5,6.5289425308E-6,4.7294345173E-6,390966.646406741,3.0341E-12,938.728862169515,4.09113973131823,-6.77411713281201,-3.63536205724502
4920.0,4239850.9338923,4249326.02944314,3120507.27457119,-3367227.50149489,4967866.39082561,3122940.24484363,-3022.82477481271,-5105.74468924917,4863.39802014499,4.33440289395631,-6.3947964465197,-4.01994852705777,6758664.90901064,1.38209152455673,0.316913607393335,-0.872644572181354,0.0268458098367144,-2.13286124044056,-0.0430296932556114,-1.4556720353586,9.87060589308E-5,6.5131141021E-6,4.7565927366E-6,391831.209927554,2.997E-12,939.696628669218,4.33440289395631,-6.3947964465197,-4.01994852705777
4980.0,3914128.69040531,4342611.71585243,3404705.53046687,-3540658.04037671,4650252.08359728,3407285.7040494,-2755.96060308387,-5477.3100874018,4611.12352545886,4.55764428934126,-5.98594798229923,-4.38596330233646,6758664.9090107,1.38646679380997,0.32505743442701,-0.804347988473002,0.0254569356685171,-2.12691812661335,-0.0429940924449201,-1.45615517550782,9.87052478946E-5,6.4973954982E-6,4.7837431721E-6,392701.603907448,2.9646E-12,940.99561477026,4.55764428934126,-5.98594798229923,-4.38596330233646
5040.0,3571091.44864332,4418790.3109288,3673132.34743709,-3697687.37521169,4311096.6607428,3675847.77231766,-2476.32845459105,-5823.50534830593,4337.4875233178,4.7598391416092,-5.54944876265795,-4.73172616553958,6758664.90901071,1.39084206306035,0.33295424860606,-0.736053575650086,0.0243673066602004,-2.12097508725912,-0.042953743944473,-1.45663815066659,9.8704423784E-5,6.4817867042E-6,4.8108858586E-6,393561.737745113,2.9382E-12,942.671638425831,4.7598391416092,-5.54944876265795,-4.73172616553958
5100.0,3212170.87909088,4477655.37750216,3924544.08250038,-3837587.88340412,3951970.91856262,3927382.17998039,-2185.21949070717,-6142.73089650706,4043.75325866385,4.94005808272556,-5.08730131324679,-5.05564867089231,6758664.90901072,1.3952173322993,0.340669605893965,-0.667761188312185,0.0235156893530551,-2.11503212690178,-0.0429086523741548,-1.45712092670995,9.87035866541E-5,6.4662877054E-6,4.8380208309E-6,394395.295479363,2.919E-12,944.768451857466,4.94005808272556,-5.08730131324679,-5.05564867089231
5160.0,2838870.24836999,4519067.21429689,4157775.63023934,-3959711.02576997,3574537.9519764,4160723.2530056,-1883.97766830899,-6433.51085358522,3731.27635281887,5.09747128522585,-4.60162482806602,-5.35624119283891,6758664.9090107,1.39959260154969,0.348251541842856,-0.599470570986853,0.0228589042554528,-2.10908925004928,-0.0428588225579734,-1.45760346958684,9.87027365594E-5,6.4508984871E-6,4.8651481239E-6,395186.0389904,2.9085E-12,947.329586385192,5.09747128522585,-4.60162482806602,-5.35624119283891
5220.0,2452758.14399201,4542952.89933054,4371745.78084384,-4063490.33280049,3180545.5282244,4374789.2736576,-1573.99365371129,-6694.49976072309,3401.49867301657,5.23135217941724,-4.09464583845721,-5.6321195639383,6758664.90901064,1.40396787080293,0.355736460920868,-0.53118140071166,0.0223660230718483,-2.10314646119264,-0.0428042595231955,-1.45808574532126,9.87018735539E-5,6.4356190348E-6,4.8922677722E-6,395918.110405954,2.9077E-12,950.399613585811,5.23135217941724,-4.09464583845721,-5.6321195639383
5280.0,2055461.90181511,4549306.08924218,4565462.19891056,-4148444.01932675,2771818.07429326,4568587.46163887,-1256.69852640636,-6924.4887273734,3055.94181662183,5.34108074030563,-3.56868841986724,-5.88201127653669,6758664.90901062,1.40834314003902,0.363152872251062,-0.462893315303591,0.022014736946823,-2.09720376480477,-0.0427449684994985,-1.45856772001345,9.87009976914E-5,6.4204493338E-6,4.9193798107E-6,396576.328216226,2.9182E-12,954.024813842777,5.34108074030563,-3.56868841986724,-5.88201127653669
5340.0,1648660.76254271,4538186.57812894,4738026.00069076,-4214177.21575655,2350248.31331076,4741218.55339506,-933.557298839459,-7122.41097934785,2696.20023695428,5.42614633062096,-3.02616397185138,-6.10476122361124,6758664.90901056,1.41271840928941,0.37052385282575,-0.394605933203629,0.021789018899804,-2.09126116533951,-0.0426809549180989,-1.45904935984092,9.8700109025E-5,6.4053893697E-6,4.9464842744E-6,397146.471802849,2.9411E-12,958.252954666038,5.42614633062096,-3.02616397185138,-6.10476122361124
5400.0,1234078.78405443,4509719.62029083,4888635.90913581,-4260383.80565244,1917788.58669116,4891880.95892296,-606.062279234989,-7287.34678182424,2323.93403907655,5.48615008745295,-2.46956060827972,-6.29933695527569,6758664.90901056,1.41709367853979,0.377868733985549,-0.326318868219432,0.0216775901215919,-2.08531866723051,-0.0426122244108774,-1.45953063105964,9.86992076077E-5,6.3904391282E-6,4.9735811979E-6,397615.549372383,2.978E-12,963.131684167911,5.48615008745295,-2.46956060827972,-6.29933695527569
5460.0,813477.539865425,4464095.02088767,5016591.96783169,-4286847.86106236,1476441.900214,5019874.4771648,-275.726305201852,-7418.52771502976,1940.8614752843,5.52080684119544,-1.90143219622195,-6.4648334285896,6758664.90901054,1.42146894779017,0.385204302555267,-0.258031741133355,0.0216729058321739,-2.07937627489023,-0.0425387828095035,-1.46001150000511,9.8698293492E-5,6.375598595E-6,5.0006706163E-6,397972.044642391,3.0302E-12,968.704965233959,5.52080684119544,-1.90143219622195,-6.4648334285896
5520.0,388648.632538837,4401566.00046079,5121298.79673665,-4293444.66869769,1028252.73348513,5124603.55289603,55.9241235123997,-7515.34028271408,1548.75117134043,5.52994655673447,-1.32438708351022,-6.60047722952546,6758664.90901051,1.4258442170377,0.392545695249318,-0.189744189401668,0.0217704913796343,-2.07343399270889,-0.0424606361445528,-1.4604919330935,9.86973667299E-5,6.3608677559E-6,5.0277525643E-6,398206.138049045,3.0993E-12,975.007146477582,5.52994655673447,-1.32438708351022,-6.60047722952546
5580.0,-38593.946693142,4322447.83916126,5202268.37453416,-4280141.34177319,575297.65334779,5205580.05991321,387.355784183582,-7577.32883597108,1149.41411572612,5.51351528812077,-0.741076556513694,-6.70563024724265,6758664.90901056,1.43021948627666,0.399907100876213,-0.121455875758449,0.0219685263428424,-2.0674918250534,-0.0423777906446309,-1.46097189682265,9.8696427373E-5,6.3462465967E-6,5.054827077E-6,398309.898716219,3.1864E-12,982.05485357801,5.51351528812077,-0.741076556513694,-6.70563024724265
5640.0,-466421.58038408,4227116.30743738,5259122.33438391,-4246997.01407409,119675.772783026,5262425.59730029,717.035712769688,-7604.19779750611,744.695445331506,5.47157563934538,-0.154183071193501,-6.77979278220266,6758664.9090106,1.4345947555299,0.407302347919483,-0.0531664963118409,0.0222676154883943,-2.06154977626642,-0.042290252735472,-1.46145135777324,9.86954754725E-5,6.3317351034E-6,5.0818941891E-6,398277.443940316,3.2927E-12,989.837933959677,5.47157563934538,-0.154183071193501,-6.77979278220266
5700.0,-892998.877584382,4116005.89046288,5291593.76188939,-4194162.61459337,-336500.902345748,5294873.28758929,1043.4381982476,-7595.81317407618,336.466062072424,5.40430672530077,0.433591697968314,-6.82260607115454,6758664.90901061,1.43897002478028,0.414745434060841,0.0151242113907753,0.0226707122125487,-2.05560785066526,-0.042198029039037,-1.46193028260982,9.86945110794E-5,6.3173332621E-6,5.1089539357E-6,398105.06349215,3.419E-12,998.311893452972,5.40430672530077,0.433591697968314,-6.82260607115454
5760.0,-1316491.58286897,3989607.81418181,5299528.48619845,-4121880.22288109,-791117.195694044,5302769.06772991,1365.05175949993,-7552.20334755073,-73.3858841099269,5.31200362856614,1.0195389450716,-6.83385421363375,6758664.90901065,1.44334529401923,0.422251043271359,0.0834164598844206,0.0231831791912018,-2.04966605254094,-0.042101126372633,-1.46240863808184,9.8693534244E-5,6.3030410589E-6,5.1360063517E-6,397791.306610979,3.5656E-12,1007.39487679892,5.31200362856614,1.0195389450716,-6.83385421363375
5820.0,-1735074.5088504,3848467.88151339,5282885.85730533,-4030482.00706206,-1242064.50848413,5286072.46593653,1680.38607441176,-7473.5591378505,-482.963609539832,5.19507634931077,1.60095490838019,-6.81346548636431,6758664.90901062,1.44772056326676,0.429835092280509,0.151710402417702,0.02381298645917,-2.04372438615715,-0.0419995517479982,-1.46288639102472,9.86925450163E-5,6.2888584799E-6,5.1630514721E-6,397337.030159581,3.7322E-12,1016.97143948306,5.19507634931077,1.60095490838019,-6.81346548636431
5880.0,-2146939.45848917,3693184.12750692,5241739.00482508,-3920388.74830268,-1687250.54938199,5244856.85968486,1987.97883072689,-7360.23313391753,-890.370371301146,5.05404824736752,2.17515308543464,-6.76151303384396,6758664.90901058,1.45209583251429,0.437515350388969,0.220006122117276,0.0245710619797408,-2.03778285574926,-0.0418933123703917,-1.46336350836089,9.8691543446E-5,6.2747855114E-6,5.1900893317E-6,396745.407018646,3.9182E-12,1026.90304007448,5.05404824736752,2.17515308543464,-6.76151303384396
5940.0,-2550303.10241252,3524404.30315741,5176274.57575405,-3792107.95733499,-2124609.0022441,5179309.21237448,2286.4024682117,-7212.73829184573,-1293.71816420469,4.88955397739667,2.73947643743666,-6.67821492543434,6758664.90901065,1.45647110176467,0.445312184915157,0.28830361892857,0.0254718265785841,-2.03184146552337,-0.0417824156376911,-1.46383995710079,9.86905295822E-5,6.26082214E-6,5.2171199657E-6,396021.894417653,4.1227E-12,1037.04247106066,4.88955397739667,2.73947643743666,-6.67821492543434
6000.0,-2943414.77767439,3342823.19767481,5086791.95100892,-3646231.59047067,-2552109.08781364,5089729.28845403,2574.27078178885,-7031.74580235388,-1691.13640198348,4.70233692003349,3.29130953144692,-6.56393357147776,6758664.90901064,1.46084637101505,0.453249500602339,0.356602793280606,0.026533966933753,-2.02590021965532,-0.0416668691394587,-1.46431570434391,9.86895034738E-5,6.2469683519E-6,5.244143409E-6,395174.162525585,4.3444E-12,1047.24801515374,4.70233692003349,3.29130953144692,-6.56393357147776
6060.0,-3324564.17350172,3149179.80971432,4973701.94284313,-3483433.37435119,-2967764.97567006,4976528.34911321,2850.24535553831,-6818.08223290317,-2080.78054409168,4.49324611399327,3.82809056787498,-6.41917449332444,6758664.90901063,1.46522164025686,0.46135596838546,0.424903424953115,0.0277815313847106,-2.0199591222897,-0.0415466806560448,-1.46479071727976,9.86884651691E-5,6.2332241337E-6,5.2711596966E-6,394211.984253329,4.5819E-12,1057.39377856539,4.49324611399327,3.82809056787498,-6.41917449332444
6120.0,-3692088.87005647,2944254.37848339,4837524.97756124,-3304465.75047653,-3369645.00314892,4840227.33296934,3113.04179782674,-6572.72595293986,-2460.84062925124,4.26323269629266,4.34732323984653,-6.24458444468022,6758664.90901062,1.46959690949868,0.469666683151918,0.493205144875724,0.0292454803656159,-2.01401817753893,-0.0414218581576384,-1.46526496318891,9.86874147162E-5,6.2195894722E-6,5.2981688636E-6,393147.087844266,4.8339E-12,1067.37472398315,4.26323269629266,4.34732323984653,-6.24458444468022
6180.0,-4044381.69677205,2728865.28576793,4678888.77028695,-3110156.4523248,-3755880.65855475,4681454.52851228,3361.43574832366,-6296.80285397105,-2829.54967681436,4.01334586002263,4.84658837033175,-6.04094888437041,6758664.90901064,1.47397217874906,0.478225462532391,0.561507396376685,0.0309658976660491,-2.00807738948229,-0.04129240980335,-1.46573840944393,9.86863521626E-5,6.2060643539E-6,5.3251709449E-6,391992.974448636,5.0989E-12,1077.10698782925,4.01334586002263,4.84658837033175,-6.04094888437041
6240.0,-4379897.87695716,2503865.84051698,4498525.50087174,-2901404.72961108,-4124675.28678939,4500942.74740462,3594.26862829968,-5991.58137944402,-3185.19191710048,3.74472834147453,5.3235552724456,-5.80918880345922,6758664.90901065,1.47834744799087,0.487088119315345,0.629809380389455,0.0329951907174036,-2.00213676216499,-0.0411583439402912,-1.46621102351037,9.86852775554E-5,6.1926487657E-6,5.3521659756E-6,390764.703480156,5.3753E-12,1086.52516617631,3.74472834147453,5.3235552724456,-5.80918880345922
6300.0,-4697161.92590152,2270140.95833682,4297268.50235375,-2679177.23592793,-4474312.47651539,4299526.01005777,3810.45310638255,-5658.46688268226,-3526.11081213152,3.45861145085947,5.7759927781111,-5.55035691265255,6758664.90901063,1.4827227172384,0.496327246099333,0.698109975697987,0.0354028151698715,-1.99619629959725,-0.041019669102617,-1.46668277294774,9.86841909416E-5,6.1793426945E-6,5.3791539908E-6,389478.649135662,5.6612E-12,1095.57832774474,3.45861145085947,5.7759927781111,-5.55035691265255
6360.0,-4994774.27124654,2028603.74736673,4076048.47567714,-2444503.59765153,-4803164.08916755,4078135.75720655,4008.97825287636,-5298.99533442036,-3850.71682863824,3.15630966335891,6.20177988034162,-5.26563319903752,6758664.90901063,1.48709798648878,0.506039414437419,0.766407619255216,0.0382824234341229,-1.99025600575334,-0.040876394010612,-1.46715362541041,9.86830923674E-5,6.1661461273E-6,5.4061350255E-6,388152.232008584,5.9546E-12,1104.22601567048,3.15630966335891,6.20177988034162,-5.26563319903752
6420.0,-5271417.56433161,1780192.01368972,3835889.24665028,-2198471.68358015,-5109697.89151689,3837796.60347442,4188.91435682926,-4914.82640475385,-4157.49492585004,2.83921478978415,6.59891593477265,-4.95631986445401,6758664.90901066,1.49147325573631,0.516356357613705,0.834700120519213,0.0417630043182257,-1.98431588457074,-0.0407285275697262,-1.46762354864863,9.86819818788E-5,6.1530590511E-6,5.4331091149E-6,386803.630236095,6.2531E-12,1112.43489864523,2.83921478978415,6.59891593477265,-4.95631986445401
6480.0,-5525862.65299965,1525864.69878182,3577903.08334492,-1942222.59628403,-5392484.75507731,3579621.65114644,4349.41738126858,-4507.73594756343,-4445.01172141857,2.50878974868392,6.96553036678485,-4.62383566113647,6758664.90901065,1.49584852498669,0.527462985135808,0.902984362472321,0.0460268602602068,-1.97837593994917,-0.0405760788696431,-1.46809251050936,9.86808595214E-5,6.1400814531E-6,5.4600762939E-6,385451.475074258,6.5538E-12,1120.17627513742,2.50878974868392,6.96553036678485,-4.62383566113647
6540.0,-5756974.18745758,1266598.2616338,3303285.59430637,-1676945.40757957,-5650205.38742554,3304807.384536,4489.73303340945,-4079.60791866232,-4711.92229986572,2.16656196429958,7.29989183162825,-4.26970964368278,6758664.9090106,1.50022379422564,0.539627661819146,0.971255798947281,0.0513398537692151,-1.97243617574973,-0.0404190571833289,-1.46856047893727,9.86797253403E-5,6.1272133206E-6,5.4870365976E-6,384114.536183656,6.8536E-12,1127.4243734064,2.16656196429958,7.29989183162825,-4.26970964368278
6600.0,-5963715.83191645,1003383.01932277,3013310.2300434,-1403871.66188729,-5881656.56247281,3014628.16743137,4609.20042818333,-3632.4257620288,-4956.976629194,1.81411641730403,7.6004167764036,-3.89557435987582,6758664.90901061,1.50459906347603,0.553255743336243,1.0395075652112,0.0581049139271548,-1.966496595794,-0.0402574719660729,-1.46902742197559,9.86785793804E-5,6.1144546408E-6,5.5139900613E-6,382811.402215417,7.1489E-12,1134.15528094691,1.81411641730403,7.6004167764036,-3.89557435987582
6660.0,-6145155.05683692,737219.457963837,2709322.41228489,-1124269.672482,-6085756.81888028,2710430.36812745,4707.25532512375,-3168.26330150191,-5179.02555275339,1.45308837774504,7.86567735459305,-3.5031585063736,6758664.90901063,1.50897433272355,0.568990245202075,1.10772880361313,0.0669626790830585,-1.96055720386323,-0.0400913328545505,-1.469493307767,9.86774216858E-5,6.1018054013E-6,5.5409367199E-6,381560.162502119,7.436E-12,1140.34631657713,1.45308837774504,7.86567735459305,-3.5031585063736
6720.0,-6300467.48762269,469114.528684816,2392733.31741467,-839438.636787044,-6261551.59813975,2393626.13847329,4783.43292048463,-2689.27517821213,-5377.02632512448,1.08515585202157,8.09440864607232,-3.09427907876367,6758664.9090106,1.51334960196536,0.587916270585592,1.17590125807343,0.0789959004285377,-1.95461800369738,-0.0399206496658489,-1.46995810455458,9.86762523007E-5,6.0892655894E-6,5.5678766086E-6,380378.095765702,7.7107E-12,1145.97567636044,1.08515585202157,8.09440864607232,-3.09427907876367
6780.0,-6428940.78807688,200077.940940556,2065013.34231408,-550702.597893284,-6408217.79634134,2065686.87518524,4837.37017844602,-2197.68687676441,-5550.04766265052,0.712031778022067,8.28551513818286,-2.67083304891179,6758664.90901067,1.51772487121575,0.612019342769913,1.24399162100526,0.0961877516774946,-1.94867899899434,-0.0397454323965143,-1.47042178068261,9.86750712685E-5,6.0768351929E-6,5.5948097624E-6,379281.371746049,7.9689E-12,1151.02220739684,0.712031778022067,8.28551513818286,-2.67083304891179
6840.0,-6529978.05857719,-68881.5337272231,1727685.28254227,-259404.280389391,-6525067.70630805,1728136.39337662,4868.80768737474,-1695.78438576762,-5697.27428132822,0.335456004720177,8.43807642649881,-2.23478860589124,6758664.90901074,1.52210014046327,0.645359030186525,1.31193186304431,0.122595432250208,-1.94274019340907,-0.0395656912215923,-1.47088430459745,9.86738786325E-5,6.0645141994E-6,5.6217362167E-6,378284.771519279,8.2063E-12,1155.4651353567,0.335456004720177,8.43807642649881,-2.23478860589124
6900.0,-6603100.73107055,-336759.733502292,1382317.25435301,33101.1706345709,-6611552.3295865,1382543.84382449,4877.59102934787,-1185.90354068403,-5818.01089704184,-0.04281290547529,8.55135209737958,-1.78817600001471,6758664.90901072,1.52647540971366,0.697699809499789,1.37955795837687,0.167981008964841,-1.93680159055277,-0.0393814364936598,-1.4713456448484,9.86726744353E-5,6.0523025968E-6,5.6486560063E-6,377401.432011114,8.4188E-12,1159.28408823858,-0.04281290547529,8.55135209737958,-1.78817600001471
6960.0,-6647950.94533078,-602560.741671702,1030515.39347456,325452.517910746,-6667264.0407266,1030516.40692222,4863.67165349781,-670.419099133861,-5911.68566559004,-0.421006011508864,8.62478575824909,-1.33307803257427,6758664.90901067,1.53085067896118,0.799587021484524,1.44635137397321,0.262887350538663,-1.93086319399204,-0.0391926787418501,-1.47180577008853,9.86714587192E-5,6.0402003728E-6,5.6755691666E-6,376642.619814538,8.6024E-12,1162.46002841643,-0.421006011508864,8.62478575824909,-1.33307803257427
7020.0,-6664293.39315856,-865300.472033753,673916.364853074,616288.797651579,-6691938.58934988,673691.797541376,4827.10724619495,-151.73360070822,-5977.85304259892,-0.797352423908328,8.65800818576711,-0.871620236784662,6758664.90901066,1.53522594820014,1.10765190920706,1.50951654113508,0.563943143985616,-1.92492500724811,-0.038999428670901,-1.47226464907552,9.86702315264E-5,6.0282075156E-6,5.7024757327E-6,376017.53889706,8.7538E-12,1164.97606903307,-0.797352423908328,8.65800818576711,-0.871620236784662
7080.0,-6652016.61972418,-1124010.19188928,314179.71867045,904255.692206452,-6685456.42868101,313730.6161367,4768.06159362632,367.733935001465,-6016.19604622518,-1.17008778741436,8.65083956663072,-0.405960798083374,6758664.9090107,1.53960121745052,2.58464192522675,1.53366182828388,2.03389317920446,-1.918987033796,-0.0388016971601749,-1.47272225067243,9.86689928982E-5,6.016324013E-6,5.7293757396E-6,375533.176140587,8.87E-12,1166.81805686472,-1.17008778741436,8.65083956663072,-0.405960798083374
