time,gePosition_m_X,gePosition_m_Y,gePosition_m_Z,eiPosition_m_X,eiPosition_m_Y,eiPosition_m_Z,eiVelocity_m_s_X,eiVelocity_m_s_Y,eiVelocity_m_s_Z,eiAccel_m_s2_X,eiAccel_m_s2_Y,eiAccel_m_s2_Z,semiMajorAxis_m,gast_rad,eulerAngle_rad_Roll,eulerAngle_rad_Pitch,eulerAngle_rad_Yaw,eulerAngleWrtEi_rad_Roll,eulerAngleWrtEi_rad_Pitch,eulerAngleWrtEi_rad_Yaw,bodyAngularRateWrtEi_rad_s_Roll,bodyAngularRateWrtEi_rad_s_Pitch,bodyAngularRateWrtEi_rad_s_Yaw,altitudeMsl_m,airDensity_kg_m3,ambientTemperature_dgK,eiGravitation_m_s2_X,eiGravitation_m_s2_Y,eiGravitation_m_s2_Z
0.0,-1428622.3120664244,4163200.465251461,5136049.672040268,-4292653.410000001,955168.4699999995,5139356.569999999,109.64966299999837,-7527.726490000003,1484.521489,5.528986569357204,-1.230267887409868,-6.619549899945847,6758662.11722885,1.0233194459853856,1.1333718620180008E-16,-0.20245819323134245,-1.0625361206418758E-16,-2.4715939053549034,-0.03718896447613391,-1.4289931348885438,-2.541098841762901E-21,8.131516293641283E-20,1.3552527156068805E-20,398252.76383814117,3.1125051777514152E-12,976.2183377126014,5.528986569357204,-1.230267887409868,-6.619549899945847
60.0,-1789712.6496681145,3920255.313015761,5213136.6039791545,-4276130.763606054,501640.15063862986,5216447.9477098975,440.8995044260108,-7584.043045604897,1084.189396723085,5.508416690933042,-0.6462017022813769,-6.719712406155927,6758662.117231132,1.027694715234372,1.7252996069104846E-14,-0.13438804668532586,-4.558319984166906E-15,-2.4715939053549034,-0.03718896447613391,-1.4289931348885438,-2.541098841762901E-21,8.131516293641283E-20,1.3552527156068805E-20,398335.1614682008,3.198555110651932E-12,983.0791797564946,5.508416690933042,-0.6462017022813769,-6.719712406155927
120.0,-2144732.034177042,3662345.3121019304,5266057.240880422,-4239785.4648506045,45786.44926615791,5269357.680100528,770.1498563608073,-7605.2077588949,678.7772426996095,5.462360218418421,-0.0589893241267832,-6.788817501975405,6758662.117230327,1.0320699844833425,-9.958382820664183E-15,-0.06631179809505554,2.7816711789564765E-15,-2.4715939053549034,-0.03718896447613391,-1.4289931348885438,-2.541098841762901E-21,8.131516293641283E-20,1.3552527156068805E-20,398280.4831678068,3.307822912357512E-12,990.9653252375497,5.462360218418421,-0.0589893241267832,-6.788817501975405
180.0,-2492166.1237604707,3390599.0023339516,5294562.856726825,-4183783.2576413755,-410279.4807895619,5297837.089567908,1095.8768804299507,-7591.112907315994,270.15925433186345,5.391015098227365,0.5286657408434533,-6.826529477989911,6758662.117230273,1.0364452537322815,-1.4044343286478462E-14,0.0017710140290377663,2.969851248326473E-15,-2.4715939053549034,-0.03718896447613391,-1.4289931348885438,-2.541098841762901E-21,8.131516293641283E-20,1.3552527156068805E-20,398085.3786745361,3.4371444971304578E-12,999.5338718179668,5.391015098227365,0.5286657408434533,-6.826529477989911
240.0,-2830524.9335479126,3106195.851592403,5298517.626972643,-4108380.89026452,-864442.894077885,5301750.470798644,1416.5720940027975,-7541.813194297484,-139.77448384789935,5.294695095673183,1.1140548245196953,-6.832655726429778,6758662.117230166,1.0408205229812044,-2.6877447526025875E-14,0.06986082100323111,4.09004636265611E-15,-2.4715939053549034,-0.03718896447613391,-1.4289931348885438,-2.541098841762901E-21,8.131516293641283E-20,1.3552527156068805E-20,397748.7681040413,3.586747472672089E-12,1008.6977258441461,5.294695095673183,1.1140548245196953,-6.832655726429778
300.0,-3158349.2713371646,2810361.125337631,5277899.322075947,-4013924.9861688134,-1314597.2005751184,5281075.7837948585,1730.7492879000874,-7457.525693773901,-549.1266557876678,5.173828662828589,1.6944762794138881,-6.807147954911647,6758662.117229892,1.0451957922300796,-2.9591035965372187E-14,0.13795802196364781,3.852999474657836E-17,-2.4715939053549034,-0.03718896447613391,-1.4289931348885438,-2.541098841762901E-21,8.131516293641283E-20,1.3552527156068805E-20,397271.8837139019,3.756369397667319E-12,1018.3373329768563,5.173828662828589,1.6944762794138881,-6.807147954911647
360.0,-3474217.0881774067,2504360.5974082234,5232799.4820043035,-3900850.5020308536,-1758653.6879505129,5235904.827550152,2036.9513609450394,-7338.629062559707,-956.0013936457733,5.02895729882166,2.267247692654182,-6.750102774955212,6758662.117229965,1.049571061478955,-3.1644696213159195E-14,0.20606298200293635,-5.362726856015889E-15,-2.4715939053549034,-0.03718896447613391,-1.4289931348885438,-2.541098841762901E-21,8.131516293641283E-20,1.3552527156068805E-20,396658.2718158577,3.945309902314007E-12,1028.3119930956166,5.02895729882166,2.267247692654182,-6.750102774955212
420.0,-3776749.7162128375,2189495.124272135,5163423.069595495,-3769678.7790012504,-2194551.1745933644,5166442.892261047,2333.757040930919,-7185.662020198138,-1358.5129738366172,4.860733403791901,2.8297180810463916,-6.661761655949354,6758662.117229895,1.0539463307277828,-4.9591916719074106E-14,0.2741760304594593,1.848884685820132E-15,-2.4715939053549034,-0.03718896447613391,-1.4289931348885438,-2.541098841762901E-21,8.131516293641283E-20,1.3552527156068805E-20,395913.7546336119,4.152540832715E-12,1038.474521348729,4.860733403791901,2.8297180810463916,-6.661761655949354
480.0,-4064617.9662820166,1867095.1053849661,5070087.602939373,-3621015.194859169,-2620265.5495142452,5073007.890244446,2619.7874617104353,-6999.321098961768,-1754.794491094377,4.669917629713851,3.379280015610189,-6.542510237450519,6758662.117230797,1.0583215999766105,-3.2588240658936516E-14,0.34229745936704653,5.3589387611610105E-15,-2.4715939053549034,-0.03718896447613391,-1.4289931348885438,-2.541098841762901E-21,8.131516293641283E-20,1.3552527156068805E-20,395046.35253467853,4.3768301012341495E-12,1048.6850097064514,4.669917629713851,3.379280015610189,-6.542510237450519
540.0,-4336548.058000939,1538514.8526904457,4953221.769247916,-3455546.4266095464,-3033819.1554882424,4956028.96803387,2893.7125663687293,-6780.457669807801,-2143.006471899927,4.457375733401277,3.9133816229664693,-6.392876995092986,6758662.117230922,1.0626968692254064,-2.869543199255647E-14,0.41042752207305905,-6.629008023596904E-15,-2.4715939053549034,-0.03718896447613391,-1.4289931348885438,-2.541098841762901E-21,8.131516293641283E-20,1.3552527156068805E-20,394066.1676851684,4.616835058273217E-12,1058.820400025268,4.457375733401277,3.9133816229664693,-6.392876995092986
600.0,-4591327.35540523,1205126.8926103525,4813363.525015689,-3274037.3348501767,-3433289.972250808,4816044.60446389,3154.2573068234556,-6530.074253283031,-2521.345388409808,4.224074939183514,4.429538410073858,-6.213531257925263,6758662.117231012,1.0670721384741706,-3.164361242387607E-14,0.47856643203139754,-1.3648652987175793E-14,-2.4715939053549034,-0.03718896447613391,-1.4289931348885438,-2.541098841762901E-21,8.131516293641283E-20,1.3552527156068805E-20,392985.2308096433,4.871141023708183E-12,1068.778739093642,4.224074939183514,4.429538410073858,-6.213531257925263
660.0,-4827809.8817047225,868316.2240864286,4651157.689593122,-3077327.482999257,-3816820.557193752,4653700.201873704,3400.2076107142097,-6249.320127594866,-2888.052033974561,3.9710798210545537,4.925344858157875,-6.005280577706597,6758662.117231151,1.0714474077229348,-4.0484591448106096E-14,0.5467143617768979,-2.6423831456799576E-14,-2.4715939053549034,-0.03718896447613391,-1.4289931348885438,-2.541098841762901E-21,8.131516293641283E-20,1.3552527156068805E-20,391817.31334439554,5.138245091776412E-12,1078.478937538864,3.9710798210545537,4.925344858157875,-6.005280577706597
720.0,-5044921.587302985,529474.5563799139,4467353.041636347,-2866327.306205034,-4182626.7018392696,4469745.179903598,3630.416087103632,-5939.486249336462,-3241.4197214502065,3.6995477164536172,5.398485731224626,-5.7690674535474935,6758662.117231275,1.075822676973096,-3.615353952758268E-14,0.6148714420862901,-2.240907830680524E-14,-2.4715939053549034,-0.03718896447613391,-1.4289931348885438,-2.541098841762901E-21,8.131516293641283E-20,1.3552527156068805E-20,390577.70788196335,5.416501707056846E-12,1087.8577812111046,3.6995477164536172,5.398485731224626,-5.7690674535474935
780.0,-5241665.345970095,189994.5503270488,4262798.9302105615,-2642013.946443786,-4529005.763398505,4265029.583672515,3843.8074433131505,-5601.9995056314265,-3579.8022658018526,3.4107236862909187,5.846747044376375,-5.505965418291503,6758662.117231064,1.0801979462217968,-4.594565213890562E-14,0.6830377613303953,-2.1487822515119017E-14,-2.4715939053549034,-0.03718896447613391,-1.4289931348885438,-2.541098841762901E-21,8.131516293641283E-20,1.3552527156068805E-20,389282.98037794937,5.704051465499471E-12,1096.865897144425,3.4107236862909187,5.846747044376375,-5.505965418291503
840.0,-5417125.65489492,-148735.91315476183,4038441.4146203604,-2405426.7719432428,-4854344.63194421,4040500.220422806,4039.3835861693274,-5238.416319755684,-3901.6217129717684,3.105935038334389,6.268026637254761,-5.21717449617923,6758662.117231229,1.0845732154704657,-4.610350955219106E-14,0.7512133650213014,-1.2731632271311408E-14,-2.4715939053549034,-0.03718896447613391,-1.4289931348885438,-2.541098841762901E-21,8.131516293641283E-20,1.3552527156068805E-20,387950.69813479076,5.9987517336294214E-12,1105.4638399706928,3.105935038334389,6.268026637254761,-5.21717449617923
900.0,-5570473.015367546,-485339.4139019548,3795318.949301266,-2157662.600643391,-5157127.295149927,3797196.340980321,4216.22838203887,-4850.415635554101,-4205.375777657795,2.7865854336166915,6.6603442983563035,-4.90401604458601,6758662.117231321,1.0889484847191346,-5.822213597001452E-14,0.81939825555739,-3.118970394971884E-14,-2.4715939053549034,-0.03718896447613391,-1.4289931348885438,-2.541098841762901E-21,8.131516293641283E-20,1.3552527156068805E-20,386599.1380801316,6.2981220326851915E-12,1113.6188774203783,2.7865854336166915,6.6603442983563035,-4.90401604458601
960.0,-5700967.971921227,-818454.599270023,3534557.6323235417,-1899870.6489034924,-5435941.964163894,3536244.884596014,4373.512051288742,-4439.791309213723,-4489.644953513343,2.454148598081066,7.021851386725917,-4.567926995983338,6758662.117231127,1.0933237539677718,-6.621439783082424E-14,0.8875923921681669,-4.2582101128255815E-14,-2.4715939053549034,-0.03718896447613391,-1.4289931348885438,-2.541098841762901E-21,8.131516293641283E-20,1.3552527156068805E-20,385246.9803012615,6.599311924659556E-12,1121.3026278464963,2.454148598081066,7.021851386725917,-4.567926995983338
1020.0,-5807964.793110344,-1146741.6967861357,3257366.0384000195,-1633247.22738062,-5689487.730943139,3258855.3080767537,4510.495244798157,-4008.444434817376,-4753.099241712494,2.1101651902382454,7.350815159756829,-4.210452582772686,6758662.632556378,1.0976990232163775,2.067216654944538E-5,0.9557971974580116,1.1342258968846556E-6,-2.471574105714551,-0.03718973851724589,-1.428994584009945,1.9746007983315527E-6,1.5059917257497541E-7,6.543999797661644E-8,383912.99625218293,6.8990949544734205E-12,1128.4894696762071,2.110161659506247,7.350839891718076,-4.2104535123018465
1080.0,-5890914.811342854,-1468887.9358583698,2965029.660928785,-1359030.2017237886,-5916580.769000004,2966314.0237503946,4626.532567606359,-3558.374157538206,-4994.504516796428,1.7562216324744442,7.645726066556461,-3.8332430841509986,6758664.079408621,1.1020742924649671,3.3314267360547877E-4,1.0240321246537376,2.0147965958915183E-5,-2.4712771108867466,-0.03720134386894943,-1.4290163231105262,7.898329145710597E-6,6.023330436042006E-7,2.618312091964484E-7,382615.7770629548,7.193885344904511E-12,1135.1555554814133,1.756218102281622,7.645750798583775,-3.8332440139700914
1140.0,-5949369.232563215,-1783612.7354499872,2658904.980177183,-1078493.2730068904,-6116159.839583941,2659978.4634052333,4721.075533415439,-3091.6670098965833,-5212.728501889082,1.3939640952330408,7.905157290288969,-3.438040991364703,6758665.372388365,1.1064495617135248,0.0010294558791747494,1.092303009346319,6.974820833451726E-5,-2.4706237208189936,-0.03722684088824105,-1.4290641641620994,1.3822057478441305E-5,1.0538581909626472E-6,4.5848762929749984E-7,381373.3331282272,7.479797676313104E-12,1141.2782245232022,1.3939605662267787,7.905182022461666,-3.4380419218207807
1200.0,-5982981.634754185,-2089672.8049234448,2340413.194718397,-792940.0629964926,-6287291.361797761,2341270.80531339,4793.675640308236,-2610.4897508901363,-5406.746140500155,1.0250767446250337,8.12787078715893,-3.0266767574949114,6758666.505380564,1.110824830962067,0.0021255368718441606,1.1606095963471648,1.6462164417642988E-4,-2.469613932265276,-0.03726615135351644,-1.4291381409052226,1.9745785744286498E-5,1.5050183452114352E-6,6.556081406043756E-7,380202.7983077469,7.75272275287039E-12,1146.8356773717733,1.0250732174535537,8.127895519556393,-3.0266776889330687
1260.0,-5991510.031354441,-2385867.0579920234,2011033.6396188238,-503698.0506851657,-6429173.88743581,2011671.3878664265,4843.986486000625,-2117.0783406122873,-5575.644604606988,0.6512774098929819,8.312798893751275,-2.6010594421010538,6758667.473008472,1.115200100210593,0.003649513311095984,1.2289515644921474,3.3168581692239054E-4,-2.4682477402274414,-0.037319154311789136,-1.4292383052729367,2.5669513823574652E-5,1.955657683334456E-6,8.533915866659186E-7,379120.1495691317,8.008425632677462E-12,1151.8067586604327,0.6512738852057947,8.312823626453001,-2.6010603748633634
1320.0,-5974818.474307139,-2671041.311613124,1672296.9211402284,-212112.3905225806,-6541141.94289791,1672711.8396094078,4871.76554700739,-1613.727546139304,-5718.62774831685,0.2743095308375053,8.459049902338174,-2.1631678850774896,6758668.270660141,1.1195753694590873,0.005657017941984897,1.2973285235331022,6.253742973995471E-4,-2.4665251379788713,-0.037385685995788086,-1.4293647271185856,3.1593241500434654E-5,2.4056210200252877E-6,1.0520367557012716E-6,378139.9307473278,8.242661351215361E-12,1156.1706673067977,0.27430600928585563,8.459074635423807,-2.1631688195019314
1380.0,-5932878.202036526,-2944092.7625218662,1325777.8004460884,80460.36150001676,-6622669.237912169,1325967.9581832336,4876.8754693155615,-1102.7802374487774,-5835.020020025991,-0.10406606607663789,8.565912811920612,-1.7150414896874393,6758668.894511921,1.123950638707566,0.008277131820474744,1.3657400030882259,0.00117356328034969,-2.464446117096948,-0.03746553971275484,-1.429517493847642,3.751696843417366E-5,2.8547539989354365E-6,1.2517423641143803E-6,377275.0013676515,8.451313388129054E-12,1159.9071054616506,-0.10406958383933586,8.565937545469978,-1.715042426106826
1440.0,-5865768.323401661,-3203974.223475682,973087.8594570465,372658.5843179756,-6673371.22396922,973052.3713425141,4859.284861492142,-586.616423852102,-5924.269810909617,-0.48207952249959785,8.632861221492627,-1.2587706579058493,6758669.341549228,1.1283259079560126,0.011896510512203737,1.4341854054533767,0.002361680855319467,-2.46201066680591,-0.03755846573247033,-1.4296967100044162,4.3440694130842815E-5,3.302903283872805E-6,1.4527070400969086E-6,376536.31556330976,8.630558329043403E-12,1162.9972489678548,-0.4820830358173351,8.632885955585778,-1.2587715966467523
1500.0,-5773676.030781381,-3449698.1023725634,615867.9832531146,663121.9607495497,-6693006.9884646125,615607.0144695434,4819.068583623902,-67.64208330616688,-5985.95222024217,-0.8579603918651396,8.659556336293685,-0.7964869240680168,6758669.609583073,1.1327011772044275,0.018454331916316912,1.5026636666887419,0.006127639040577772,-2.459218774372859,-0.037664171109333164,-1.4299024966855283,4.9364417915029545E-5,3.749916749937383E-6,1.6551293073406578E-6,375932.73558196455,8.777025656251934E-12,1165.4245198249366,-0.8579639000789012,8.659581071010923,-0.7964878654496853
1560.0,-5656896.337604618,-3680340.108578309,255780.69450201245,950497.848556152,-6681480.473730637,255295.460086978,4756.4075280511215,451.72216141296497,-6019.771220896391,-1.229946128641597,8.645849062479382,-0.3303528354566014,6758669.697261772,1.1370764464528427,2.2128456671658507,1.5701471107393727,2.1973651920378994,-2.456070428844201,-0.037782319358747096,-1.430134990610173,5.528813890192013E-5,4.1956436745845314E-6,1.8592075688797596E-6,375470.88370679325,8.887942144530364E-12,1167.1751459324455,-1.2299496310889748,8.645873797901292,-0.33035377978987474
1620.0,-5515831.337870646,-3895042.6720518554,-105497.62369404963,1233447.6230583694,-6638841.013425051,-106204.8642149381,4671.58789048456,969.0524643659833,-6025.561211355017,-1.5962905788224337,8.591781170588947,0.13744836918393227,6758669.604079369,1.1414517157012258,-3.1320061532582777,1.5018683034273173,3.132181587035367,-2.452565615366783,-0.037912530461334894,-1.4303943437885653,6.121185596967376E-5,4.639934928603887E-6,2.065140091083279E-6,375155.03565823764,8.961253023927324E-12,1168.2385915470059,-1.5962940748372463,8.591805906796433,0.13744742159771256
1680.0,-5350988.9874734655,-4093018.06217908,-466284.5794161477,1510652.96075571,-6565283.182091958,-467210.53229598724,4564.999932781929,1481.9332196054804,-6003.287943693655,-1.955272426574795,8.49758551344464,0.6047232301655217,6758669.330382409,1.1458269849495775,-3.1244356188272078,1.4332933107161123,3.1358702411295964,-2.4487043177464436,-0.03805438053909107,-1.430680722486861,6.713556773214495E-5,5.082643167002919E-6,2.273124987819248E-6,374987.05768836907,8.995712426715775E-12,1168.6078988794138,-1.9552759154867339,8.497610250518951,0.6047222790356079
1740.0,-5162981.409445727,-4273551.194619025,-824899.6603567175,1780822.0335558301,-6461145.957112076,-826040.0127505151,4437.136241377461,1987.968508802051,-5953.048820224212,-2.3052035515412452,8.363685289608705,1.0692786316566683,6758668.877367382,1.1502022541979289,-3.119033362742823,1.3646868954288385,3.1370242419688115,-2.4444865184664053,-0.03820740160963632,-1.4309943062819517,7.30592725119978E-5,5.523623019782789E-6,2.4833602048106413E-6,374966.3886648968,8.99093741018084E-12,1168.2799675152603,-2.3052070326755456,8.36371002763145,1.0692776767040084
1800.0,-4952522.727563131,-4436002.11591545,-1179672.1210652713,2042695.583540309,-6326911.195696339,-1181021.5609427195,4288.589488094345,2484.7934759504724,-5875.072554824297,-2.644437251193708,8.1906923492053,1.5289324046726993,6758668.247079435,1.154577523446217,-3.1139043816130334,1.2960503818797975,3.1375368786663334,-2.4399121980811365,-0.03837108134596537,-1.431335287066648,7.89829683142507E-5,5.962731282598717E-6,2.6960435042045775E-6,375090.0674910313,8.947422368072524E-12,1167.2557907650075,-2.6444407238708414,8.190717088258488,1.5289314456310452
1860.0,-4720426.435078052,-4579808.157125299,-1528948.830881184,2295052.8486805037,-6163201.433020333,-1530501.0716388365,4120.049702799246,2970.085571747209,-5769.718198362664,-2.971376282886803,7.9794045447525,1.981523911213886,6758667.442402334,1.1589527926945367,-3.108667102944816,1.2273847469443968,3.137787862243117,-2.4349813378429093,-0.038544862717307914,-1.4317038677129084,8.49066528002815E-5,6.3998271072902565E-6,2.9113724493755872E-6,375352.80524102,8.866513550854818E-12,1165.540662758957,-2.971379746422205,7.979429284918541,1.9815229478309102
1920.0,-4467602.307663984,-4704485.749268607,-1871102.0444911197,2536717.31056544,-5970777.0110346135,-1872849.8541508922,3932.301070063822,3441.5756105676705,-5637.473531084225,-3.284480680850223,7.730802135572344,2.424924551973127,6758666.467050204,1.163328061942793,-3.103193282137028,1.1586909492383124,3.1379034018817076,-2.4296939170508716,-0.03872814379827465,-1.4321002610356697,9.083032326233743E-5,6.834772192275371E-6,3.129544389983243E-6,375747.10044389474,8.75034635467897E-12,1163.1443660894518,-3.284484134554048,7.730826876934074,2.4249235840115437
1980.0,-4195052.871953946,-4809631.894971814,-2204537.057322547,2766562.236013229,-5750532.550888679,-2206472.2921810676,3726.2182646563365,3897.0585836638083,-5478.952828264699,-3.582275304307012,7.4460432603147675,2.8570481399281498,6758665.325547149,1.1677033311910492,-3.0974271093091157,1.0899699751215584,3.137937072129519,-2.4240499139163374,-0.03892027745460541,-1.4325246883943574,9.675397659858619E-5,7.267430972794093E-6,3.350756447307632E-6,376263.3950396657,8.6017506752382E-12,1160.081346748999,-3.5822787474839175,7.446068002955455,2.8570471671668445
2040.0,-3903869.426151671,-4894925.282039611,-2527699.709246457,2983515.9826534153,-5503492.765466208,-2529813.3518166286,3502.7622055080183,4334.405163390397,-5294.89404761478,-3.8633605318649367,7.126483270452209,3.275860130536685,6758664.909025889,1.1720786004407024,-3.091414085584982,1.0212287242545972,3.1379207163854437,-2.418128523317055,-0.03911780131310042,-1.4329714217026743,9.872843380802224E-5,7.397050676908266E-6,3.443583053285667E-6,376890.2506538035,8.424134056620536E-12,1156.3708784491778,-3.8633605318649367,7.126483270452209,3.275860130536685
2100.0,-3595227.6410286333,-4960127.044619163,-2839083.6992792445,3186567.0444096103,-5230807.646332384,-2841365.900345313,3262.975864038988,4751.56939333264,-5086.155272943562,-4.1264054424254555,6.773569436730831,3.679391505562777,6758664.909025992,1.176453869688895,-3.085382338398156,0.9524871596175527,3.137883641201675,-2.4121871865795805,-0.03931132322682444,-1.4334212105930253,9.872832302547634E-5,7.376042465562956E-6,3.471145885651679E-6,377614.5584538418,8.221348495436776E-12,1152.0372214307872,-4.1264054424254555,6.773569436730831,3.679391505562777
2160.0,-3270382.8758088364,-5005081.2393973665,-3137237.670220534,3374768.830614074,-4933747.181549735,-3139677.794817117,3007.9791246320706,5146.599924581638,-4853.710730663829,-4.370174793843894,6.388982076761599,4.06574241033407,6758664.909026024,1.180829138937088,-3.079345816995914,0.8837474199163581,3.137830594367737,-2.406245710572469,-0.03950013101204573,-1.433872534827433,9.872819604465937E-5,7.355144852006289E-6,3.4986993286926355E-6,378421.8852277499,7.997535503307401E-12,1147.1097911303218,-4.370174793843894,6.388982076761599,4.06574241033407
2220.0,-2930664.9803441544,-5029714.889483666,-3420772.040262128,3547244.115845443,-4613695.343529041,-3423358.7173486124,2738.963408694719,5517.649807412792,-4598.6462027147745,-4.593521387940294,5.97452770258245,4.433095375784358,6758664.909025786,1.1852044081852489,-3.073301378680025,0.8150101722773064,3.137763348458772,-2.4003040992483244,-0.039684218602766046,-1.4343253582414133,9.872805294053514E-5,7.334357818489591E-6,3.526243415849143E-6,379296.70067990833,7.756993140878274E-12,1141.623299423171,-4.593521387940294,5.97452770258245,4.433095375784358
2280.0,-2577472.7849711636,-5034037.706877045,-3688365.539947977,3703189.1674716715,-4272143.58326616,-3691086.7155460943,2457.1860834268923,5862.984794009878,-4322.153853909332,-4.795395123655543,5.532155010255112,4.7797232159231555,6758664.909025796,1.1895796774333782,-3.0672465822903274,0.746276085649446,3.1376828085034063,-2.394362356593064,-0.03986358017753737,-1.434779644682862,9.872789378764202E-5,7.313681347310029E-6,3.5537781805996043E-6,380222.6692489873,7.504045198732123E-12,1135.6178867234462,-4.795395123655543,5.532155010255112,4.7797232159231555
2340.0,-2212268.263457186,-5018141.474004649,-3938771.424310272,3841877.5244811787,-3910683.817882924,-3941614.417852611,2163.9644801217296,6180.991588416796,-4025.5265603341795,-4.97484810820248,5.063945393678367,5.103997434839034,6758664.90902566,1.1939549466814758,-3.061179372904951,0.6775458279394033,3.137589303246002,-2.3884204866336143,-0.040038210148401206,-1.4352353580094763,9.87277186600929E-5,7.293115420811448E-6,3.581303656459825E-6,381182.9582398521,7.242924396443348E-12,1129.1392203191854,-4.97484810820248,5.063945393678367,5.103997434839034
2400.0,-1836570.3903008767,-4982199.087366479,-4170823.3301399085,3962663.408518437,-3531000.9406573386,-4173774.8937611245,1860.6696212898244,6470.185506871202,-3710.151748215588,-5.13103924741492,4.572102785773993,5.404396130069077,6758664.9090258805,1.1983302159295892,-3.0550978941183042,0.608820063141373,3.1374827441683446,-2.3824784934338323,-0.040208103163838625,-1.4356924620915947,9.872752763157591E-5,7.272660021384959E-6,3.6088198769824843E-6,382160.55184079503,6.9776737906835846E-12,1122.2385222695973,-5.13103924741492,4.572102785773993,5.404396130069077
2460.0,-1451948.7195139157,-4926463.27043474,-4383440.749967886,4064984.750609549,-3134864.8900988284,-4386487.130456119,1548.7196886159527,6729.21750982765,-3377.5047747766193,-5.263238290449954,4.058942883483439,5.679511349242,6758664.9090258395,1.2027054851776549,-3.0490003667379235,0.5400994485045837,3.137362712399478,-2.3765363810933637,-0.04037325410836717,-1.4361509208136405,9.872732077535358E-5,7.252315131469964E-6,3.6363268757567862E-6,383138.5650350465,6.71206770228729E-12,1114.9724644877233,-5.263238290449954,4.058942883483439,5.679511349242
2520.0,-1060016.713466792,-4851264.964417038,-4575634.096297247,4148365.819022343,-2724122.316838926,-4578761.099410443,1229.573265146035,6956.880570494072,-3029.141885097013,-5.370829307483348,3.526881816776712,5.928055860433704,6758664.909025735,1.207080754425705,-3.042885002912635,0.47138463175717604,3.1372285031737146,-2.370594153746473,-0.0405336581018694,-1.436610698075682,9.872709816426467E-5,7.2320807335546355E-6,3.6638246864079357E-6,384100.55153224815,6.44955129038468E-12,1107.4028336864744,-5.370829307483348,3.526881816776712,5.928055860433704
2580.0,-662424.8516807163,-4757011.406903862,-4746509.331734706,4212419.435744519,-2300687.8891120926,-4749702.388575213,904.7223862754925,7152.115348407499,-2666.69278124349,-5.453313582660903,2.978424325150546,6.148869300484602,6758664.909025568,1.211456023673723,-3.0367499387951375,0.40267624840841426,3.1370791430393745,-2.364651815560896,-0.040689310499091885,-1.4370717577947345,9.872685987072431E-5,7.211956810176881E-6,3.6913133425967555E-6,385030.80007834843,6.193196039378357E-12,1099.5958310763883,-5.453313582660903,2.978424325150546,6.148869300484602
2640.0,-260853.55059165746,-4644183.909762471,-4895272.142907279,4256848.771172906,-1866535.2793692613,-4898516.378038411,575.6854350616818,7314.0151404743765,-2291.8528419648515,-5.510311908313173,2.416151507858518,6.3409236695845435,6758664.909025128,1.2158312929217412,-3.0305931757329985,0.33397491915101196,3.136913387640241,-2.3587093707367095,-0.0408402068891359,-1.437534063906365,9.872660596672294E-5,7.191943343924953E-6,3.718792878019293E-6,385914.6138309493,5.94566722095407E-12,1091.6208468126224,-5.510311908313173,2.416151507858518,6.3409236695845435
2700.0,142994.0737100315,-4513335.348903009,-5021231.638400006,4281448.708755672,-1423687.8761036112,-5024511.939380062,243.99991811019947,7441.830085944633,-1906.3750330209964,-5.541566270250986,1.8427082163677182,6.503328144700392,6758664.909025293,1.2202065621697118,-3.02441252340731,0.2652812473879635,3.1367297038129505,-2.352766823505099,-0.040986343094778256,-1.4379975803660667,9.872633652382881E-5,7.172040317438212E-6,3.746263326406264E-6,386738.56789715047,5.7091992884839095E-12,1083.5485662335464,-5.541566270250986,1.8427082163677182,6.503328144700392
2760.0,547399.5669493977,-4365087.379726816,-5123803.5533987135,4286106.77352171,-974209.2662552188,-5127104.641401594,-88.78484122147677,7534.970605950406,-1512.0615497270069,-5.546940917812991,1.260790159238964,6.635333188849067,6758664.9090252165,1.2245818314176822,-3.0182055399626697,0.1965958169094919,3.1365262372381864,-2.3468241781273256,-0.04112771517204117,-1.4384622711507442,9.872605161318591E-5,7.152247713407958E-6,3.773724721522708E-6,387490.740611775,5.485576587547263E-12,1075.448361775624,-5.546940917812991,1.260790159238964,6.635333188849067
2820.0,950636.5889058921,-4200127.393165168,-5202512.946256314,4270803.620647757,-520193.5345944506,-5205819.447443003,-421.1150552938267,7593.010062493947,-1110.7552345383338,-5.52642281618053,0.673130790775237,6.736333937757087,6758664.909025171,1.228957100665621,-3.011969464749902,0.12791918974978747,3.136300765103882,-2.340881438893414,-0.041264319409463936,-1.4389281002601473,9.87257513055172E-5,7.132565514577994E-6,3.8011770971675507E-6,388160.91467580054,5.276119812268013E-12,1067.3851267388275,-5.52642281618053,0.673130790775237,6.736333937757087
2880.0,1350978.422516086,-4019205.228216082,-5256996.374796839,4235613.082432987,-63755.42726440718,-5260292.892099021,-751.4398332859363,7615.686626063424,-704.3308134725604,-5.480121482288286,0.0824880553923159,6.80587285006723,6758664.909024776,1.2333323699135281,-3.005701139172396,0.05925190425760126,3.136050631714862,-2.3349386101211205,-0.04139615232759023,-1.4393950317182906,9.872543567112269E-5,7.112993703745459E-6,3.828620487173168E-6,388740.74485520594,5.081682522806006E-12,1059.4159886459042,-5.480121482288286,0.0824880553923159,6.80587285006723
2940.0,1746705.5056634247,-3823129.6577924425,-5287003.542821479,4180701.774270785,392979.572819583,-5290274.727797186,-1078.218514075997,7602.904345384915,-294.6859958540519,-5.408268209391143,-0.5083689402817962,6.843641611887372,6758664.909024598,1.2377076391614352,-2.9993969103953546,-0.009405526577972131,3.13577266340486,-2.328995696154626,-0.04152321067841737,-1.4398630295748946,9.872510477987976E-5,7.0935322637615425E-6,3.856054925404879E-6,389223.8895604877,4.902664829723964E-12,1051.5875888174937,-5.408268209391143,-0.5083689402817962,6.843641611887372
3000.0,2136112.9513751813,-3612764.6654961514,-5292398.40995912,4106328.2624064344,847885.2107541685,-5295629.034380584,-1399.9279344638528,7554.733417122181,116.2675177187234,-5.311214688979048,-1.0966732560456716,6.849482291097512,6758664.909024392,1.2420829084093103,-2.993052511311865,-0.07805261649486857,3.1354630572111004,-2.3230527013635256,-0.041645491444624747,-1.4403320579068144,9.872475870124541E-5,7.0741811775322575E-6,3.8834804457606714E-6,389606.10426653235,4.739050647277199E-12,1043.9346579170497,-5.311214688979048,-1.0966732560456716,6.849482291097512
3060.0,2517518.0222229334,-3389025.5316319196,-5273159.760706714,4012841.7984391013,1298844.4166539805,-5276334.787542731,-1715.0695969247854,7471.409657602877,526.6130741446017,-5.189431042207254,-1.6796733769578303,6.823387741376418,6758664.90902452,1.246458177657154,-2.9866629079902136,-0.14668890695285117,3.135117235265613,-2.3171096301415686,-0.04176299183911992,-1.44080208081954,9.872439750425499E-5,7.054940428018966E-6,3.910897082170562E-6,389885.2953948006,4.590469698375522E-12,1036.4803363765288,-5.189431042207254,-1.6796733769578303,6.823387741376418
3120.0,2889267.5249746037,-3152874.7473613047,-5229381.231198235,3900680.627648292,1743759.207168485,-5232485.884656958,-2022.1767019135623,7353.333182839734,934.4381084240276,-5.043503276334687,-2.254646333297813,6.76550126036667,6758664.909024508,1.2508334469049975,-2.9802221025382356,-0.21531396766697822,3.1347296533469566,-2.3111664869053934,-0.04187570930438988,-1.441273062448358,9.872402125752176E-5,7.035809998239289E-6,3.938304868596481E-6,390061.53394055064,4.456277713819512E-12,1029.2381566273946,-5.043503276334687,-2.254646333297813,6.76550126036667
3180.0,3249745.091966353,-2905317.776384587,-5161270.794925888,3770369.880298672,2180560.4842978492,-5164290.629229331,-2319.8210107631608,7201.066307204175,1337.843141584665,-4.874130184777999,-2.818910614522613,6.67611551068801,6758664.9090245785,1.2552087161527934,-2.973722874365799,-0.28392739655954413,3.134293546933676,-2.305223276093588,-0.04198364151179462,-1.4417449669601083,9.872363002924225E-5,7.016789871267672E-6,3.965703839031431E-6,390137.02880074375,4.33564227921709E-12,1022.2150858738876,-4.874130184777999,-2.818910614522613,6.67611551068801
3240.0,3597378.3162449785,-2647398.683908971,-5069149.711285033,3622519.057073947,2607217.6850368017,-5072070.677853477,-2606.6195064261037,7015.330675069131,1734.9506920643146,-4.682119712298382,-3.369838812448951,6.555670716645067,6758664.909024248,1.2595839854005895,-2.9671564353030933,-0.35252881895954963,3.133800590481476,-2.299280002165278,-0.04208678636096999,-1.4422177585543763,9.872322388718894E-5,6.997880030236154E-6,3.993094027499452E-6,390116.06041653606,4.227620924482594E-12,1015.4147936317025,-4.682119712298382,-3.369838812448951,6.555670716645067
3300.0,3930645.708281555,-2380195.6529301,-4953450.94342447,3457819.1217204905,3021748.2363504255,-4956259.456157389,-2881.2408206788577,6797.00364354129,2123.914057576326,-4.468384809494416,-3.9048699316309214,6.4047521533710015,6758664.909023586,1.2639592546483536,-2.9605119624382943,-0.42111788580296605,3.133240433980822,-2.293336669599146,-0.0421851419792164,-1.4426914014649366,9.872280289871577E-5,6.979080458335059E-6,4.020475468054923E-6,390004.8760062166,4.131222211026887E-12,1008.8404278188789,-4.468384809494416,-3.9048699316309214,6.4047521533710015
3360.0,4248083.442945986,-2104816.408014287,-4814717.054422537,3277039.2158141695,3422226.771180945,-4817400.0527726235,-3142.411397934507,6547.113938037583,2502.925925598835,-4.23393880320143,-4.421521307995051,6.2240869488378,6758664.909023392,1.268334523896086,-2.9537759543027358,-0.48969427046547004,3.1326000625721533,-2.287393282892114,-0.042278706720760804,-1.4431658599611203,9.872236713075748E-5,6.960391138813579E-6,4.047848194782192E-6,389811.5482954584,4.045446769455195E-12,1002.496511967971,-4.23393880320143,-4.421521307995051,6.2240869488378
3420.0,4548291.866477037,-1822393.5668314071,-4653597.593284018,3081023.0123092686,3806794.062596528,-4656142.602832201,-3388.9213674702632,6266.836605892109,2870.226771957936,-3.979890311542683,-4.917400080180033,6.014540222561926,6758664.909023326,1.2727097931452471,-2.946931326685016,-0.5582576636652025,3.1318628956151775,-2.281449846558213,-0.04236747916617795,-1.4436410983492542,9.872191664982956E-5,6.941812054980669E-6,4.075212241795463E-6,389545.80027455866,3.969310338953239E-12,996.3899086882382,-3.979890311542683,-4.917400080180033,6.014540222561926
3480.0,4829941.734374322,-1534079.9396012726,-4470845.984637965,2870684.7261673845,4173665.6347998865,-4473241.174889974,-3619.630097659263,5957.48729641005,3224.1130085011687,-3.707437734265229,-5.390214161665103,5.777110587966746,6758664.909023469,1.2770850623929477,-2.939956115842456,-0.6268077655492172,3.131007493074083,-2.275506365127585,-0.04245145812178838,-1.4441170809738053,9.872145152202862E-5,6.923343190205546E-6,4.102567643237821E-6,389218.7991003392,3.901853470838254E-12,990.5300076924659,-3.707437734265229,-5.390214161665103,5.777110587966746
3540.0,5091780.152384217,-1241043.79660664,-4267315.938305181,2647004.801888944,4521140.011511053,-4269550.1774442,-3833.4714076830837,5620.515898781589,3562.944842560268,-3.41786335060279,-5.8377826656227665,5.512925048202617,6758664.909023142,1.2814603316406326,-2.932821574225752,-0.6953442735278917,3.1300056544126322,-2.2695628431447528,-0.04253064261858731,-1.4445937722195608,9.872097181303306E-5,6.904984527918445E-6,4.1299144332812024E-6,388842.9228110991,3.842142974511448E-12,984.9283758167837,-3.41786335060279,-5.8377826656227665,5.512925048202617
3600.0,5332636.194275568,-944464.12347073,-4043957.3970855293,2411025.2991870376,4847606.564210012,-4046020.3034305186,-4029.4584141793825,5257.499572034486,3885.153812769566,-3.1125270582459814,-6.258045738434205,5.223233317745109,6758664.90902292,1.2858356008883016,-2.925489298113201,-0.7638668634488758,3.128819549462751,-2.263619285168239,-0.042605031912115635,-1.445071136511784,9.872047758810203E-5,6.886736051611192E-6,4.157252646125913E-6,388431.5040346672,3.789269366074945E-12,979.5980950839547,-3.1125270582459814,-6.258045738434205,5.223233317745109
3660.0,5551426.17152451,-645525.8837937864,-3801812.043179765,2163844.99933156,5151552.924848266,-3803694.0331152817,-4206.68799232359,4870.1352037248935,4189.249967812149,-2.7928597880740442,-6.6490737619323275,4.9094016043230875,6758664.909022956,1.2902108701359387,-2.917906759315404,-0.8323751599214254,3.1273972534893573,-2.2576756957688433,-0.04267462548143628,-1.4455491383184167,9.871996891207945E-5,6.868597744838097E-6,4.184582316000134E-6,387998.5553181442,3.742343373812637E-12,974.5529631994757,-2.7928597880740442,-6.6490737619323275,4.9094016043230875
3720.0,5747158.531720227,-345415.30820720905,-3542008.3856045944,1906614.2558612863,5431571.929913043,-3543700.717765109,-4364.344832953734,4460.231336334708,4473.828656798723,-2.460356630106715,-7.009075888623449,4.57290588762997,6758664.909023011,1.29458613938356,-2.910000100374482,-0.9008686881788478,3.1256655459330815,-2.251732079528607,-0.04273942302850833,-1.4460277421511598,9.87194458493891E-5,6.850569591216409E-6,4.211903477159507E-6,387558.48110058316,3.70049343339069E-12,969.8066727602763,-2.460356630106715,-7.009075888623449,4.57290588762997
3780.0,5918938.364196004,-45315.2284590745,-3265756.452766268,1640529.6143979414,5686368.065127144,-3267251.268276073,-4501.705079487181,4029.699602367261,4737.5769022205295,-2.1165697066946665,-7.336407878367388,4.215324732879471,6758664.909023128,1.2989614086311496,-2.901662015321409,-0.9693467929452068,3.1235177949519772,-2.245788441039698,-0.04279942447747818,-1.4465069125668915,9.87189084640389E-5,6.832651574426965E-6,4.239216163886774E-6,387125.78165824024,3.66286523850568E-12,965.3720369353478,-2.1165697066946665,-7.336407878367388,4.215324732879471
3840.0,6065971.493184373,253599.52541145546,-2974342.1160351057,1366828.2272094202,5914763.38257941,-2975632.4746238156,-4618.139530555275,3580.5457108897112,4979.279328742144,-1.7631008292871544,-7.629579209198806,3.838331678571058,6758664.909023319,1.3033366778787392,-2.892730303365499,-1.0378084948525892,3.1207925151946383,-2.239844784903182,-0.042854629973920005,-1.4469866141689562,9.871835681962024E-5,6.814843678214984E-6,4.2665204104913535E-6,386714.75457901915,3.6286237993638897E-12,961.2602948028182,-1.7631008292871544,-7.629579209198806,3.838331678571058
3900.0,6187568.140657077,550166.647381224,-2669121.0716912663,1086782.0889461997,6115702.864695277,-2670200.9835245013,-4713.116396460563,3114.8600297922612,5197.8236234943,-1.4015939752100706,-7.887259439142463,3.44368723884372,6758664.90902343,1.307711947126297,-2.8829474899061855,-1.1062522202790788,3.117232993256649,-2.2339011157278716,-0.04290503988423316,-1.4474668116085285,9.871779097930797E-5,6.7971458863906595E-6,4.293816251308874E-6,386339.1994493324,3.5969580409669152E-12,957.4805075849276,-1.4015939752100706,-7.887259439142463,3.44368723884372
3960.0,6283146.142925571,843240.780478344,-2351512.5100017563,801692.1206232978,6288259.21214973,-2352376.9630868146,-4786.203599751455,2634.80780929432,5392.205505971968,-1.0337276207766362,-8.108283799956057,3.033230561541375,6758664.90902362,1.312087216373823,-2.8718786581776596,-1.1746752519564712,3.112405124197168,-2.2279574381292755,-0.04295065479484792,-1.4479474695859602,9.871721100586E-5,6.779558182829719E-6,4.321103720700741E-6,386012.13145783765,3.5670876783717216E-12,954.0390444921445,-1.0337276207766362,-8.108283799956057,3.033230561541375
4020.0,6352233.707043581,1131697.828529956,-2022992.5014273955,512882.12943868485,6431637.035589291,-2023637.4844744646,-4837.070612373836,2142.619093255894,5561.533188126702,-0.6612069667552488,-8.291658007712112,2.6088707835969656,6758664.909023625,1.3164624856213492,-2.8587265472591192,-1.2430724931296875,3.1055125149229608,-2.2220137567280784,-0.042991475511322735,-1.4484285528519454,9.871661696161914E-5,6.762080551474206E-6,4.348382853053862E-6,385745.5095278393,3.538271887830938E-12,950.9391505540259,-0.6612069667552488,-8.291658007712112,2.6088707835969656
4080.0,6394471.695057281,1414439.1393888276,-1685087.131044377,221692.67240497863,6545176.43384913,-1685509.6516849264,-4865.489824012619,1640.5783656389867,5705.031307748795,-0.28575609174799654,-8.43656227897864,2.172578125582619,6758664.909023679,1.3208377548688435,-2.8418547777805583,-1.3114332805259539,3.094919715850859,-2.216070076149478,-0.04302750305794558,-1.4489100262090868,9.871600890851297E-5,6.744712976333046E-6,4.3756536827799765E-6,385549.98437878786,3.5098191231214E-12,948.1805860756456,-0.28575609174799654,-8.43656227897864,2.172578125582619
4140.0,6409615.426181532,1690395.545224463,-1339365.4132080062,-70525.14796795946,6628355.944209408,-1339563.511493465,-4871.337438347835,1131.0139800283239,5822.0443207423305,0.0908899315840786,-8.542354545045594,1.7263747673026169,6758664.909023331,1.325213024116306,-2.817290969781348,-1.379731369960283,3.0766553454013814,-2.2101264010216783,-0.043058738676770916,-1.4493918545129487,9.871538690805325E-5,6.727455441482667E-6,4.402916244315604E-6,385434.6715879936,3.4810972959450906E-12,945.7593263861838,0.0908899315840786,-8.542354545045594,1.7263747673026169
4200.0,6397535.989032767,1958531.2463250032,-987432.0192715188,-362415.9275680447,6680794.853120161,-987404.7763970046,-4854.593896026609,616.2874204656986,5912.039340413195,0.4669929232598659,-8.608572860176725,1.2723255461332215,6758664.909023106,1.3295882933637686,-2.7722676861254256,-1.4478816199658024,3.0379530408337896,-2.204182735974913,-0.0430851838268362,-1.4498740026735077,9.871475102133795E-5,6.710307931067608E-6,4.430170572121254E-6,385406.9542733788,3.4515434501510223E-12,943.6673100854798,0.4669929232598659,-8.608572860176725,1.2723255461332215
4260.0,6358221.058115795,2217847.52574074,-630919.851811914,-652626.21577148,6702254.858725168,-630667.3940315405,-4815.343825177534,98.78244199369706,5974.608414372528,0.8408194523511434,-8.634937003211554,0.8125285194657293,6758664.909022746,1.3339635626111994,-2.631762741944376,-1.515377733660301,2.9037917760189154,-2.198239085640159,-0.04310684018352285,-1.4503564356563958,9.871410130904961E-5,6.693270429301244E-6,4.457416700681283E-6,385472.31945975445,3.420672017228593E-12,941.8922231675169,0.8408194523511434,-8.634937003211554,0.8125285194657293
4320.0,6291775.210834223,2467386.283007204,-271482.49930363876,-939810.7534555625,6692641.079419518,-271005.9970257361,-4753.775522265893,-419.1058607516551,6009.470232134161,1.2106486306068804,-8.621349275001362,0.3491054321086497,6758664.909023054,1.3383388318585985,-0.4672810933008234,-1.5510222773566111,0.7456777594867866,-2.1922954546481286,-0.0431237096377134,-1.4508391184841907,9.871343783145709E-5,6.676342920466284E-6,4.484654664503194E-6,385634.23153207044,3.3880807482686567E-12,940.4173044469771,1.2106486306068804,-8.621349275001362,0.3491054321086497
4380.0,6198419.743357868,2706233.3761150017,89213.3944757978,-1222638.665886078,6652002.405566148,89911.73240348029,-4670.179967999695,-934.9820087990922,6016.471258911929,1.5747798119670986,-8.567894497145101,-0.11580787112222896,6758664.909023362,1.3427141011059978,0.1198197645375917,-1.4867532771216498,0.16496984330975648,-2.186351847627971,-0.043135794295045354,-1.4513220162375793,9.871276064841512E-5,6.6595253889154915E-6,4.511884498117944E-6,385894.0454292773,3.353504425783472E-12,939.2246145526126,1.5747798119670986,-8.567894497145101,-0.11580787112222896
4440.0,6078491.985744344,2933521.7618318684,449495.8118274146,-1499799.5827701145,6580531.194376419,450412.74861087155,-4564.949384849821,-1446.461070262741,5995.586293516937,1.9315401676782493,-8.474839220265348,-0.5800710481392456,6758664.909023579,1.347089370353365,0.19752153027501207,-1.4188622735265022,0.09368780195885644,-2.18040826920627,-0.043143096475098335,-1.45180509405679,9.871206981936513E-5,6.64281781907219E-6,4.539106236078489E-6,386250.96142240806,3.317014298838364E-12,938.3086878419083,1.9315401676782493,-8.474839220265348,-0.5800710481392456
4500.0,5932444.118750117,3148434.425426045,807695.0587625282,-1770009.6582127118,6478562.310799505,808826.3448800304,-4438.575344525048,-1951.1795208106707,5946.91845060014,2.279292107838022,-8.342630152681117,-1.041548838980955,6758664.9090231005,1.3514646396007006,0.23103560243667493,-1.350683830048047,0.06662184014948684,-2.1744647240058237,-0.04314561871063504,-1.4522883171427359,9.87113654033361E-5,6.6262201954309406E-6,4.566319912960054E-6,386702.0224527219,3.2788313673249793E-12,937.664558714139,2.279292107838022,-8.342630152681117,-1.041548838980955
4560.0,5760841.496788242,3350207.091794063,1162151.4444310986,-2032017.463868221,6346571.520074139,1163491.8375030886,-4291.646435467788,-2446.8059867918323,5870.698569777896,2.616440521336494,-8.171891822756015,-1.4981205841077156,6758664.909023149,1.3558399088480522,0.2516659757956099,-1.282427633431393,0.05246971205183837,-2.1685212166446255,-0.0431433637467646,-1.4527716507582726,9.871064745894285E-5,6.609732502558147E-6,4.5935255633596026E-6,387242.15412121796,3.2392398733000854E-12,937.2825666428485,2.616440521336494,-8.171891822756015,-1.4981205841077156
4620.0,5564360.483480848,3538130.7109427783,1511222.9081129576,-2284609.729230246,6185173.24035239,1512766.1973286758,-4124.845502073921,-2931.0518254977264,5767.284056414533,2.9414398073142434,-7.963423490469518,-1.947689644778498,6758664.909022962,1.360215178095356,0.26681722031217786,-1.2141426783313625,0.04382876026770529,-2.162577751734568,-0.04313633454022542,-1.453255060229483,9.870991604438814E-5,6.593354725092609E-6,4.620723221895389E-6,387864.2465306134,3.1985764140277988E-12,937.1484414003901,2.9414398073142434,-7.963423490469518,-1.947689644778498
4680.0,5343785.808220306,3711553.711718424,1853292.5598883834,-2526616.903755446,5995117.666511639,1855031.5948744612,-3938.9464689273414,-3401.681498030376,5637.157161019485,3.252800672410509,-7.718195325861989,-2.388192689671971,6758664.909022769,1.3645904473426438,0.2791410562745759,-1.145846134020069,0.038049361287930066,-2.1566343338804694,-0.04312453425852907,-1.4537385109468346,9.870917121746332E-5,6.577086847746162E-6,4.647912923206494E-6,388559.27632007154,3.1572089580467983E-12,937.2428410972379,3.252800672410509,-7.718195325861989,-2.388192689671971
4740.0,5100007.454064101,3869884.018616086,2186776.1015877933,-2756918.5163575276,5777287.278902495,2188702.8255844824,-3734.810764842458,-3856.5226913710294,5480.922706332652,3.5490966692300123,-7.437343873995984,-2.8176088129290315,6758664.909023108,1.368965716589916,0.28982221434976585,-1.077545351951963,0.03394908920777171,-2.1506909676788655,-0.04310796627913132,-1.4542219683664555,9.870841303554708E-5,6.560928855304224E-6,4.675094701952577E-6,389316.46640720486,3.1154836271941394E-12,937.5386494468862,3.5490966692300123,-7.437343873995984,-2.8176088129290315
4800.0,4834017.08918316,4012590.8274181294,2510129.0952229616,-2974448.308740782,5532692.7533551445,2512234.5824146974,-3513.383362950592,-4293.476147473241,5299.305273231261,3.8289704525920696,-7.122166827916897,-3.23396844980578,6758664.909023128,1.373340985838585,0.2994699511486638,-1.0092438288681473,0.030921227684588003,-2.1447476577169415,-0.04308663418864247,-1.4547053980112996,9.870764155560622E-5,6.54488073262638E-6,4.702268592813336E-6,390123.4802062117,3.073710584987843E-12,938.0009828233716,3.8289704525920696,-7.122166827916897,-3.23396844980578
4860.0,4546904.0558705125,4139206.1363729625,2821854.0468327706,-3178199.120056942,5262468.29125376,2824128.5436615283,-3275.688454439367,-4710.525158550794,5093.145858593496,4.091139731251788,-6.774117132854542,-3.635362057154218,6758664.909022946,1.3777162550858253,0.3084300194931256,-0.9409432937160215,0.02862283166709121,-2.1388044085714415,-0.04306054178199965,-1.455188765472401,9.870685683419641E-5,6.528942464647037E-6,4.729434630488143E-6,390966.64642058185,3.033375767729187E-12,938.6775638150853,4.091139731251788,-6.774117132854542,-3.635362057154218
4920.0,4239850.933016345,4249326.030376011,3120507.2745204014,-3367227.5014655376,4967866.3908958975,3122940.2447928106,-3022.824774856258,-5105.7446891743875,4863.398020183395,4.334402893892497,-6.394796446571738,-4.019948526968231,6758664.909023139,1.3820915243330338,0.31691362186925964,-0.872644571673995,0.026845811288024282,-2.132861224807498,-0.043029693061638494,-1.4556720364100177,9.870605892746317E-5,6.513114036375921E-6,4.756592849695676E-6,391831.2099409344,2.9961740897312645E-12,939.6330186075385,4.334402893892497,-6.394796446571738,-4.019948526968231
4980.0,3914128.6894859537,4342611.716739264,3404705.5304186437,-3540658.0403500763,4650252.083671944,3407285.7040011436,-2755.9606031310536,-5477.310087330524,4611.123525502588,4.557644289280541,-5.985947982360598,-4.3859633022489275,6758664.909023349,1.3864667935802266,0.3250574490415866,-0.8043479879817466,0.025456937023391565,-2.1269181109775923,-0.04299409223663698,-1.4561551765548133,9.870524789114062E-5,6.49739543289864E-6,4.783743285173453E-6,392701.60392035247,2.9635768245619945E-12,940.9182234640198,4.557644289280541,-5.985947982360598,-4.3859633022489275
5040.0,3571091.447695651,4418790.311751688,3673132.3473916887,-3697687.375188064,4311096.660821563,3675847.772272235,-2476.3284546418186,-5823.505348238611,4337.487523366684,4.75983914155221,-5.549448762728314,-4.731726165454701,6758664.909023417,1.3908420628273876,0.3329542633425825,-0.7360535751747443,0.024367307936980085,-2.1209750716204745,-0.04295374372191022,-1.4566381517090674,9.870442378055226E-5,6.481786639377388E-6,4.810885971677432E-6,393561.7377575283,2.9369500247340105E-12,942.5789484824057,4.75983914155221,-5.549448762728314,-4.731726165454701
5100.0,3212170.8781693974,4477655.378218495,3924544.082458085,-3837587.8833835777,3951970.918645242,3927382.1799380784,-2185.219490761192,-6142.730896444282,4043.7532587177393,4.940058082672738,-5.087301313325951,-5.05564867081084,6758664.909023382,1.3952173320745327,0.34066962073982837,-0.6677611878526548,0.02351569056619548,-2.1150321112600095,-0.042908652137324484,-1.4571209277478185,9.870358665061117E-5,6.46628764105122E-6,4.838020943981736E-6,394395.2954912283,2.917599003090543E-12,944.6589127906259,4.940058082672738,-5.087301313325951,-5.05564867081084
5160.0,2838870.247427422,4519067.214941886,4157775.630200411,-3959711.02575263,3574537.9520625127,4160723.252966659,-1883.9776683659854,-6433.510853527567,3731.2763528774717,5.09747128517777,-4.601624828153587,-5.356241192761715,6758664.909023183,1.399592601321678,0.34825155678833297,-0.5994705705430124,0.022858905416629695,-2.1090892344042227,-0.04285882230691367,-1.4576034706200462,9.870273655582312E-5,6.4508984232362056E-6,4.865148236878033E-6,395186.0390016216,2.9068008764147177E-12,947.2016395039042,5.09747128517777,-4.601624828153587,-5.356241192761715
5220.0,2452758.1430187593,4542952.899906199,4371745.780808718,-4063490.3327866476,3180545.528313834,4374789.273622459,-1573.9936537710362,-6694.499760670992,3401.498673079641,5.231352179373885,-4.0946458385523234,-5.632119563865581,6758664.909023401,1.4039678705687753,0.3557364759584553,-0.5311814002834457,0.02236602419069959,-2.10314644554411,-0.04280425925793366,-1.4580857463497523,9.870187355028216E-5,6.435618971328848E-6,4.8922678851754044E-6,395918.11041679257,2.9058340666872637E-12,950.2517325387663,5.231352179373885,-4.0946458385523234,-5.632119563865581
5280.0,2055461.9008926789,4549306.089705951,4565462.198879432,-4148444.0193166314,2771818.074385601,4568587.461607733,-1256.69852646853,-6924.488727327045,3055.941816689167,5.341080740267493,-3.5686884199693245,-5.882011276468955,6758664.909023299,1.4083431398158728,0.3631528873750467,-0.46289331489098084,0.022014738031460226,-2.0972037491525306,-0.04274496822007328,-1.4585677210371069,9.870099768767392E-5,6.420449270802019E-6,4.919379923699635E-6,396576.32822666544,2.9160048759692304E-12,953.8555671048384,5.341080740267493,-3.5686884199693245,-5.882011276468955
5340.0,1648660.7616097229,4538186.57851107,4738026.000663795,-4214177.215750132,2350248.313405719,4741218.553368085,-933.5572989036991,-7122.410979307822,2696.2002370255473,5.426146330588422,-3.0261639719600746,-6.10476122354921,6758664.90902315,1.4127184090629386,0.37052386803174797,-0.3946059328066236,0.02178901995722861,-2.0912611496833473,-0.042680954624542446,-1.4590493608596709,9.870010902127457E-5,6.405389307208601E-6,4.946484387293084E-6,397146.47181278584,2.938667251237813E-12,958.0610964596308,5.426146330588422,-3.0261639719600746,-6.10476122354921
5400.0,1234078.7831143562,4509719.620587027,4888635.909113283,-4260383.805649972,1917788.5867882844,4891880.958900421,-606.0622793009521,-7287.346781790956,2323.934039151248,5.486150087426206,-2.4695606083941493,-6.299336955219638,6758664.9090232495,1.4170936783099726,0.37786874927023634,-0.32631886783803116,0.02167759115798504,-2.0853186515702293,-0.04261222410320592,-1.4595306320734154,9.869920760395265E-5,6.390439066181337E-6,4.973581310814195E-6,397615.54938193277,2.975228754915981E-12,962.9162787156264,5.486150087426206,-2.4695606083941493,-6.299336955219638
5460.0,813477.5389221846,4464095.021093729,5016591.967813692,-4286847.861063897,1476441.900312931,5019874.477146795,-275.72630526919244,-7418.527715003621,1940.861475362122,5.520806841174873,-1.9014321963415637,-6.4648334285400235,6758664.909023356,1.4214689475570224,0.3852043179162699,-0.25803174076760066,0.021672906853087103,-2.0793762592256266,-0.04253878248774515,-1.460011501013825,9.869829348816816E-5,6.37559853343328E-6,5.000670729137028E-6,397972.0446514821,3.0271334219185105E-12,968.4655443433761,5.520806841174873,-1.9014321963415637,-6.4648334285400235
5520.0,388648.63160870207,4401566.000571743,5121298.796723319,-4293444.668703229,1028252.73358542,5124603.55288271,55.924123444065486,-7515.340282695342,1548.7511714209197,5.5299465567203425,-1.3243870836342686,-6.600477229482935,6758664.909023246,1.4258442168040246,0.3925457106850669,-0.18974418905158855,0.021770492390180654,-2.0734339770397403,-0.0424606358087401,-1.4604919340970715,9.869736672597265E-5,6.360867694758331E-6,5.027752677150999E-6,398206.1380576156,3.0958120251680625E-12,974.7438909020786,5.5299465567203425,-1.3243870836342686,-6.600477229482935
5580.0,-38593.947569624106,4322447.839176445,5202268.374525914,-4280141.3417828325,575297.6534489645,5205580.059904966,387.35578411463274,-7577.328835959876,1149.4141158088923,5.513515288112733,-0.7410765566412422,-6.705630247207165,6758664.909023485,1.430219486051027,0.3999071163858476,-0.12145587542408676,0.02196852734783597,-2.0674918093795167,-0.042377790294792224,-1.4609718978210071,9.86964273690104E-5,6.3462465360318854E-6,5.054827189760368E-6,398309.8987245118,3.1825946888500985E-12,981.7687745984358,5.513515288112733,-0.7410765566412422,-6.705630247207165
5640.0,-466421.5812656796,4227116.307356834,5259122.33438061,-4246997.014087872,119675.77288461466,5262425.59729699,717.0357127005079,-7604.197797502724,744.6954454161297,5.471575639343986,-0.15418307132381068,-6.779792782174696,6758664.9090235215,1.4345947552979816,0.4073023635027645,-0.05316649599325975,0.022267616492483322,-2.061549760587585,-0.04229025237163632,-1.4614513587663172,9.8695475468519E-5,6.331735043211172E-6,5.081894301883863E-6,398277.44394815876,3.2885917386003825E-12,989.5310167861433,5.471575639343986,-0.15418307132381068,-6.779792782174696
5700.0,-892998.8784548203,4116005.8902840214,5291593.761891055,-4194162.614611303,-336500.9022442171,5294873.287590964,1043.4381981785768,-7595.813174080555,336.46606215844554,5.40430672530618,0.4335916978361023,-6.822606071134373,6758664.909023088,1.4389700245449362,0.4147454497181697,0.015124211693503581,0.02267071322030157,-2.0556078349812745,-0.04219802866124266,-1.4619302835975307,9.869451107532811E-5,6.317333202335906E-6,5.108954048454298E-6,398105.0634995064,3.414564795283566E-12,997.9871562033441,5.40430672530618,0.4335916978361023,-6.822606071134373
5760.0,-1316491.5836787282,3989607.8139173626,5299528.486205359,-4121880.2229031194,-791117.1955930497,5302769.067736836,1365.051759431436,-7552.203347563129,-73.38588402298546,5.312003628577926,1.0195389449382954,-6.83385421362132,6758664.909023285,1.443345293791875,0.4222510590037728,0.08341646017118247,0.023183180207230137,-2.0496660368516078,-0.042101125980891226,-1.462408639064098,9.869353423986036E-5,6.30304099952881E-6,5.1360064644181295E-6,397791.30661802745,3.560824098034982E-12,1007.0563072595469,5.312003628577926,1.0195389449382954,-6.83385421362132
5820.0,-1735074.5096318251,3848467.8811562327,5282885.857317512,-4030482.0070882,-1242064.5083841498,5286072.465948736,1680.386074344215,-7473.559137870955,-482.96360945243293,5.195076349328879,1.6009549082465604,-6.813465486359612,6758664.909023459,1.447720563038782,0.429835108089641,0.15171040268843805,0.023812987488242475,-2.0437243704622836,-0.041999551342380585,-1.4628863920014838,9.8692545012133E-5,6.288858420996025E-6,5.1630515847354595E-6,397337.0301663699,3.727188511498544E-12,1016.6238000783076,5.195076349328879,1.6009549082465604,-6.813465486359612
5880.0,-2146939.4592393627,3693184.127057862,5241739.004842443,-3920388.748332812,-1687250.5492835355,5244856.859702244,1987.9788306606551,-7360.233133945704,-890.3703712137461,5.054048247392045,2.175153085301581,-6.761513033847216,6758664.909022847,1.4520958322856732,0.43751536627714865,0.22000612237187658,0.024571063026883673,-2.037782840048671,-0.04189331195094439,-1.4633635093320856,9.869154344175589E-5,6.274785453027765E-6,5.19008944437892E-6,396745.4070250904,3.913024959653368E-12,1026.5515705967607,5.054048247392045,2.175153085301581,-6.761513033847216
5940.0,-2550303.1031386536,3524404.302610582,5176274.575776758,-3792107.9573691264,-2124609.002147596,5179309.212397212,2286.4024681471624,-7212.738291881698,-1293.71816411774,4.889553977427155,2.7394764373046834,-6.678214925445169,6758664.909022968,1.4564711015325642,0.4453122008854862,0.288303619166879,0.025471827649254906,-2.031841449816866,-0.04178241520443312,-1.4638399580663695,9.869052957793388E-5,6.260822081998639E-6,5.217120078333897E-6,396021.89442397497,4.117351499971915E-12,1036.6925498321204,4.889553977427155,2.7394764373046834,-6.678214925445169
6000.0,-2943414.7783727385,3342823.1970294644,5086791.951036873,-3646231.5905085905,-2552109.0877195117,5089729.288482002,2574.270781726419,-7031.745802397658,-1691.1364018974218,4.702336920069913,3.291309531316817,-6.56393357149641,6758664.909022956,1.4608463707794237,0.45324951665877494,0.3566027935024404,0.026533968033893324,-2.025900203942684,-0.04166686869244036,-1.4643157053037692,9.868950346946484E-5,6.246968294368353E-6,5.244143521597773E-6,395174.1625316774,4.338962140853753E-12,1046.904846286503,4.702336920069913,3.291309531316817,-6.56393357149641
6060.0,-3324564.174141702,3149179.8089988003,4973701.942876136,-3483433.3743927903,-2967764.975578807,4976528.349146241,2850.2453554781973,-6818.082232954651,-2080.7805440069956,4.493246114035564,3.8280905677476254,-6.419174493350819,6758664.9090228025,1.4652216400262512,0.46135598453293125,0.42490342515826923,0.027781532521027177,-2.0199591065707483,-0.04154668019527718,-1.4647907182338415,9.868846516474503E-5,6.2332240766820745E-6,5.2711598091797334E-6,394211.9842591606,4.576527553921938E-12,1057.0621546789284,4.493246114035564,3.8280905677476254,-6.419174493350819
6120.0,-3692088.870633679,2944254.377709635,4837524.977599133,-3304465.750521593,-3369645.0030610147,4840227.333007265,3113.041797769351,-6572.725952998873,-2460.840629168412,4.263232696340636,4.347323239722798,-6.244584444714269,6758664.909022595,1.4695969092745076,0.46966669939659833,0.4932051450639649,0.02924548154576416,-2.0140181618134343,-0.04142185768316885,-1.4652649641371245,9.86874147117606E-5,6.2195894155709315E-6,5.298168976100319E-6,393147.08784978534,4.828643287579932E-12,1067.0588832017702,4.263232696340636,4.347323239722798,-6.244584444714269
6180.0,-4044381.6973146456,2728865.2849032623,4678888.770329656,-3110156.4523732453,-3755880.658470606,4681454.528555019,3361.435748269428,-6296.802854037304,-2829.5496767339578,4.013345860075979,4.8465883702121495,-6.0409488844117725,6758664.909022597,1.4739721785212876,0.47822547888191264,0.5615073965477057,0.030965898898971233,-2.0080773737500452,-0.04129240931520502,-1.4657384103862083,9.868635215809572E-5,6.206064297752562E-6,5.325171057391018E-6,391992.9744539439,5.093821859745673E-12,1076.8105570241014,4.013345860075979,4.8465883702121495,-6.0409488844117725
