time,gePosition_m_X,gePosition_m_Y,gePosition_m_Z,eiPosition_m_X,eiPosition_m_Y,eiPosition_m_Z,eiVelocity_m_s_X,eiVelocity_m_s_Y,eiVelocity_m_s_Z,eiAccel_m_s2_X,eiAccel_m_s2_Y,eiAccel_m_s2_Z,semiMajorAxis_m,gast_rad,eulerAngle_rad_Roll,eulerAngle_rad_Pitch,eulerAngle_rad_Yaw,eulerAngleWrtEi_rad_Roll,eulerAngleWrtEi_rad_Pitch,eulerAngleWrtEi_rad_Yaw,bodyAngularRateWrtEi_rad_s_Roll,bodyAngularRateWrtEi_rad_s_Pitch,bodyAngularRateWrtEi_rad_s_Yaw,altitudeMsl_m,airDensity_kg_m3,ambientTemperature_dgK,eiGravitation_m_s2_X,eiGravitation_m_s2_Y,eiGravitation_m_s2_Z
0.0,-1428622.3120664244,4163200.465251461,5136049.672040268,-4292653.410000001,955168.4699999995,5139356.569999999,109.64966299999782,-7527.726490000002,1484.5214890000007,5.528986569357204,-1.230267887409868,-6.619549899945847,6758662.117228848,1.0233194459853856,0.19689735485747065,1.4818059945046167,0.19765940137335777,-1.3731447587678467,-0.8677374784865443,3.0597725892015397,-1.9798957083974874E-5,-0.0011342814916699574,1.2874900798265365E-19,398252.76383814117,3.1125051777514152E-12,976.2183377126014,5.528986569357204,-1.230267887409868,-6.619549899945847
60.0,-1789712.6496693231,3920255.313014938,5213136.603979294,-4276130.763605977,501640.15063717,5216447.947710037,440.8995044269196,-7584.043045623147,1084.1893967259227,5.508416690933063,-0.6462017022795102,-6.719712406156255,6758662.117263554,1.027694715234372,0.1964775745233597,1.4824063491338968,0.197241417822293,-1.4538495103598283,-0.8784726298242059,-3.119687421240254,-1.9798957083974874E-5,-0.0011150148565048223,-5.121435149735763E-6,398335.16146815225,3.2027933494634593E-12,983.3970713722676,5.508416690933063,-0.6462017022795102,-6.719712406156255
120.0,-2144732.0341794845,3662345.3121002857,5266057.2408811925,-4239785.464850451,45786.44926321739,5269357.680101298,770.149856362321,-7605.20775891319,678.7772427016238,5.46236021841705,-0.058989324122982044,-6.788817501974939,6758662.117263755,1.0320699844833425,0.19520508431931824,1.484199837217052,0.19598827691172718,-1.5352475077143573,-0.8839892310539558,-3.015760691054279,-1.9798957083974874E-5,-0.0010959939815671285,-1.0154253711653081E-5,398280.4831682923,3.312437785884759E-12,991.3056589075247,5.46236021841705,-0.058989324122982044,-6.788817501974939
180.0,-2492166.1237640986,3390599.0023314618,5294562.856727812,-4183783.2576410878,-410279.4807939532,5297837.089568896,1095.8768804319984,-7591.112907333935,270.15925433311025,5.39101509822493,0.5286657408489086,-6.826529477988571,6758662.117263807,1.0364452537322815,0.19302673261732328,1.4871630038229382,0.19386737782776628,-1.6160376793859743,-0.8844304037668048,-2.9128724219532636,-1.9798957083974874E-5,-0.0010774702411537648,-1.5032893687627227E-5,398085.3786753998,3.442114983131878E-12,999.8931987452186,5.39101509822493,0.5286657408489086,-6.826529477988571
240.0,-2830524.933552639,3106195.851588955,5298517.62697371,-4108380.8902639444,-864442.8940837069,5301750.470799711,1416.5720940053013,-7541.813194315,-139.7744838473676,5.294695095669548,1.1140548245265889,-6.832655726427421,6758662.117263698,1.0408205229812044,0.18983614277185004,1.491256513157215,0.1907920924066424,-1.6950046006884822,-0.8800397560637918,-2.812176526031308,-1.9798957083974874E-5,-0.0010596893963906648,-1.9694487052073587E-5,397748.7681052731,3.5920371658941047E-12,1009.0715707172562,5.294695095669548,1.1140548245265889,-6.832655726427421
300.0,-3158349.2713430426,2810361.125333363,5277899.32207716,-4013924.9861680833,-1314597.2005823464,5281075.783796071,1730.749287902969,-7457.525693790666,-549.1266557877692,5.173828662823243,1.694476279421762,-6.807147954907414,6758662.117263536,1.0451957922300796,0.18545274347678878,1.4964255976966083,0.18660045710121947,-1.7711094050377245,-0.8711389662244994,-2.714649758437601,-1.9798957083974874E-5,-0.0010428885756675842,-2.407996937000591E-5,397271.88371581945,3.761926957752725E-12,1018.720424929598,5.173828662823243,1.694476279421762,-6.807147954907414
360.0,-3474217.0881843474,2504360.597403019,5232799.482005453,-3900850.5020298115,-1758653.6879591248,5235904.827551302,2036.9513609482015,-7338.629062575654,-956.0013936463739,5.0289572988146745,2.2672476926627407,-6.750102774949119,6758662.11726345,1.049571061478955,0.17958044802369144,1.5026006703319432,0.1810135404597948,-1.8435468240881148,-0.858099557981134,-2.621034427177029,-1.9798957083974874E-5,-0.00102729325691968,-2.813516076663256E-5,396658.2718183812,3.951071213678393E-12,1028.698598390408,5.0289572988146745,2.2672476926627407,-6.750102774949119
420.0,-3776749.716220731,2189495.1242659804,5163423.069596519,-3769678.7789998176,-2194551.1746032713,5166442.892262069,2333.7570409341124,-7185.662020213449,-1358.5129738376263,4.860733403783159,2.8297180810551517,-6.6617616559412225,6758662.117263525,1.0539463307277828,0.17172550244418133,1.5096980620513791,0.17355301039382762,-1.9117635514199989,-0.8413138426023973,-2.5318197867492795,-1.9798957083974874E-5,-0.0010131142743530085,-3.181179874153983E-5,395913.75463680265,4.158432375152997E-12,1038.858809178122,4.860733403783159,2.8297180810551517,-6.6617616559412225
480.0,-4064617.966290806,1867095.1053778476,5070087.602939864,-3621015.194857294,-2620265.549525399,5073007.890244936,2619.787461713581,-6999.321098976092,-1754.7944910956335,4.669917629703795,3.379280015619046,-6.54251023744045,6758662.117263537,1.0583215999766105,0.1610227345467057,1.5176207931880963,0.1633671366116623,-1.9754434993720267,-0.8211692211385657,-2.44725653872312,-1.9798957083974874E-5,-0.0010005448865982869,-3.506849948407081E-5,395046.35253835376,4.382772734383866E-12,1049.0613796841412,4.669917629703795,3.379280015619046,-6.54251023744045
540.0,-4336548.05801061,1538514.8526825644,4953221.769248266,-3455546.4266073876,-3033819.1555005293,4956028.968034219,2893.7125663718643,-6780.457669821119,-2143.0064719012576,4.457375733389262,3.9133816229742138,-6.392876995080196,6758662.117263681,1.0626968692254064,0.14582922681216748,1.5262591271585224,0.14882425365589522,-2.0344713435036432,-0.7980283809414479,-2.3673930356386914,-1.9798957083974874E-5,-9.897579576301871E-4,-3.787162124121826E-5,394066.1676898207,4.622747463447989E-12,1059.183722962798,4.457375733389262,3.9133816229742138,-6.392876995080196
600.0,-4591327.355415765,1205126.892601685,4813363.52501586,-3274037.3348476943,-3433289.972264222,4816044.604464059,3154.2573068264423,-6530.07425329537,-2521.345388411061,4.2240749391695696,4.429538410079901,-6.21353125790968,6758662.117263822,1.0670721384741706,0.12262477496009974,1.5354900971925103,0.12641304803036063,-2.0888864862797316,-0.7722161763743454,-2.292121045590838,-1.9798957083974874E-5,-9.80903314138508E-4,-4.0196001530683674E-5,392985.2308153561,4.876942339722824E-12,1069.1244959579026,4.2240749391695696,4.429538410079901,-6.21353125790968
660.0,-4827809.881716005,868316.2240770409,4651157.689593077,-3077327.4829964433,-3816820.5572081567,4653700.201873656,3400.207610716838,-6249.320127606397,-2888.052033975426,3.9710798210389013,4.925344858161553,-6.005280577688357,6758662.11726393,1.0714474077229348,0.08230957581109494,1.5451726650418334,0.08704011403027806,-2.138836956146449,-0.7440126864980755,-2.2212215482872355,-1.9798957083974874E-5,-9.741053515490072E-4,-4.202554008957732E-5,391817.313351195,5.143856633126436E-12,1078.8032686845766,3.9710798210389013,4.925344858161553,-6.005280577688357
720.0,-5044921.587314979,529474.5563698211,4467353.0416360935,-2866327.306201878,-4182626.7018546243,4469745.179903342,3630.4160871057184,-5939.486249347101,-3241.4197214506503,3.6995477164364177,5.398485731225292,-5.769067453526695,6758662.11726381,1.075822676973096,-0.007765764005377528,1.5551179337446157,-0.0019401297345098545,-2.184539017538706,-0.713651251164475,-2.1544047720487893,-1.9798957083974874E-5,-9.694609640987699E-4,-4.33536017303094E-5,390577.7078899345,5.421847910433865E-12,1088.1574714559642,3.6995477164364177,5.398485731225292,-5.769067453526695
780.0,-5241665.345982761,189994.55031634137,4262798.930210197,-2642013.946440338,-4529005.7634147275,4265029.583672149,3843.8074433145894,-5601.9995056416565,-3579.8022658016635,3.4107236862724006,5.846747044373203,-5.505965418268321,6758662.117263894,1.0801979462217968,-0.3937313745174669,1.564737478663199,-0.38665663911487413,-2.2262449501252575,-0.6813201001524424,-2.091341996565465,-1.9798957083974874E-5,-9.670378713744672E-4,-4.418321781989874E-5,389282.9803872168,5.709060323504211E-12,1097.1383234698612,3.4107236862724006,5.846747044373203,-5.505965418268321
840.0,-5417125.654908279,-148735.91316610356,4038441.414619802,-2405426.7719394895,-4854344.631961328,4040500.220422246,4039.383586169938,-5238.416319765404,-3901.621712970755,3.105935038314895,6.268026637247303,-5.217174496153902,6758662.11726381,1.0845732154704657,-2.3691699152221926,1.5644062714193343,-2.36069354992131,-2.2642191894668744,-0.6471663130912079,-2.031688910551003,-1.9798957083974874E-5,-9.668734043447461E-4,-4.452707171541318E-5,387950.6981453878,6.003354973306764E-12,1105.7069030484847,3.105935038314895,6.268026637247303,-5.217174496153902
900.0,-5570473.015381515,-485339.4139137805,3795318.9493006533,-2157662.6006394173,-5157127.295167793,3797196.3409797065,4216.228382038662,-4850.415635563619,-4205.375777655728,2.7865854335966906,6.660344298343837,-4.904016044559048,6758662.11726375,1.0889484847191346,-2.726082783218802,1.5547269441648872,-2.7160563595678675,-2.298721796688971,-0.6113011054670734,-1.9751015362433766,-1.9798957083974874E-5,-9.689737987500014E-4,-4.4407261715332095E-5,386599.13809212524,6.3022552359459614E-12,1113.8309307707082,2.7865854335966906,6.660344298343837,-4.904016044559048
960.0,-5700967.97193601,-818454.5992824226,3534557.632322941,-1899870.648899307,-5435941.964182729,3536244.8845954104,4373.51205128768,-4439.791309223358,-4489.64495351008,2.4541485980607782,7.021851386707668,-4.567926995954861,6758662.117263839,1.0933237539677718,-2.81428881385444,1.5447693095073134,-2.8025705626086705,-2.3299977607732143,-0.5738057132391571,-1.9212461948999116,-1.9798957083974874E-5,-9.733140240723985E-4,-4.385484424856706E-5,385246.9803148942,6.602914711987613E-12,1121.4824120403075,2.4541485980607782,7.021851386707668,-4.567926995954861
1020.0,-5807964.789049276,-1146741.6939093359,3257366.0382129075,-1633247.2280823484,-5689487.726016075,3258855.30789,4510.495174212037,-4008.4439401363834,-4753.09926034798,2.1101616642250702,7.350839898632212,-4.210453519667105,6758662.11726384,1.0976990232163775,-2.855895773462035,1.535075163916374,-2.8423530404130775,-2.358270623633492,-0.5347373885040755,-1.869804998866986,-1.9798957083974874E-5,-9.798381540838338E-4,-4.290916930491036E-5,383912.99218855187,6.902111755963976E-12,1128.6360540055973,2.1101616642250702,7.350839898632212,-4.210453519667105
1080.0,-5890914.74586262,-1468887.889929524,2965029.6578861144,-1359030.2129790985,-5916580.689813687,2966314.020713468,4626.532287040762,-3558.3721756852397,-4994.504594216515,1.7562181701713815,7.6457509284936895,-3.833244126480092,6758662.11726385,1.1020742924649671,-2.8817253229617807,1.5258299527134709,-2.8662368845264363,-2.383739118734864,-0.49413520306537323,-1.8204781528597058,-1.9798957083974874E-5,-9.884602623789654E-4,-4.161702867779108E-5,382615.708727712,7.196272139137048E-12,1135.2682817483478,1.7562181701713815,7.6457509284936895,-3.833244126480092
1140.0,-5949369.030874317,-1783612.5956353873,2658904.9704889962,-1078493.3072652563,-6116159.596575227,2659978.453734451,4721.075048339306,-3091.663527785602,-5212.728647683574,1.3939607456439365,7.905182474741515,-3.4380422426233173,6758662.117263787,1.1064495617135248,-2.900529687184575,1.5171737974977633,-2.882987889542714,-2.4065757817248126,-0.4520254880578576,-1.7729840763909201,-1.9798957083974874E-5,-9.990658056016513E-4,-4.00316446842075E-5,381373.1149924541,7.481519686664953E-12,1141.3566677724714,1.3939607456439365,7.905182474741515,-3.4380422426233173
1200.0,-5982981.220169905,-2089672.5211993398,2340413.1738543734,-792940.1323134261,-6287290.864227551,2341270.7844843594,4793.6749579905945,-2610.4847418874847,-5406.746369389092,1.025073517433162,8.127896544365615,-3.0266782831547188,6758662.117263785,1.110824830962067,-2.9157425186937616,1.509229127335061,-2.8960552055068534,-2.4269267498028912,-0.40842682625628546,-1.7270580972086365,-1.9798957083974874E-5,-0.0010115134402677558,-3.8211532080490484E-5,380202.33646586456,7.753753155183935E-12,1146.8796097072827,1.025073517433162,8.127896544365615,-3.0266782831547188
1260.0,-5991509.324476492,-2385866.5808051135,2011033.6020761335,-503698.16668943095,-6429173.042491344,2011671.3503818307,4843.985612933164,-2117.0717618609583,-5575.6449338077,0.6512742685042502,8.312825511865528,-2.6010612581774475,6758662.117263609,1.115200100210593,-2.9289961246632052,1.5021051991820715,-2.907088320047848,-2.4449121835480225,-0.3633545709555527,-1.6824502436470694,-1.9798957083974874E-5,-0.0010256372076570324,-3.6219268590460955E-5,379119.3432942344,8.008745735882709E-12,1151.8161109323682,0.6512742685042502,8.312825511865528,-2.6010612581774475
1320.0,-5974817.392155418,-2671040.5913506984,1672296.8603886312,-212112.56454944742,-6541140.654660569,1672711.7789441734,4871.764485969544,-1613.7193367389596,-5718.6281942818205,0.27430638747468755,8.459077691861454,-2.1631699486692644,6758662.117263746,1.1195753694590873,-2.9411784998962305,1.4958984991132178,-2.91699381549301,-2.4606269132998144,-0.31682490123595985,-1.6389224890822904,-1.9798957083974874E-5,-0.001041249015984527,-3.4120209775949966E-5,378138.6741251683,8.2422606029598E-12,1156.1454952602837,0.27430638747468755,8.459077691861454,-2.1631699486692644
1380.0,-5932876.657173607,-2944091.748800416,1325777.709084118,80460.11809197914,-6622667.406244351,1325967.8669409188,4876.874216213462,-1102.7703176367204,-5835.0205946835795,-0.10406935298003238,8.565942088003151,-1.7150436919208176,6758662.117263585,1.123950638707566,-2.952828625249725,1.4906921702361973,-2.9263303630403703,-2.4741410358713316,-0.26885844550810367,-1.5962456700652325,-1.9798957083974874E-5,-0.0010581413499871036,-3.198118215318595E-5,377273.18499328836,8.450190257354586E-12,1159.8476063837018,-0.10406935298003238,8.565942088003151,-1.7150436919208176
1440.0,-5865766.2231109785,-3203972.86426805,973087.729605185,372658.25963722914,-6673368.743386666,973052.2416488352,4859.28340211447,-586.604695294427,-5924.270517561183,-0.4820831484327475,8.632892284733735,-1.2587728196344283,6758662.117263554,1.1283259079560126,-2.9643089581903004,1.4865552376796787,-2.9354808842727067,-2.4855002742667383,-0.2194835187100079,-1.5541962031304657,-1.9798957083974874E-5,-0.001076090144456487,-2.9869184958871137E-5,376533.8282883523,8.628721067740808E-12,1162.9037832394765,-0.4820831484327475,8.632892284733735,-1.2587728196344283
1500.0,-5773673.276353834,-3449696.342999383,615867.8071984024,663121.5416685733,-6693003.747059431,615606.8386174935,4819.066890466814,-67.62843056848496,-5985.953049292398,-0.8579646038072489,8.659589452752693,-0.7964887945978826,6758662.117263779,1.1327011772044275,-2.9758907910852748,1.4835418702605967,-2.9447375599755405,-2.494725971488226,-0.1687390269341646,-1.5125526554782056,-1.9798957083974874E-5,-0.0010948577687845205,-2.7850126408799717E-5,375929.4662927791,8.774492640908619E-12,1165.2976259458096,-0.8579646038072489,8.659589452752693,-0.7964887945978826
1560.0,-5656892.823793789,-3680337.890599987,255780.4655994143,950497.3198237768,-6681476.35221964,255295.23143884697,4756.405557366029,451.7378681902855,-6019.772145601613,-1.2299512200547236,8.64588444363309,-0.3303540944655995,6758662.117263655,1.1370764464528427,-2.9878021162407697,1.4816907651711146,-2.954349330465964,-2.5018146267596397,-0.11667709897859319,-1.471092174620517,-1.9798957083974874E-5,-0.0011141960825084222,-2.598761533314035E-5,375466.723120188,8.884741839599015E-12,1167.0155520130434,-1.2299512200547236,8.64588444363309,-0.3303540944655995
1620.0,-5515826.952570921,-3895039.932102641,-105497.90987090758,1233446.9662456072,-6638835.884394636,-106205.1500760347,4671.585579702366,969.07036560743,-6025.56218378537,-1.5962968821468628,8.591818954000864,0.13744810646407288,6758662.11726393,1.1414517157012258,-3.000258904476196,1.48102468800945,-2.964552800199597,-2.506736904655088,-0.06336550893103737,-1.4295867463886867,-1.9798957083974874E-5,-0.001133849535212602,-2.4341824341843927E-5,375149.878116966,8.957423584719339E-12,1168.0472239999676,-1.5962968821468628,8.591818954000864,0.13744810646407288
1680.0,-5350983.611670241,-4093014.7307897457,-466284.9236931942,1510652.1530619946,-6565276.909507628,-467210.87618341274,4564.997198458113,1481.9534613206677,-6003.288891101447,-1.9552803033901403,8.497625744909362,0.6047244045423789,6758662.117263853,1.1458269849495775,-3.013490098768213,1.4815501771364035,-2.975596854879618,-2.5094360597497087,-0.008889958609794742,-1.387799225880973,-1.9798957083974874E-5,-0.001153558296063736,-2.296843667848438E-5,374980.8029383165,8.991300971293695E-12,1168.3858885935274,-1.9552803033901403,8.497625744909362,0.6047244045423789
1740.0,-5162974.917483282,-4273547.19507981,-824900.0583770161,1780821.046510722,-6461138.3961588135,-826040.4102906869,4437.132977792048,1987.9912365973844,-5953.049642012473,-2.305213380636162,8.363727907501291,1.069281728492203,6758662.117264085,1.1502022541979289,-3.0277627858358898,1.4832574076671756,-2.9877674611962384,-2.509825726170932,0.0466437056196154,-1.3454790703399595,-1.9798957083974874E-5,-0.0011730614070947333,-2.191768600320627E-5,374958.9435991867,8.985999005042018E-12,1168.0286536478513,-2.305213380636162,8.363727907501291,1.069281728492203
1800.0,-4952514.987763044,-4435997.3632323155,-1179672.561547079,2042694.3816441332,-6326902.193003992,-1181022.0008320997,4288.585566622522,2484.818828185104,-5875.073120288278,-2.6444494148668074,8.190737171726227,1.5289379395715057,6758662.117264085,1.154577523446217,-3.043413392031675,1.4861201975943548,-3.001418503204904,-2.507787027771907,0.10310725974855606,-1.3023576969650132,-1.9798957083974874E-5,-0.0011920999589129912,-2.1233496639408097E-5,375081.3478429765,8.9420187860525E-12,1166.9767222191758,-2.6444494148668074,8.190737171726227,1.5289379395715057
1860.0,-4720417.310734258,-4579802.557123461,-1528949.2937678962,2295051.388032571,-6163190.827321126,-1530501.5337927847,4120.04497214719,2970.1136720262025,-5769.718345368773,-2.971391151866264,7.979451260681497,1.9815324132363556,6758662.11726387,1.1589527926945367,-3.060892596739922,1.4900961198105238,-3.017016356356481,-2.5031649768906683,0.16034776138007378,-1.2581433953411836,-1.9798957083974874E-5,-0.0012104202871515769,-2.0952731262795704E-5,375342.7372116581,8.860711867487675E-12,1165.2355973654649,-2.971391151866264,7.979451260681497,1.9815324132363556
1920.0,-4467591.658426252,-4704479.197895718,-1871102.499053369,2536715.5375341023,-5970764.634284799,-1872850.3078046842,3932.295357439833,3441.6065597992692,-5637.47306581731,-3.284498598281043,7.730850299059522,2.4249365448182476,6758662.117263723,1.163328061942793,-3.0808369028982856,1.4951266489122712,-3.035211146531908,-2.4957641569095954,0.21818499849974868,-1.21251575024492,-1.9798957083974874E-5,-0.00122777718269465,-2.110455336223151E-5,375735.6222485478,8.74421745236345E-12,1162.8152674705857,-3.284498598281043,7.730850299059522,2.4249365448182476
1980.0,-4195040.5556008415,-4809624.277851504,-2204537.4602800077,2766560.086005747,-5750518.22987436,-2206472.6940106815,3726.2113779186643,3897.092451935808,-5478.951526154048,-3.5822965692991238,7.446092290123566,2.857064121610492,6758662.117263872,1.1677033311910492,-3.104191802510092,1.5011371985737374,-3.0569596393605116,-2.485343740116618,0.27640861251594095,-1.165119588447449,-1.9798957083974874E-5,-0.0012439370991044246,-2.1709912681049533E-5,376250.4583617251,8.595367721511994E-12,1159.7303787914136,-3.5822965692991238,7.446092290123566,2.857064121610492
2040.0,-3903855.3178966194,-4894916.4845728595,-2527700.0022039255,2983513.381796972,-5503476.343692698,-2529813.643375298,3502.754074071487,4334.440991805479,-5294.891616805075,-3.8633819254584285,7.126507681559072,3.275881504076778,6758662.117263864,1.1720786004407024,-3.1324393094247913,1.5080367385699642,-3.083752538938367,-2.4716119996737147,0.33477476977331627,-1.1155585735820184,-1.9798957083974874E-5,-0.0012586813279368287,-2.2781162800037002E-5,376875.839037804,8.417568630078307E-12,1156.0003996206394,-3.8633819254584285,7.126507681559072,3.275881504076778
2100.0,-3595211.674973107,-4960116.974899757,-2839083.8054666873,3186563.9149858784,-5230789.031251164,-2841366.004806005,3262.9663403245363,4751.6066671591025,-5086.151420322009,-4.12643045771534,6.773593046393915,3.679417559650741,6758662.11726392,1.176453869688895,3.1151334225585456,1.5157162643293625,-3.118068227212292,-2.4542206669195474,0.3930022530007081,-1.0633887694526982,-1.9798957083974874E-5,-0.0012718090983915495,-2.4321820580078425E-5,377598.722347601,8.214664774368382E-12,1151.6497785897518,-4.12643045771534,6.773593046393915,3.679417559650741
2160.0,-3270364.996709366,-5005069.797913494,-3137237.4958652933,3374765.082582596,-4933726.288458371,-3139677.6183402794,3007.967992338131,5146.638566662712,-4853.705170382026,-4.370203381855629,6.389003910894614,4.065773293798237,6758662.11726374,1.180829138937088,3.0677004742223493,1.524044232443464,3.118820279168995,-2.432759813915075,0.45076786060571944,-1.0081128249526874,-1.9798957083974874E-5,-0.0012831405439071072,-2.632647692953039E-5,378404.68604187644,7.990797330743899E-12,1146.708097622309,-4.370203381855629,6.389003910894614,4.065773293798237
2220.0,-2930645.1423243727,-5029701.967899779,-3420771.4742499865,3547239.6463320907,-4613672.094123312,-3423358.1487428914,2738.950457279654,5517.689681436372,-4598.638643353695,-4.593553405591957,5.974546766852592,4.433131124642006,6758662.117263673,1.1852044081852489,2.9995761252645208,1.5328533683266323,3.051671297103556,-2.4067544782470636,0.5077010576461524,-0.9491759748463077,-1.9798957083974874E-5,-0.0012925194668587344,-2.878086700071169E-5,379278.2060185055,7.750263624187151E-12,1141.2102168894198,-4.593553405591957,5.974546766852592,4.433131124642006
2280.0,-2577450.9544826597,-5034023.189671532,-3688364.4536943166,3703183.8612840744,-4272117.909213144,-3691085.6261397623,2457.1711137490524,5863.025703916536,-4322.14400537565,-4.7954303342598115,5.532170310947402,4.779763749511321,6758662.117263677,1.1895796774333782,2.8905768817346678,1.54189911502703,2.9434895924661517,-2.375665083410382,0.5633779517439506,-0.8859658906028752,-1.9798957083974874E-5,-0.0012998158252451077,-3.166210530883818E-5,380202.9525460721,7.497385709869449E-12,1135.196403339046,-4.7954303342598115,5.532170310947402,4.779763749511321
2340.0,-2212244.4221518654,-5018125.2403519545,-3938769.6720502633,3841871.254959426,-3910655.664391927,-3941612.661784278,2163.947309993982,6181.03327907144,-4025.5141409202506,-4.974886183851123,5.063955958822987,5.1040425542345105,6758662.117263601,1.1939549466814758,2.686102734777059,1.5507029223537636,2.7396810585436215,-2.338894931181678,0.6173149233387042,-0.8178196417618987,-1.9798957083974874E-5,-0.0013049278635484704,-3.493908745152844E-5,381162.0983757452,7.2363936148808206E-12,1128.7124239433438,-4.974886183851123,5.063955958822987,5.1040425542345105
2400.0,-1836544.537753807,-4982181.013232792,-4170820.749643883,3962656.0387146873,-3530970.2699728203,-4173772.308695902,1860.6500908348476,6470.227665997848,-3710.1364916838425,-5.1310797732117335,4.572107686123095,5.404445518841243,6758662.117263363,1.1983302159295892,2.221190772745969,1.557824939142028,2.275291530686623,-2.295809668694346,0.6689626970468345,-0.7440426573123586,-1.9798957083974874E-5,-0.001307783814605332,-3.8573055314180385E-5,382138.6327438597,6.971326792613337E-12,1121.8095674222493,-5.1310797732117335,4.572107686123095,5.404445518841243
2460.0,-1451920.8757384035,-4926443.230848812,-4383437.163678457,4064976.134779944,-3134831.6848394596,-4386483.538723768,1548.6976653138167,6729.259771189938,-3377.4864373293362,-5.263280770523253,4.058941252932037,5.679564576541217,6758662.11726312,1.2027054851776549,1.3632294107989875,1.558940066236751,1.4177208528623277,-2.2457754487602037,0.7177023847511083,-0.6639463946551069,-1.9798957083974874E-5,-0.0013083431103744646,-4.2518317264655494E-5,383115.6752710489,6.705955096179737E-12,1114.5445319824348,-5.263280770523253,4.058941252932037,5.679564576541217
2520.0,-1059986.9211670435,-4851242.83587575,-4575629.312877419,4148355.8044092823,-2724086.583110085,-4578756.309554757,1229.5486484703015,6956.92251827332,-3029.1202520910083,-5.370873172672564,3.5268728718284583,5.92811238637104,6758662.11726289,1.207080754425705,0.7830684959920938,1.5528642008243134,0.8378327645813335,-2.1882237663483632,0.7628461127084765,-0.5769126898919134,-1.9798957083974874E-5,-0.0013065970562009955,-4.672310936018339E-5,384076.78388482245,6.443718399035897E-12,1106.979081916612,-5.370873172672564,3.5268728718284583,5.92811238637104
2580.0,-662393.1781890418,-4756987.069870706,-4746503.148007747,4212407.864623401,-2300649.6593207396,-4749696.197295379,904.6951118209113,7152.156522710728,-2666.6676735157757,-5.453358199741057,2.9784073830443027,6.148928483713045,6758662.117263031,1.211456023673723,0.5328044910535358,1.5443199963183376,0.587739815994306,-2.12274999014991,0.8036461706890824,-0.48249180065009434,-1.9798957083974874E-5,-0.0013025689441086732,-5.1130578543994816E-5,385006.2511237939,6.187682135342382E-12,1099.1793385541841,-5.453358199741057,2.9784073830443027,6.148928483713045
2640.0,-260820.08944515832,-4644157.25121283,-4895264.346160917,4256835.483128504,-1866494.6146767882,-4898508.572494879,575.6554780767626,7314.055043880351,-2291.8241216407446,-5.510356590589523,2.4161260030009983,6.340984776951879,6758662.1172630545,1.2158312929217412,0.40515313049097224,1.535326003276163,0.46017571067283797,-2.0492465903134005,0.8393177513871993,-0.38053513594471394,-1.9798957083974874E-5,-0.001296313603830439,-5.5679864692503526E-5,385889.3835088325,5.940504838145584E-12,1091.2145468341118,-5.510356590589523,2.4161260030009983,6.340984776951879
2700.0,143029.20159355662,-4513306.264870616,-5021222.009020368,4281433.54315029,-1423644.86845792,-5024502.299830335,243.96729635750148,7441.868190977304,-1906.3426086846393,-5.541610289329867,1.8426737147467471,6.503390362802129,6758662.117263076,1.2202065621697118,0.3271254096412729,1.526491265025695,0.38217094362282106,-1.968057878816703,0.8690802720616405,-0.27134948387684454,-1.9798957083974874E-5,-0.001287916413449702,-6.0307255574654475E-5,386712.7590784521,5.704413656481582E-12,1083.1551765771153,-5.541610289329867,1.8426737147467471,6.503390362802129
2760.0,547436.2125313648,-4365055.777806097,-5123791.8677928755,4286089.572114102,-974164.0399493171,-5127092.944124755,-88.82006534097941,7535.006363349631,-1512.0253808472037,-5.546983516331778,1.2607463705282957,6.635395637271546,6758662.117263363,1.2245818314176822,0.2729688819229221,1.518093026553244,0.3279937176388064,-1.8801205710602102,0.8922194462042758,-0.1558370408397459,-1.9798957083974874E-5,-0.0012774918124241043,-6.494738752876761E-5,387464.4586663513,5.481185261560839E-12,1075.070314944095,-5.546983516331778,1.2607463705282957,6.635395637271546
2820.0,950674.5747476022,-4200093.194922555,-5202498.980015197,4270784.230315263,-520146.247308912,-5205805.467904691,-421.1527734032763,7593.042910135684,-1110.715335054829,-5.526463221262212,0.6730775778897322,6.736395683772875,6758662.117263259,1.228957100665621,0.2318086737900006,1.5103076707831242,0.2867905560346773,-1.7870319704747262,0.9081654842382759,-0.03556303979400129,-1.9798957083974874E-5,-0.0012651813764561573,-6.953446498176521E-5,388134.2670382748,5.27213258810226E-12,1067.0245086695738,-5.526463221262212,0.6730775778897322,6.736395683772875
2880.0,1351017.5429795391,-4019168.371467002,-5256979.906046445,4235591.35794974,-63706.27055876816,-5260276.408304816,-751.4798905178667,7615.715998373313,-704.2872544637582,-5.480158919469667,0.0824254412960591,6.805932924511734,6758662.11726323,1.2333323699135281,0.1983279283959746,1.503268517811196,0.2532663317506921,-1.6909843927581345,0.9165730685991779,0.08731040932555204,-1.9798957083974874E-5,-0.001251151524762424,-7.40034736695097E-5,388713.8405904377,5.07810171436297E-12,1059.0744947570558,-5.480158919469667,0.0824254412960591,6.805932924511734
2940.0,1746745.52760198,-3823090.0987018696,-5286984.355703998,4180677.581091678,393030.37359064387,-5290255.523775882,-1078.2607094010734,7602.929683073221,-294.63890722384366,-5.408301916768227,-0.5084407686572566,6.843699025926726,6758662.117263331,1.2377076391614352,0.169618514536431,1.4970836034037458,0.22453455860275232,-1.5945401306902873,0.9173809445996092,0.2102499689315821,-1.9798957083974874E-5,-0.0012355909350816121,-7.829136523938286E-5,389196.83892703167,4.89948593563053E-12,1051.266504449275,-5.408301916768227,-0.5084407686572566,6.843699025926726
3000.0,2136153.615315563,-3612722.3804632253,-5292376.298185686,4106301.4794056905,847937.3971140741,-5295606.903739107,-1399.972021868184,7554.75417706511,116.3179465790641,-5.311243931302547,-1.096753946862766,6.849536053577574,6758662.1172633665,1.2420829084093103,0.14393916375585544,1.4918418732995546,0.1988751166956955,-1.5002908274747877,0.9108300303544344,0.3306923468292524,-1.9798957083974874E-5,-0.0012187077403175092,-8.23381943823976E-5,389579.0182786972,4.736263349874598E-12,1043.6348654372985,-5.311243931302547,-1.096753946862766,6.849536053577574
3060.0,2517559.0440313774,-3388980.518923174,-5273134.531118164,4012812.320552848,1298897.6982702627,-5276309.537029004,-1715.1152874249212,7471.425322689642,526.6665947450996,-5.189455124667881,-1.6797624155468291,6.823436876434044,6758662.11726328,1.246458177657154,0.12016114839941328,1.4876154277964906,0.17517953359984229,-1.410506806407891,0.8974316796319373,0.4463956460993686,-1.9798957083974874E-5,-0.0012007265738120582,-8.608819325800646E-5,389858.2853814658,4.588059056302561E-12,1036.202345052307,-5.189455124667881,-1.6797624155468291,6.823436876434044
3120.0,2889308.597991525,-3152827.02846166,-5229352.707271162,3900648.3683721875,1743813.2637041025,-5232457.337667971,-2022.2236663830433,7353.343271605546,934.4944146209858,-5.043521557780214,-2.254743047219356,6.765544824976548,6758662.117263213,1.2508334469049975,0.09749430357337462,1.4844602809488818,0.15267663249983307,-1.3268876373960143,0.8778959729619471,0.5556895110007257,-1.9798957083974874E-5,-0.0011818855192412506,-8.949077126134491E-5,390034.7111005494,4.4542253698384716E-12,1028.9821466768099,-5.043521557780214,-2.254743047219356,6.765544824976548
3180.0,3249785.8895847737,-2905267.397038556,-5161238.820159992,3770334.7739920574,2180614.967829417,-5164258.629200377,-2319.8688835286225,7201.0703830716375,1337.9018720684912,-4.874142090117593,-2.8190141815402034,6.6761526118241665,6758662.117262987,1.2552087161527934,0.07533850366870895,1.4824165472523203,0.13078366541822212,-1.2504702041221911,0.8530425012034867,0.6575678034169924,-1.9798957083974874E-5,-0.0011624330077555504,-9.250143074475966E-5,390110.50375245954,4.333927528951219E-12,1021.9809570669004,-4.874142090117593,-2.8190141815402034,6.6761526118241665
3240.0,3597418.4949014364,-2647345.7148315795,-5069114.152412005,3622481.0610272344,2607272.2230116664,-5072035.091468758,-2606.6678895774344,7015.3283550268325,1735.011433857426,-4.682124743859268,-3.3699482712763054,6.555700527735577,6758662.11726292,1.2595839854005895,0.05319475706206513,1.4815084281170254,0.10901710157866198,-1.1816785764279405,0.8237166822329144,0.7516395021048444,-1.9798957083974874E-5,-0.0011426246911373406,-9.508259087645885E-5,390089.9427433519,4.226221560343036E-12,1015.2022112234533,-4.682124743859268,-3.3699482712763054,6.555700527735577
3300.0,3930684.9108182783,-2380140.190170108,-4953411.6933771055,3457778.2179432116,3021802.435043033,-4956220.176320661,-2881.289289023952,6796.994606099331,2123.9763504897696,-4.468382557123467,-3.904984195270695,6.404773929748422,6758662.117262911,1.2639592546483536,0.030604753641764227,1.4817441565481895,0.08693191086010982,-1.1204572530877275,0.7907260534587912,0.8379962548608163,-1.9798957083974874E-5,-0.0011227203072484847,-9.720431229758373E-5,389979.27379438916,4.1301151301189085E-12,1008.6488624039229,-4.468382557123467,-3.904984195270695,6.404773929748422
3360.0,4248121.302299164,-2104758.5729606384,-4814674.035009837,3276995.412508982,3422280.2196015823,-4817357.001283582,-3142.459504518052,6547.097930309989,2502.989267578237,-4.233928952920389,-4.421639179434822,6.224100041895439,6758662.117262981,1.268334523896086,0.007101927683745028,1.4831159614693386,0.0640724089194686,-1.0664270530820916,0.7548005062372137,0.9170572993687559,-1.9798957083974874E-5,-0.0011029805444529403,-9.884491469752389E-5,389786.56766658154,4.044608381219411E-12,1002.3252728542766,-4.233928952920389,-4.421639179434822,6.224100041895439
3420.0,4548328.009637465,-1822333.5058585552,-4653550.757521471,3080976.3450005446,3806846.3367950735,-4656095.732717821,-3388.9686495639553,6266.81344967449,2870.290625233786,-3.979872652596563,-4.917520270167942,6.01454409235717,6758662.117263096,1.2727097931452471,-0.01783751032602613,1.4856000584145408,0.03992312033445926,-1.0190237889903886,0.7165732644459472,0.989431611825508,-1.9798957083974874E-5,-0.0010836639061750394,-9.999147810491118E-5,389521.5449125331,3.968716823409325E-12,996.2381717796491,-3.979872652596563,-4.917520270167942,6.01454409235717
3480.0,4829975.786562572,-1534017.8233537425,-4470795.318687475,2870635.2584579643,4173716.3025011257,-4473190.472345197,-3619.6760831233405,5957.4568931356625,3224.1768064424577,-3.7074121644319056,-5.390335308252473,5.777104814041049,6758662.1172630545,1.2770850623929477,-0.04485463714871858,1.4891566276548065,0.013848597008258396,-0.9776032534104188,0.676576606431865,1.05581374449778,-1.9798957083974874E-5,-0.00106502357591598,-1.0064021696620188E-4,389195.36977318866,3.901480932565129E-12,990.3968390122834,-3.7074121644319056,-5.390335308252473,5.777104814041049
3540.0,5091811.741378989,-1240979.8189314406,-4267261.462985538,2646952.6258273115,4521188.63701171,-4269495.6633428745,-3833.51562159221,5620.478233260637,3563.0079971192085,-3.41782987966435,-5.837903355126271,5.512909338416945,6758662.117263052,1.2814603316406326,-0.07479393845749857,1.493729680336421,-0.014992770849936256,-0.9415117711758341,0.6352464997743525,1.1169140915449307,-1.9798957083974874E-5,-0.0010473042869610831,-1.0079671442250801E-4,388820.4168900506,3.841967525609168E-12,984.8127514613288,-3.41782987966435,-5.837903355126271,5.512909338416945
3600.0,5332664.954828715,-944398.5000100461,-4043899.168921807,2410970.535231422,4847652.713461259,-4045962.0343749705,-4029.5003855989603,5257.454714901849,3885.2157223924796,-3.112485809556147,-6.25816452744672,5.2232075149712465,6758662.117263064,1.2858356008883016,-0.10884093003872072,1.4992466045290815,-0.047786393365988784,-0.910128760827552,0.5929317392252993,1.1734171327564502,-1.9798957083974874E-5,-0.0010307392091498636,-1.0047600310841685E-4,388410.0150118619,3.789267161934642E-12,979.4989180729528,-3.112485809556147,-6.25816452744672,5.2232075149712465
3660.0,5551451.749796101,-645458.8502573845,-3801750.1549679246,2163787.795906301,5151596.170645037,-3803632.102000765,-4206.7272611233475,4870.083312545526,4189.310025684328,-2.7928109981903404,-6.649189199991088,4.909365690866286,6758662.117263071,1.2902108701359387,-0.14876052567682382,1.5056169558728492,-0.08629981824263257,-0.882889332810106,0.54990473830134,1.2259596229754401,-1.9798957083974874E-5,-0.0010155468764209477,-9.970247876316067E-5,387978.17232666945,3.742490619934265E-12,974.4690775455048,-2.7928109981903404,-6.649189199991088,4.909365690866286
3720.0,5747180.58966541,-345347.11834706215,-3541942.96647497,1906554.7885055987,5431611.857109048,-3543635.2538428307,-4364.380956539982,4460.17265534032,4473.886259284557,-2.4603006464906354,-7.009186541135876,4.572859987302128,6758662.11726319,1.29458613938356,-0.19734018302260467,1.5127295345435743,-0.13332580051669266,-0.8592939114373772,0.5063723593559948,1.2751217388560498,-1.9798957083974874E-5,-0.0010019281919378573,-9.850963435403466E-5,387539.2884399519,3.7007663788761204E-12,969.7368750673434,-2.4603006464906354,-7.009186541135876,4.572859987302128
3780.0,5918956.58383501,-45246.15177600821,-3265687.6677388367,1640468.0845164352,5686404.275792186,-3267182.436707686,-4501.737639341074,4029.6344608184,4737.63145735634,-2.116506983520179,-7.336512349388889,4.21526911068474,6758662.117263037,1.2989614086311496,-0.2592750452703175,1.5204454747668723,-0.1935673258725378,-0.8389100718465929,0.46248599457249806,1.3214259952646656,-1.9798957083974874E-5,-9.900635607357692E-4,-9.693960550331038E-5,387107.8583292919,3.663240170109183E-12,965.3150858683075,-2.116506983520179,-7.336512349388889,4.21526911068474
3840.0,6065985.580690315,253669.20619726751,-2974270.1650672513,1366764.8604389802,5914795.501018518,-2975560.4755281024,-4618.168138463696,3580.4745200865787,4979.330264638825,-1.7630319214291466,-7.6296761636613,3.838266738006429,6758662.117262905,1.3033366778787392,-0.3430771459600742,1.528581429343051,-0.275546658444461,-0.8213701005147347,0.41835060516923417,1.3653404325223497,-1.9798957083974874E-5,-9.801102112010588E-4,-9.504252282450449E-5,386698.17383350537,3.629077048113698E-12,961.214918792035,-1.7630319214291466,-7.6296761636613,3.838266738006429
3900.0,6187577.830196451,550236.6390595814,-2669046.1882278984,1086717.1331605415,6115730.54224867,-2670126.0505261207,-4713.140700335014,3114.783278777574,5197.8703965072355,-1.401519530518606,-7.8873476241442635,3.443613516863572,6758662.11726302,1.307711947126297,-0.465515650446787,1.5368657531737715,-0.39604539050672427,-0.8063664956415626,0.37403269284180163,1.407283875489607,-1.9798957083974874E-5,-9.721997746186206E-4,-9.287567313353022E-5,386324.02835845546,3.5974660109114034E-12,957.4454111110763,-1.401519530518606,-7.8873476241442635,3.443613516863572
3960.0,6283151.20019106,843310.7822380469,-2351434.9590465273,801625.8436037125,6288282.131696832,-2352299.361385878,-4786.223288934735,2634.726059316506,5392.247608500732,-1.033648370773416,-8.108362064740584,3.03314872127533,6758662.117263119,1.312087216373823,-0.6622352262179462,1.5448136234428411,-0.5907225901768515,-0.7936467297218576,0.32956730371341764,1.4476319681405607,-1.9798957083974874E-5,-9.664361951290096E-4,-9.05024790070631E-5,385998.43050510035,3.5676269039239054E-12,954.0129132571731,-1.033648370773416,-8.108362064740584,3.03314872127533
4020.0,6352233.93242426,1131767.5349668472,-2022912.5771597826,512814.81624366704,6431654.9156859685,-2023557.508461728,-4837.0854223456045,2142.5329710818087,5561.570155914134,-0.6611237159146025,-8.291725321988952,2.6087816049476977,6758662.1172630135,1.3164624856213492,-1.0062237538407655,1.5513621876872912,-0.9325822628383547,-0.7830080187606447,0.2849642116275349,1.4867232746727521,-1.9798957083974874E-5,-9.628940398622329E-4,-8.799131423302017E-5,385733.3322316747,3.5388191225848285E-12,950.9206557779341,-0.6611237159146025,-8.291725321988952,2.6087816049476977
4080.0,6394466.926396475,1414508.2435890785,-1685005.1540176761,221624.6224777033,6545189.032432368,-1685427.6221376695,-4865.499540413605,1640.4885558249787,5705.062726555419,-0.2856697055509192,-8.436617749267295,2.172482493870427,6758662.117263129,1.3208377548688435,-1.5599551115636208,1.5542510229492887,-1.4841158631458562,-0.7742924882995976,0.24021343259975556,1.5248651025914468,-1.9798957083974874E-5,-9.616172705191506E-4,-8.541418063013614E-5,385539.37695109285,3.510351459241695E-12,948.1683880892641,-0.2856697055509192,-8.436617749267295,2.172482493870427
4140.0,6409605.541077222,1690463.741878507,-1339281.7271685011,-70593.62391146319,6628363.061809143,-1339479.7723923628,-4871.341900255846,1130.9212162769065,5822.06983228714,0.09097853961305925,-8.542397428765769,1.7262736601584399,6758662.117263219,1.325213024116306,-2.1210631980691868,1.5516173577438175,-2.04297602583102,-0.7673829200100819,0.19529020798965788,1.5623389200219702,-1.9798957083974874E-5,-9.626185237055977E-4,-8.284527876121414E-5,385425.6726319096,3.4815923097440673E-12,945.7520776192914,0.09097853961305925,-8.542397428765769,1.7262736601584399
4200.0,6397520.906645634,1958598.2348279469,-987346.9876457647,-362484.5108234304,6680796.335528988,-987319.6914109528,-4854.592998429997,616.1924762108189,5912.058647479792,0.46708280530724244,-8.608602577242921,1.272220018868458,6758662.117263174,1.3295882933637686,-2.474267532556486,1.5452202552617196,-2.3939018581174563,-0.7621991496715372,0.15015957283256903,1.5994053628250304,-1.9798957083974874E-5,-9.658789289915263E-4,-8.035951054003793E-5,385399.5945262861,3.4519793659694605E-12,943.6636574834223,0.46708280530724244,-8.608602577242921,1.272220018868458
4260.0,6358200.740456442,2217913.013235253,-630833.8539149454,-652694.5830539339,6702250.599084286,-630581.3427232894,-4815.337520605486,98.68612037002937,5974.621284999002,0.8409096406205445,-8.634953144936821,0.8124196891758861,6758662.1172630405,1.3339635626111994,-2.6763552756042426,1.5373771519665582,-2.593700640773686,-0.7586951314431449,0.10478060437416419,1.63630889317929,-1.9798957083974874E-5,-9.713484726032431E-4,-7.803095509411622E-5,385466.62158580386,3.4210278791389707E-12,941.8908100080699,0.8409096406205445,-8.634953144936821,0.8124196891758861
4320.0,6291749.663508294,2467449.9873257005,-271395.9263251929,-939878.5803794815,6692631.019687715,-270919.37083545927,-4753.763821549936,-419.20273738919,6009.476502817737,1.2107381519285023,-8.621351610166949,0.348994460789307,6758662.117262831,1.3383388318585985,-2.802143052447021,1.529190995290315,-2.717209323039127,-0.7568566609938954,0.05911042742146659,1.6732822033517556,-1.9798957083974874E-5,-9.789468928311515E-4,-7.593136017934975E-5,385630.2099665513,3.3883365888451477E-12,940.4167715712988,1.2107381519285023,-8.621351610166949,0.348994460789307
4380.0,6198389.015759551,2706295.0285806,89300.1436465068,-1222705.6304640672,6651986.537352045,89998.53433610455,-4670.1629401560995,-935.0786096322889,6016.47083677824,1.574867702457096,-8.567882975135301,-0.1159197941540619,6758662.11726271,1.3427141011059978,-2.88852618818691,1.5211587544891678,-2.8013434246575755,-0.7566997465632375,0.013108039141250324,1.7105504708528019,-1.9798957083974874E-5,-9.88565072703876E-4,-7.412868989450342E-5,385891.70627944387,3.3536605303024523E-12,939.2248987103214,1.574867702457096,-8.567882975135301,-0.1159197941540619
4440.0,6078456.170693112,2933581.109879095,449582.3348751367,-1499865.368878642,6580509.559120194,450499.32372279395,-4564.927156086794,-1446.5565668660565,5995.5791574218465,1.9316254871965188,-8.47481397123009,-0.5801827242123312,6758662.117262775,1.347089370353365,-2.9528271269245785,1.5135536960838682,-2.8634451209101033,-0.7582696231915791,-0.033261993073644434,1.7483355727653593,-1.9798957083974874E-5,-0.0010000668781250995,-7.268576563336138E-5,386250.3024240545,3.317092528126568E-12,938.3111440366102,1.9316254871965188,-8.47481397123009,-0.5801827242123312
4500.0,5932403.351578556,3148491.23500628,807780.9542531089,-1770073.9589724757,6478534.999305194,808912.2914946127,-4438.548096395468,-1951.2730979276953,5946.904651149049,2.2793739539959166,-8.342591484730637,-1.0416590781157546,6758662.117262826,1.3514646396007006,-3.0038112066934253,1.5065567771515411,-2.9122986866973584,-0.7616404153180983,-0.08002591106749984,1.7868603626352522,-1.9798957083974874E-5,-0.0010132913769710014,-7.165903159574865E-5,386703.03298496956,3.278853900768498E-12,937.6705444157876,2.2793739539959166,-8.342591484730637,-1.0416590781157546
4560.0,5760795.953895264,3350261.1495334688,1162236.3160875815,-2032079.9848885473,6346538.671401877,1163576.7591087755,-4291.614402199984,-2446.8968528559953,5870.678228267569,2.6165180428155392,-8.171840216250319,-1.4982282228304729,6758662.117262912,1.3558399088480522,-3.0463033188479507,1.5003026448526564,-2.9527468328052793,-0.7669154625241805,-0.12719717236715086,1.82635310517012,-1.9798957083974874E-5,-0.0010280553675076328,-7.109746938242294E-5,387244.8152785073,3.239229076265685E-12,937.2934437184899,2.6165180428155392,-8.171840216250319,-1.4982282228304729
4620.0,5564310.380374649,3538181.826025874,1511306.3689963059,-2284670.1916703205,6185135.040092204,1512849.7067621665,-4124.808967130653,-2931.13922272543,5767.257362721289,2.9415122162695244,-7.963359589511056,-1.9477935633971037,6758662.117262822,1.360215178095356,-3.0831677308574195,1.4948973096391842,-2.9876702181013357,-0.774228328824576,-0.1747728281749315,1.8670521521274979,-1.9798957083974874E-5,-0.0010441561431491363,-7.104167893443271E-5,387868.53125187935,3.1985547628475575E-12,937.1655819510732,2.9415122162695244,-7.963359589511056,-1.9477935633971037
4680.0,5343731.397081041,3711601.7174729933,1853374.2364213045,-2526675.047157044,5995074.344467679,1855113.318346829,-3938.9057608527105,-3401.7647119244957,5637.124370474304,3.252867255750692,-7.718119927155745,-2.3882918287206016,6758662.117263067,1.3645904473426438,-3.11622342506916,1.49042548069119,-3.01890249531388,-0.7837445134109086,-0.22272980862266892,1.909210925018626,-1.9798957083974874E-5,-0.001061374424622393,-7.152313604241724E-5,388565.1495711619,3.157199010647731E-12,937.2676358673928,3.252867255750692,-7.718119927155745,-2.3882918287206016
4740.0,5099949.020871956,3869928.7737745014,2186855.637361992,-2756974.1012092703,5777239.10622898,2188782.406490534,-3734.766252470633,-3856.6010594811323,5480.8841356406165,3.54915679858514,-7.437257913279225,-2.8177021885015394,6758662.117263245,1.3689657165913447,3.136483597395854,1.4869537553423944,-3.0476876520421596,-0.7956638643006068,-0.2710210392505854,1.9531032416263492,-1.9798957083974874E-5,-0.0010794773990407429,-7.256363044969141E-5,389323.8854148141,3.1155080545358663E-12,937.5725193543838,3.54915679858514,-7.437257913279225,-2.8177021885015394
4800.0,4833954.9504244,4012632.2170849354,2510206.154535116,-2974501.1187376324,5532640.039192549,2512311.6848708373,-3513.3354500602813,-4293.549067275219,5299.26129551261,3.829023592804243,-7.122071364206559,-3.2340551675202525,6758662.117263272,1.373340985838585,3.10769257676854,1.4845320265530195,-3.074926280173546,-0.8102236568942948,-0.3195712994440664,1.99902897499105,-1.9798957083974874E-5,-0.0010982218168036659,-7.417488364110977E-5,390132.39473919803,3.07379240052434E-12,938.0454034725183,3.829023592804243,-7.122071364206559,-3.2340551675202525
4860.0,4546838.55495614,4139244.072581373,2821928.3178989887,-3178248.9640246592,5262411.378921697,2824202.8557218597,-3275.637573946087,-4710.592094323134,5093.09689763197,4.09118544725126,-6.774013330796711,-3.635441324515783,6758662.11726302,1.3777162550858253,3.079896475373808,1.4831940961750394,-3.1013187301696945,-0.827702222748493,-0.3682727212929774,2.0473199509827977,-1.9798957083974874E-5,-0.0011173571099825773,-7.635834197982871E-5,390976.9991141547,3.0335383383543248E-12,938.734076263792,4.09118544725126,-6.774013330796711,-3.635441324515783
4920.0,4239782.436359953,4249360.452376176,3120578.4723245907,-3367274.2149254153,4967805.653706117,3123011.481298883,-3022.771382643989,-5105.805177765531,4863.344543987215,4.334440855850183,-6.394685557209444,-4.020019663925978,6758662.117262992,1.3820915243330338,3.0525093813008866,1.4829579354602223,-3.1274563094528056,-0.8484228778430262,-0.41697982043151427,2.09834585128669,-1.9798957083974874E-5,-0.0011366285082399549,-7.910513894177881E-5,391842.936658848,2.9964408197656938E-12,939.7032075797852,4.334440855850183,-6.394685557209444,-4.020019663925978
4980.0,3914057.582385088,4342642.590911405,3404773.3991570533,-3540701.4867055407,4650187.920430659,3407353.609027592,-2755.90517162778,-5477.363742734393,4611.0660392900145,4.557674275958295,-5.985831322662249,-4.38602574977545,6758662.117263,1.3864667935802266,3.024985783498204,1.483825795457627,3.1292981183737725,-0.8727576711773253,-0.46550395667084826,2.152519658909599,-1.9798957083974874E-5,-0.0011557801388195838,-8.239621961885521E-5,392714.6341501108,2.963971299929863E-12,941.0037201639748,4.557674275958295,-5.985831322662249,-4.38602574977545
5040.0,3571018.130048405,4418817.631194511,3673196.662482861,-3697727.446520254,4311029.491094914,3675912.121137531,-2476.2714662498074,-5823.551864912903,4337.426562099825,4.759861041803733,-5.549327694240935,-4.731779492012599,6758662.117262935,1.3908420628273876,2.9967637815319206,1.4857842522426405,3.102012192616492,-0.9011301069516097,-0.5136071552267478,2.210301815836833,-1.9798957083974874E-5,-0.0011745581045124152,-8.620262107154525E-5,393575.99503308436,2.93749614772623E-12,942.6814259229558,4.759861041803733,-5.549327694240935,-4.731779492012599
5100.0,3212095.7600975325,4477679.162019457,3924604.6520943725,-3837624.500852065,3951901.1778641203,3927442.7807565467,-2185.16143125334,-6142.770051331303,4043.6893793142226,4.940071895083166,-5.087177220329398,-5.055692576606936,6758662.117262969,1.3952173320745327,2.96720503164693,1.488804200067578,3.073235871771589,-0.9340154271086978,-0.5609953017170887,2.2722016968926297,-1.9798957083974874E-5,-0.0011927135369281412,-9.048590305899698E-5,394410.6978379632,2.9183211124992644E-12,944.7800727512008,4.940071895083166,-5.087177220329398,-5.055692576606936
5160.0,2838793.744874477,4519087.507144919,4157832.2964265663,-3959744.1396008544,3574466.086545929,4160779.9477272606,-1883.9190203586581,-6433.542506759049,3731.210126234941,5.097477115858955,-4.601499095701283,-5.356275511731031,6758662.117263108,1.399592601321678,2.9355177073715866,1.4928407410688058,3.0421831393622836,-0.9719362134942944,-0.6073108916748313,2.3387741775830286,-1.9798957083974874E-5,-0.0012100056215680864,-9.519872466803246E-5,395202.49939846585,2.9077238059476704E-12,947.3431873833001,5.097477115858955,-4.601499095701283,-5.356275511731031
5220.0,2452680.673389326,4542969.768199311,4371798.4201196395,-4063519.9219610393,3180471.990288881,4374841.93878643,-1573.934890383539,-6694.523854961615,3401.430676049632,5.231350237969284,-4.094519830783276,-5.632144263366512,6758662.117263132,1.4039678705687753,2.9006420285546777,1.4978328302309831,3.0078027597723813,-1.0154499504823449,-0.6521258201541672,2.410607956500608,-1.9798957083974874E-5,-0.0012262045862844683,-1.0028556293227207E-4,395935.53727020335,2.9069830698470513E-12,950.4153347669511,5.231350237969284,-4.094519830783276,-5.632144263366512
5280.0,2055383.8788000394,4549319.623854436,4565510.722339262,-4148470.0907137133,2771743.317083262,4568636.008227287,-1256.6401052742053,-6924.50528608443,3055.872624137719,5.341071334246575,-3.5685634590693147,-5.882026454709566,6758662.117262958,1.4083431398158728,2.861061511681166,1.503702366659828,2.968589393958089,-1.0651238648105805,-0.6949352047026901,2.4883009697091296,-1.9798957083974874E-5,-0.0012410946364025514,-1.0568356929136315E-4,396594.62585346797,2.9174053205185434E-12,954.0427845134661,5.341071334246575,-3.5685634590693147,-5.882026454709566
5340.0,1648582.5947939358,4538196.888565286,4738070.353554424,-4214199.803112189,2350172.7863068255,4741262.926734234,-933.4996562716627,-7122.4201035081,2696.130414114944,5.426129857946767,-3.026041318139638,-6.104767104808251,6758662.11726286,1.4127184090629386,2.814465647399447,1.510352058764176,2.9222460895726257,-1.121491190685072,-0.7351540050417724,2.572417066388944,-1.9798957083974874E-5,-0.001254476809166464,-1.1132355843428978E-4,397165.54092662426,2.9403439640447548E-12,958.2732866118188,5.426129857946767,-3.026041318139638,-6.104767104808251
5400.0,1234000.8685916825,4509726.834895751,4888676.070129676,-4260402.968134204,1917712.731092443,4891921.137737363,-606.0058252202741,-7287.3486456934,2323.864133972007,5.486127027931594,-2.469441441231142,-6.2993338829646195,6758662.117262749,1.4170936783099726,2.7571013002765143,1.5176605195815158,2.865035443281028,-1.184982877853441,-0.772119232694962,2.663417984764586,-1.9798957083974874E-5,-0.0012661717086541416,-1.1713112161018469E-4,397635.2875797511,2.9772048889190973E-12,963.1544618229357,5.486127027931594,-2.469441441231142,-6.2993338829646195
5460.0,813400.2594202681,4464099.284160038,5016627.947831519,-4286863.681518911,1476366.1446970266,5019910.472378364,-275.6714187378177,-7418.522560794134,1940.7920120374652,5.520777746324665,-1.9013175978067378,-6.464821856576769,6758662.117262698,1.4214689475570224,2.6824290099403347,1.5254707530122404,2.790435618483314,-1.25583129886994,-0.8051016542573775,2.761567205565498,-1.9798957083974874E-5,-0.0012760220714602476,-1.2302785296701698E-4,397992.34689918486,3.029428741038755E-12,968.7302326623067,5.520777746324665,-1.9013175978067378,-6.464821856576769
5520.0,388572.3523381054,4401567.470785693,5121330.63716971,-4293457.25168659,1028177.4903131869,5124635.406001734,55.977098393809236,-7515.328414169672,1548.6826437975883,5.529912038601041,-1.3242780230938556,-6.60045771131362,6758662.117262593,1.4258442168040246,2.578119897311307,1.5335615163141463,2.6861369274357956,-1.3339499274022997,-0.8333315591617311,2.866809675267801,-1.9798957083974874E-5,-0.0012838951048404054,-1.2893267315779023E-4,398226.89717084053,3.098440586800012E-12,975.0348918579884,5.529912038601041,-1.3242780230938556,-6.60045771131362
5580.0,-38668.881764895115,4322446.686463957,5202296.145391797,-4280150.8113613045,575223.3148850247,5205607.840984026,387.40654169441217,-7577.310611372533,1149.346981834618,5.513476007369826,-0.7409738780885696,-6.705603423799292,6758662.117262576,1.430219486051027,2.4189667552758913,1.5415698088030794,2.526952563513831,-1.4188067386862138,-0.8560424041325378,2.978645169777174,-1.9798957083974874E-5,-0.0012896845340314954,-1.3476322974689668E-4,398331.0058440864,3.1855620663858057E-12,982.0849931396071,5.513476007369826,-0.7409738780885696,-6.705603423799292
5640.0,-466494.8483419816,4227112.710782758,5259146.131919896,-4247003.511463003,119602.70845915683,5262449.402685875,717.0839879013112,-7604.173621721931,744.6301222934218,5.47153229248332,-0.15408748305397904,-6.7797593683732345,6758662.117262765,1.4345947552979816,2.1516867892052374,1.5487660240834553,2.25962095635455,-1.5093269874707183,-0.8725327494560678,3.0960309724984505,-1.9798957083974874E-5,-0.0012933122951451308,-1.4043734936135724E-4,398298.7890101157,3.2918921562793797E-12,989.8702987132285,5.47153229248332,-0.15408748305397904,-6.7797593683732345
5700.0,-893070.181158305,4116000.0356477415,5291613.706052729,-4194166.295615716,-336572.3485829602,5294893.237346899,1043.4837685301002,-7595.783490201844,336.40292234759227,5.404260031567601,0.43367963093859785,-6.822566840977071,6758662.1172625795,1.4389700245449362,1.6932984369228081,1.5535044644195846,1.801182187575573,-1.6038737192491108,-0.8822403585994303,-3.0658230669419972,-1.9798957083974874E-5,-0.0012947298149112389,-1.4587451260314593E-4,398126.5356970232,3.4181787702532446E-12,998.3462228821438,5.404260031567601,0.43367963093859785,-6.822566840977071
5760.0,-1316560.6510701173,3989599.8913797135,5299544.717853483,-4121881.2554154512,-791186.7074108755,5302785.302842557,1365.0944459669847,-7552.168628141168,-73.44651589361148,5.311954316619542,1.019618806379127,-6.833809984829869,6758662.1172625795,1.443345293791875,1.102924086384847,1.5533369545583868,1.2107802939689525,-1.7003468018497696,-0.8848143259930693,-2.9426144463780552,-1.9798957083974874E-5,-0.0012939188285751957,-1.509973199666156E-4,397812.7948575646,3.564717265645559E-12,1007.4308230473814,5.311954316619542,1.019618806379127,-6.833809984829869
5820.0,-1735141.0981344501,3848458.0829337034,5282898.535294873,-4030480.5684137275,-1242131.7982596387,5286085.145374157,1680.4257417670476,-7473.519875937112,-483.02145872812576,5.195025143967938,1.6010264320963095,-6.8134171042988285,6758662.1172628645,1.447720563038782,0.6577353175787117,1.5483827164125055,0.7656080936217677,-1.7964041583417243,-0.8801660960710744,-2.819838807829729,-1.9798957083974874E-5,-0.0012908917017733204,-1.5573291577954985E-4,397358.4235179438,3.7313121278407985E-12,1017.008583099795,5.195025143967938,1.6010264320963095,-6.8134171042988285
5880.0,-2147003.353207137,3693172.645219996,5241748.3029334685,-3920385.022598229,-1687315.3597655392,5244866.157365373,1988.0153867228898,-7360.189833979653,-890.4252143842864,5.053995856650313,2.175216155546314,-6.761461355252862,6758662.117262891,1.4520958322856732,0.3995660672652662,1.541111961006425,0.5075199426109872,-1.8897548284175338,-0.86848314939661,-2.699755830900828,-1.9798957083974874E-5,-0.0012856912400229785,-1.6001433772754804E-4,396766.59516627726,3.917318134269595E-12,1026.9409148653622,5.053995856650313,2.175216155546314,-6.761461355252862
5940.0,-2550364.114949441,3524391.3270123466,5176280.679630256,-3792102.1329771373,-2124671.1061740154,5179315.314084932,2286.435862266213,-7212.691460905095,-1293.7698290124904,4.889501080115304,2.7395310844045406,-6.678160802223491,6758662.117262938,1.4564711015325642,0.24525949512967418,1.5330971270258114,0.3533782096899926,-1.9784365865789328,-0.850200605179101,-2.584297086839982,-1.9798957083974874E-5,-0.001278389988959091,-1.637817618481405E-4,396042.7680795678,4.1217446967755264E-12,1037.0805927906877,4.889501080115304,2.7395310844045406,-6.678160802223491
6000.0,-2943472.7480609114,3342808.9134095823,5086795.055106166,-3646223.8576980424,-2552168.2885094723,5089732.388788292,2574.3010028785784,-7031.695941357664,-1691.1847669181286,4.7022841541406155,3.291355926055189,-6.563877834896624,6758662.117263028,1.4608463707794237,0.1437949424702533,1.525034719252109,0.2521798685478927,-2.060999046739063,-0.8259402190829268,-2.474883065207195,-1.9798957083974874E-5,-0.0012690890478011193,-1.6698361680100838E-4,395194.6139098865,4.343381158255313E-12,1047.285908193198,4.7022841541406155,3.291355926055189,-6.563877834896624
6060.0,-3324618.968591851,3149164.39726925,4973702.247432756,-3483423.922944856,-2967821.106020266,4976528.64848407,2850.2724294219515,-6818.029828553673,-2080.825536429619,4.4931940659202265,3.8281290125061145,-6.4191179388086805,6758662.117263041,1.4652216400262512,0.07108921881663562,1.5172762217066909,0.17985745085499824,-2.1365600327819485,-0.7964351305372565,-2.3723668852094546,-1.9798957083974874E-5,-0.001257916435935461,-1.6957754635259624E-4,394231.90748368955,4.580897202185622E-12,1057.4309962032473,4.4931940659202265,3.8281290125061145,-6.4191179388086805
6120.0,-3692140.3823662074,2944238.0104604973,4837522.685875104,-3304454.7676517433,-3369697.924625722,4840225.034749181,3113.0657836628593,-6572.671470120745,-2460.882222562662,4.263181891463907,4.347354157362727,-6.244527817645608,6758662.117262945,1.4695969092745076,0.01531372692907715,1.5100388824310527,0.12459587753870983,-2.204754433994139,-0.7624584990949282,-2.27708545685286,-1.9798957083974874E-5,-0.0012450250663773193,-1.7153120483879666E-4,393166.37938971346,4.832890258084229E-12,1067.4108608128408,4.263181891463907,4.347354157362727,-6.244527817645608
6180.0,-4044429.8428998403,2728848.126140508,4678884.085839296,-3110144.120841893,-3755930.2596958103,4681449.836353433,3361.4567347590746,-6296.746728907166,-2829.5878875656176,4.013296754721625,4.846612290789152,-6.040892867222993,6758662.117262907,1.4739721785212876,-0.02983268724995533,1.5034784394482352,0.08010506083806503,-2.2656220198193875,-0.7247674828573962,-2.1889716010600346,-1.9798957083974874E-5,-0.0012305903890986168,-1.7282287630078405E-4,392011.5335507003,5.097876637741603E-12,1077.1416849341272,4.013296754721625,4.846612290789152,-6.040892867222993
