time,gePosition_m_X,gePosition_m_Y,gePosition_m_Z,eiPosition_m_X,eiPosition_m_Y,eiPosition_m_Z,eiVelocity_m_s_X,eiVelocity_m_s_Y,eiVelocity_m_s_Z,eiAccel_m_s2_X,eiAccel_m_s2_Y,eiAccel_m_s2_Z,semiMajorAxis_m,gast_rad,eulerAngle_rad_Roll,eulerAngle_rad_Pitch,eulerAngle_rad_Yaw,eulerAngleWrtEi_rad_Roll,eulerAngleWrtEi_rad_Pitch,eulerAngleWrtEi_rad_Yaw,bodyAngularRateWrtEi_rad_s_Roll,bodyAngularRateWrtEi_rad_s_Pitch,bodyAngularRateWrtEi_rad_s_Yaw,altitudeMsl_m,airDensity_kg_m3,ambientTemperature_dgK,eiGravitation_m_s2_X,eiGravitation_m_s2_Y,eiGravitation_m_s2_Z
0.0,-1428622.31101,4163200.46562,5136049.67203,-4292653.41,955168.47,5139356.57,109.649663,-7527.72649,1484.521489,5.52898656936,-1.23026788741,-6.61954989995,6758662.11723,1.02334780893,0.19689731963981963,1.4818059950910438,0.19765936603086368,-1.3731447580870433,-0.8677374816263381,3.0597725882928435,-1.979895708393292E-5,-0.001134281491670097,0.0,398252.763838,3.11591362917E-12,976.47737094,5.52898656936,-1.23026788741,-6.61954989995
60.0,-1789712.64868,3920255.31305,5213136.6043,-4276130.76361,501640.150639,5216447.94771,440.899504426,-7584.0430456,1084.18939672,5.50841669093,-0.646201702282,-6.71971240616,6758662.11723,1.02772307802,0.19647753918121694,1.482406349717376,0.19724138257198548,-1.4538495101856543,-0.8784726329730366,-3.1196874217617934,-1.979895708393292E-5,-0.0011150148564958962,-5.121434444783139E-6,398335.16147,3.20687244874E-12,983.702829946,5.50841669093,-0.646201702282,-6.71971240616
120.0,-2144732.03326,3662345.31178,5266057.24147,-4239785.46485,45786.4492664,5269357.6801,770.149856361,-7605.20775889,678.777242699,5.46236021842,-0.058989324127,-6.78881750198,6758662.11723,1.03209834711,0.1952050490044605,1.4841998377835701,0.19598824190246014,-1.535247508054505,-0.8839892341326007,-3.0157606911787775,-1.979895708393292E-5,-0.001095993981549057,-1.0154252310192563E-5,398280.483171,3.31726588913E-12,991.661468685,5.46236021842,-0.058989324127,-6.78881750198
180.0,-2492166.12293,3390599.00166,5294562.85755,-4183783.25764,-410279.480789,5297837.08957,1095.87688043,-7591.11290731,270.159254332,5.39101509823,0.528665740843,-6.82652947799,6758662.11723,1.0364736162,0.19302669748955525,1.4871630043613324,0.19386734321266652,-1.616037680214447,-0.8844304067043819,-2.912872421709401,-1.979895708393292E-5,-0.001077470241128392,-1.5032891610530139E-5,398085.378679,3.44775481373E-12,1000.300609,5.39101509823,0.528665740843,-6.82652947799
240.0,-2830524.93281,3106195.85057,5298517.62797,-4108380.89026,-864442.894077,5301750.4708,1416.572094,-7541.8131943,-139.774483848,5.29469509567,1.11405482452,-6.83265572643,6758662.11723,1.04084888529,0.18983610801239736,1.4912565136545683,0.19079205835578159,-1.695004601943244,-0.880039758790384,-2.8121765254665956,-1.979895708393292E-5,-0.001059689396360107,-1.9694484332346857E-5,397748.768109,3.59852917815E-12,1009.53002767,5.29469509567,1.11405482452,-6.83265572643
300.0,-3158349.2707,2810361.12396,5277899.32319,-4013924.98617,-1314597.20057,5281075.7838,1730.7492879,-7457.52569377,-549.126655788,5.17382866283,1.69447627941,-6.80714795491,6758662.11723,1.04522415437,0.18545270929726765,1.496425598140667,0.18660042381234784,-1.7711094066331667,-0.8711389686827364,-2.7146497576402826,-1.979895708393292E-5,-0.0010428885756333342,-2.4079966052211192E-5,397271.88372,3.76928395326E-12,1019.22714303,5.17382866283,1.69447627941,-6.80714795491
360.0,-3474217.08765,2504360.5957,5232799.48317,-3900850.50203,-1758653.68795,5235904.82755,2036.95136094,-7338.62906256,-956.001393646,5.02895729882,2.26724769265,-6.75010277495,6758662.11723,1.04959942346,0.17958041469792152,1.5026006707150652,0.1810135081892362,-1.843546825938237,-0.8580995601268337,-2.6210344262392096,-1.979895708393292E-5,-0.001027293256880476,-2.8135156906311512E-5,396658.271822,3.95927497991E-12,1029.24864764,5.02895729882,2.26724769265,-6.75010277495
420.0,-3776749.71579,2189495.12225,5163423.07076,-3769678.779,-2194551.17459,5166442.89226,2333.75704093,-7185.6620202,-1358.51297384,4.86073340379,2.82971808105,-6.66176165595,6758662.11723,1.05397469255,0.17172547033858632,1.5096980623633829,0.17355297948742496,-1.9117635534043074,-0.8413138444009415,-2.531819785764114,-1.979895708393292E-5,-0.0010131142743131038,-3.1811794404225315E-5,395913.75464,4.16743259548E-12,1039.44538411,4.86073340379,2.82971808105,-6.66176165595
480.0,-4064617.96598,1867095.10307,5070087.60404,-3621015.19486,-2620265.54951,5073007.89024,2619.78746171,-6999.32109896,-1754.79449109,4.66991762971,3.37928001561,-6.54251023745,6758662.11723,1.05834996164,0.16102270419330708,1.5176207934259098,0.1633671075790631,-1.9754435014040885,-0.8211692225700009,-2.4472565378045723,-1.979895708393292E-5,-0.0010005448865567932,-3.506849474438553E-5,395046.35254,4.39248786983E-12,1049.67618037,4.66991762971,3.37928001561,-6.54251023745
540.0,-4336548.05782,1538514.85011,4953221.77021,-3455546.42661,-3033819.15549,4956028.96803,2893.71256637,-6780.45766981,-2143.0064719,4.4573757334,3.91338162297,-6.39287699509,6758662.11723,1.06272523073,0.14582919905980532,1.5262591273190196,0.148824227321369,-2.034471345492112,-0.7980283819955696,-2.3673930348749157,-1.979895708393292E-5,-9.897579575900816E-4,-3.787161618116306E-5,394066.16769,4.63306699777E-12,1059.81737392,4.4573757334,3.91338162297,-6.39287699509
600.0,-4591327.35534,1205126.8898,4813363.52578,-3274037.33485,-3433289.97225,4816044.60446,3154.25730682,-6530.07425328,-2521.34538841,4.22407493918,4.42953841007,-6.21353125793,6758662.11723,1.06710049981,0.12262475134657662,1.5354900972769245,0.12641302590527148,-2.0888864881692113,-0.7722161770518824,-2.292121045041611,-1.979895708393292E-5,-9.809033140995578E-4,-4.0195996238329256E-5,392985.230813,4.88772979641E-12,1069.76694871,4.22407493918,4.42953841007,-6.21353125793
660.0,-4827809.88176,868316.221086,4651157.69009,-3077327.483,-3816820.55719,4653700.20187,3400.20761071,-6249.32012759,-2888.05203397,3.97107982106,4.92534485816,-6.00528057771,6758662.11723,1.0714757689,0.08230955968900291,1.5451726650596584,0.08704009943963346,-2.1388369578778317,-0.744012686806479,-2.221221548001476,-1.979895708393292E-5,-9.741053515112127E-4,-4.202553465775272E-5,391817.313346,5.15495300749E-12,1079.44416186,3.97107982106,4.92534485816,-6.00528057771
720.0,-5044921.58748,529474.553225,4467353.04181,-2866327.30621,-4182626.70184,4469745.1799,3630.4160871,-5939.48624934,-3241.41972145,3.69954771645,5.39848573122,-5.76906745355,6758662.11723,1.07585103799,-0.007765762766355342,1.555117933729402,-0.0019401269492566834,-2.184539019063719,-0.7136512511216254,-2.154404772062057,-1.979895708393292E-5,-9.694609640648522E-4,-4.335359625455194E-5,390577.707882,5.43307543139E-12,1088.78644481,3.69954771645,5.39848573122,-5.76906745355
780.0,-5241665.34627,189994.547074,4262798.92999,-2642013.94644,-4529005.7634,4265029.58367,3843.80744331,-5601.99950563,-3579.8022658,3.41072368629,5.84674704438,-5.50596541829,6758662.11723,1.08022630708,-0.3937313047473083,1.5647374788230186,-0.3866565678130207,-2.2262449514431606,-0.6813200997777986,-2.091341996902937,-1.979895708393292E-5,-9.67037871343541E-4,-4.418321239668238E-5,389282.980377,5.72022664279E-12,1097.7452932,3.41072368629,5.84674704438,-5.50596541829
840.0,-5417125.65531,-148735.916456,4038441.41394,-2405426.77194,-4854344.63194,4040500.22042,4039.38358617,-5238.41631975,-3901.62171297,3.10593503834,6.26802663725,-5.21717449618,6758662.11723,1.08460157617,-2.3691700119553434,1.5644062720402279,-2.3606936451596163,-2.2642191905492575,-0.6471663124110835,-2.0316889112298537,-1.979895708393292E-5,-9.66873404316823E-4,-4.4527066440338456E-5,387950.698132,6.01425775883E-12,1106.28229852,3.10593503834,6.26802663725,-5.21717449618
900.0,-5570473.01589,-485339.417195,3795318.94811,-2157662.60064,-5157127.29515,3797196.34098,4216.22838204,-4850.41563555,-4205.37577766,2.78658543362,6.66034429836,-4.90401604459,6758662.11723,1.08897684525,-2.726082856038925,1.55472694469687,-2.716056430970935,-2.298721797544047,-0.6113011045081035,-1.9751015372460563,-1.979895708393292E-5,-9.689737987249753E-4,-4.440725668160339E-5,386599.138075,6.3126881824E-12,1114.36594672,2.78658543362,6.66034429836,-4.90401604459
960.0,-5700967.97255,-818454.602498,3534557.63056,-1899870.6489,-5435941.96416,3536244.8846,4373.51205129,-4439.79130921,-4489.64495351,2.45414859808,7.02185138673,-4.56792699599,6758662.11723,1.09335211434,-2.814288874439391,1.5447693100604525,-2.80257062187863,-2.3299977613973857,-0.5738057120331749,-1.9212461962205372,-1.979895708393292E-5,-9.733140240489579E-4,-4.385483954479189E-5,385246.980295,6.61267311836E-12,1121.96917921,2.45414859808,7.02185138673,-4.56792699599
1020.0,-5807964.78976,-1146741.697,3257366.03583,-1633247.22809,-5689487.726,3258855.30789,4510.49517421,-4008.44394013,-4753.09926035,2.11016166425,7.35083989866,-4.2104535197,6758662.11723,1.09772738343,-2.8558958277308757,1.5350751645052256,-2.8423530934737595,-2.3582706240544002,-0.5347373870828372,-1.8698050004806828,-1.979895708393292E-5,-9.798381540612679E-4,-4.290916501377991E-5,383912.992166,6.91099941407E-12,1129.0678263,2.11016166425,7.35083989866,-4.2104535197
1080.0,-5890914.74666,-1468887.89283,2965029.65483,-1359030.21298,-5916580.68979,2966314.02071,4626.53228704,-3558.37217567,-4994.50459422,1.75621817019,7.64575092852,-3.83324412651,6758662.11723,1.10210265252,-2.881725373197869,1.5258299533378126,-2.8662369337082314,-2.3837391189662607,-0.4941352014616637,-1.8204781547336117,-1.979895708393292E-5,-9.884602623578694E-4,-4.161702487415417E-5,382615.708702,7.20410831208E-12,1135.63958297,1.75621817019,7.64575092852,-3.83324412651
1140.0,-5949369.03175,-1783612.59828,2658904.96671,-1078493.30727,-6116159.59655,2659978.45374,4721.07504834,-3091.66352777,-5212.72864769,1.39396074566,7.90518247478,-3.43804224265,6758662.11723,1.10647792161,-2.9005297344816525,1.51717379814951,-2.882987935948821,-2.4065757817731828,-0.4520254863063073,-1.7729840784835684,-1.979895708393292E-5,-9.990658055787493E-4,-4.003164143401335E-5,381373.114964,7.48814599554E-12,1141.66340206,1.39396074566,7.90518247478,-3.43804224265
1200.0,-5982981.22111,-2089672.52353,2340413.16932,-792940.132318,-6287290.8642,2341270.78449,4793.67495799,-2610.48474187,-5406.7463694,1.02507351745,8.12789654441,-3.02667828318,6758662.11723,1.11085319069,-2.915742563618587,1.5092291280033248,-2.8960552497259044,-2.4269267496962867,-0.40842682439038686,-1.7270580994854263,-1.979895708393292E-5,-0.001011513440243309,-3.821152943944334E-5,380202.336435,7.7590399177E-12,1147.11912903,1.02507351745,8.12789654441,-3.02667828318
1260.0,-5991509.32546,-2385866.58275,2011033.59675,-503698.166694,-6429173.04247,2011671.35038,4843.98561294,-2117.07176185,-5575.64493382,0.651274268517,8.31282551192,-2.6010612582,6758662.11723,1.11522845978,-2.928996167539389,1.502105199855933,-2.907088362397941,-2.444912183313866,-0.36335456900706753,-1.6824502460655,-1.979895708393292E-5,-0.0010256372076268248,-3.6219266603156476E-5,379119.343262,8.01259721908E-12,1151.98723184,0.651274268517,8.31282551192,-2.6010612582
1320.0,-5974817.39318,-2671040.59285,1672296.85424,-212112.564554,-6541140.65463,1672711.77894,4871.76448598,-1613.71933672,-5718.62819429,0.274306387484,8.45907769192,-2.16316994869,6758662.11723,1.11960372887,-2.9411785408997275,1.495898499780951,-2.9169938561676942,-2.4606269129440723,-0.3168248992380877,-1.6389224915992124,-1.979895708393292E-5,-0.001041249015948514,-3.412020847510467E-5,378138.674091,8.24461890324E-12,1156.24846939,0.274306387484,8.45907769192,-2.16316994869
1380.0,-5932876.65821,-2944091.74979,1325777.7021,80460.1180872,-6622667.40622,1325967.86694,4876.87421622,-1102.77031762,-5835.0205947,-0.104069352975,8.56594208807,-1.71504369194,6758662.11723,1.12397899796,-2.9528286644458714,1.4906921708849126,-2.9263304021148153,-2.4741410354253484,-0.26885844349290516,-1.596245672634882,-1.979895708393292E-5,-0.001058141349944581,-3.1981181558959535E-5,377273.184958,8.4510389103E-12,1159.884107,-0.104069352975,8.56594208807,-1.71504369194
1440.0,-5865766.22415,-3203972.86468,973087.721764,372658.259633,-6673368.74336,973052.241649,4859.28340212,-586.604695271,-5924.27051757,-0.482083148433,8.6328922848,-1.25877281965,6758662.11723,1.12835426705,-2.9643089956079565,1.486555238297306,-2.9354809217770934,-2.4855002737415215,-0.21948351670874194,-1.5541962057094885,-1.979895708393292E-5,-0.0010760901444044797,-2.986918507861895E-5,376533.828253,8.6280865492E-12,1162.87683742,-0.482083148433,8.6328922848,-1.25877281965
1500.0,-5773673.27738,-3449696.34278,615867.798494,663121.541664,-6693003.74703,615606.838617,4819.06689047,-67.6284305417,-5985.95304931,-0.857964603813,8.65958945283,-0.796488794607,6758662.11723,1.13272953613,-2.9758908266893975,1.4835418708352124,-2.9447375958900426,-2.494725970878242,-0.1687390249756965,-1.512552658022783,-1.979895708393292E-5,-0.0010948577687205864,-2.785012723730647E-5,375929.466258,8.77244310478E-12,1165.21147632,-0.857964603813,8.65958945283,-0.796488794607
1560.0,-5656892.82478,-3680337.88969,255780.45603,950497.319819,-6681476.35219,255295.231438,4756.40555737,451.737868221,-6019.77214562,-1.22995122007,8.64588444371,-0.330354094469,6758662.11723,1.13710480522,-2.9878021499805683,1.4816907656944616,-2.9543493647267725,-2.501814626089003,-0.11667709709183016,-1.4710921770887972,-1.979895708393292E-5,-0.0011141960824326289,-2.5987616852477267E-5,375466.723086,8.88138327436E-12,1166.8754629,-1.22995122007,8.64588444371,-0.330354094469
1620.0,-5515826.9535,-3895039.93044,-105497.920298,1233446.96624,-6638835.88436,-106205.150078,4671.58557971,969.070365642,-6025.5621838,-1.59629688217,8.59181895409,0.137448106468,6758662.11723,1.14148007431,-3.0002589362406633,1.4810246884715959,-2.9645528326954125,-2.5067369039146428,-0.0633655071435241,-1.4295867487394542,-1.979895708393292E-5,-0.0011338495351226805,-2.434182652182177E-5,375149.878085,8.95289368481E-12,1167.85924417,-1.59629688217,8.59181895409,0.137448106468
1680.0,-5350983.61252,-4093014.72833,-466284.934963,1510652.15306,-6565276.90947,-467210.876186,4564.99719846,1481.95346136,-6003.28889111,-1.95528030342,8.497625745,0.604724404555,6758662.11723,1.1458553434,-3.0134901284234474,1.4815501775312765,-2.9755968854402663,-2.509436058936431,-0.008889956947783538,-1.387799228074807,-1.979895708393292E-5,-0.0011535582959598058,-2.2968439477457834E-5,374980.802908,8.98576118951E-12,1168.15658401,-1.95528030342,8.497625745,0.604724404555
1740.0,-5162974.91824,-4273547.19177,-824900.070469,1780821.04651,-6461138.39612,-826040.410293,4437.13297779,1987.99123664,-5953.04964202,-2.30521338067,8.36372790759,1.06928172851,6758662.11723,1.15023061249,-3.0277628131822483,1.4832574079892835,-2.9877674896091264,-2.5098257252991143,0.04664370713133926,-1.3454790723407122,-1.979895708393292E-5,-0.0011730614069776924,-2.191768936860813E-5,374958.943572,8.97962539548E-12,1167.76482406,-2.30521338067,8.36372790759,1.06928172851
1800.0,-4952514.9884,-4435997.35904,-1179672.57443,2042694.38164,-6326902.19296,-1181022.00084,4288.58556662,2484.81882823,-5875.0731203,-2.64444941491,8.19073717181,1.5289379396,6758662.11723,1.15460588158,-3.0434134167977427,1.4861201978438583,-3.0014185292083244,-2.5077870268121982,0.1031072610863269,-1.3023576987369923,-1.979895708393292E-5,-0.0011920999587815113,-2.1233500508745436E-5,375081.347819,8.93499233768E-12,1166.68511611,-2.64444941491,8.19073717181,1.5289379396
1860.0,-4720417.31123,-4579802.552,-1528949.30741,2295051.38803,-6163190.82728,-1530501.5338,4120.04497215,2970.11367208,-5769.71834538,-2.97139115191,7.97945126077,1.98153241328,6758662.11723,1.15898115066,-3.060892618608259,1.4900961199856975,-3.0170163795839513,-2.503164975847004,0.1603477625217103,-1.258143396854223,-1.979895708393292E-5,-0.0012104202870084854,-2.0952735564683075E-5,375342.737191,8.85320905418E-12,1164.92263944,-2.97139115191,7.97945126077,1.98153241328
1920.0,-4467591.65876,-4704479.19181,-1871102.5134,2536715.53753,-5970764.63424,-1872850.30781,3932.29535744,3441.60655985,-5637.47306582,-3.28449859834,7.73085029914,2.42493654487,6758662.11723,1.16335641975,-3.08083692137735,1.4951266490185418,-3.035211166475052,-2.495764155758621,0.21818499942296155,-1.2125157514706204,-1.979895708393292E-5,-0.0012277771825416532,-2.11045580178188E-5,375735.622232,8.7364016828E-12,1162.48681226,-3.28449859834,7.73085029914,2.42493654487
1980.0,-4195040.55576,-4809624.27078,-2204537.47528,2766560.086,-5750518.22983,-2206472.69401,3726.21137791,3897.09245199,-5478.95152616,-3.58229656936,7.4460922902,2.85706412167,6758662.11723,1.16773168884,-3.104191816962538,1.501137198619693,-3.0569596553618377,-2.4853437388610087,0.27640861320307075,-1.1651195893609847,-1.979895708393292E-5,-0.0012439370989415792,-2.1709917605292092E-5,376250.45835,8.58738226833E-12,1159.39150229,-3.58229656936,7.4460922902,2.85706412167
2040.0,-3903855.31784,-4894916.4765,-2527700.0178,2983513.38179,-5503476.34364,-2529813.64338,3502.75407406,4334.44099187,-5294.89161681,-3.86338192553,7.12650768163,3.27588150415,6758662.11723,1.17210695793,-3.132439318955777,1.5080367385693978,-3.083752550057502,-2.4716119982915243,0.33477477020485197,-1.1155585741617478,-1.979895708393292E-5,-0.0012586813277692384,-2.278116790333517E-5,376875.83903,8.40953146521E-12,1155.65523919,-3.86338192553,7.12650768163,3.27588150415
2100.0,-3595211.6747,-4960116.9658,-2839083.82159,3186563.91498,-5230789.03119,-2841366.00481,3262.96634031,4751.60666722,-5086.15142032,-4.12643045779,6.77359304646,3.67941755973,6758662.11723,1.17648222702,3.1151334193340854,1.5157162643030435,-3.118068232045057,-2.454220665396359,0.393002253158256,-1.0633887696857043,-1.979895708393292E-5,-0.0012718090982209566,-2.4321825769763962E-5,377598.722345,8.20666555465E-12,1151.30142861,-4.12643045779,6.77359304646,3.67941755973
2160.0,-3270364.9962,-5005069.78779,-3137237.51245,3374765.08257,-4933726.2884,-3139677.61834,3007.96799232,5146.63856673,-4853.70517037,-4.37020338194,6.38900391095,4.06577329389,6758662.11723,1.1808574961,3.067700479489372,1.524044232423122,3.1188202828307547,-2.432759812250636,0.45076786047570755,-1.0081128248287736,-1.979895708393292E-5,-0.0012831405437378424,-2.6326482111576618E-5,378404.686044,7.98289658484E-12,1146.35856574,-4.37020338194,6.38900391095,4.06577329389
2220.0,-2930645.14156,-5029701.95675,-3420771.4912,3547239.64632,-4613672.09406,-3423358.14874,2738.95045726,5517.68968151,-4598.63864334,-4.59355340568,5.9745467669,4.43313112474,6758662.11723,1.18523276519,2.9995761427027716,1.5328533683662808,3.051671312981736,-2.4067544764359834,0.5077010572123918,-0.9491759743661846,-1.979895708393292E-5,-0.001292519466692845,-2.8780872081397885E-5,379278.206025,7.74249400907E-12,1140.86044225,-4.59355340568,5.9745467669,4.43313112474
2280.0,-2577450.95345,-5034023.1775,-3688364.47094,3703183.86127,-4272117.90915,-3691085.62614,2457.17111372,5863.02570399,-4322.14400536,-4.79543033435,5.53217031098,4.77976374962,6758662.11723,1.18960803428,2.890576918029094,1.5418991152224113,2.9434896272506825,-2.3756650814554456,0.563377950996019,-0.8859658897756947,-1.979895708393292E-5,-0.0012998158250887464,-3.1662110196367706E-5,380202.952557,7.48975504853E-12,1134.84633516,-4.79543033435,5.53217031098,4.77976374962
2340.0,-2212244.42083,-5018125.22718,-3938769.68948,3841871.25495,-3910655.66432,-3941612.66178,2163.94730996,6181.03327914,-4025.5141409,-4.97488618394,5.06395595884,5.10404255435,6758662.11723,1.19398330337,2.6861028014089503,1.5507029229127285,2.7396811237581398,-2.3388949290828966,0.6173149222679497,-0.8178196406089739,-1.979895708393292E-5,-0.0013049278634044677,-3.493909205778264E-5,381162.098391,7.22888930943E-12,1128.36115504,-4.97488618394,5.06395595884,5.10404255435
2400.0,-1836544.53614,-4982180.99909,-4170820.76717,3962656.0387,-3530970.2699,-4173772.30869,1860.6500908,6470.22766607,-3710.13649165,-5.13107977331,4.57210768613,5.40444551896,6758662.11723,1.19835857246,2.2211908632980837,1.5578249405162559,2.2752916199391944,-2.295809666503716,0.6689626956493089,-0.7440426558707729,-1.979895708393292E-5,-0.0013077838144778383,-3.8573059556077326E-5,382138.632762,6.96392113452E-12,1121.45551427,-5.13107977331,4.57210768613,5.40444551896
2460.0,-1451920.87382,-4926443.21575,-4383437.1812,4064976.13476,-3134831.68476,-4386483.53872,1548.69766527,6729.25977126,-3377.48643729,-5.26328077062,4.05894125292,5.67956457666,6758662.11723,1.20273384154,1.3632293833085172,1.5589400683449193,1.4177208242249835,-2.245775446507714,0.7177023830282435,-0.6639463929819479,-1.979895708393292E-5,-0.0013083431102666788,-4.2518321066105074E-5,383115.675292,6.69861096956E-12,1114.18564961,-5.26328077062,4.05894125292,5.67956457666
2520.0,-1059986.91893,-4851242.81987,-4575629.33029,4148355.80439,-2724086.58303,-4578756.30955,1229.54864842,6956.92251834,-3029.12025205,-5.37087317277,3.5268728718,5.9281123865,6758662.11723,1.20710911063,0.7830684054862302,1.5528642026187098,0.8378326730966144,-2.1882237641146487,0.7628461106671949,-0.5769126880637454,-1.979895708393292E-5,-0.0013065970561166144,-4.6723112652804606E-5,384076.783908,6.43639489124E-12,1106.6130995,-5.37087317277,3.5268728718,5.9281123865
2580.0,-662393.175639,-4756987.05301,-4746503.16519,4212407.8646,-2300649.65923,-4749696.19729,904.695111768,7152.15652278,-2666.66767347,-5.45335819984,2.978407383,6.14892848384,6758662.11723,1.21148437972,0.5328044071663197,1.5443199977861668,0.5877397313132112,-2.1227499880375915,0.8036461683497375,-0.4824917987683173,-1.979895708393292E-5,-0.0013025689440486514,-5.113058126892388E-5,385006.251149,6.18033962638E-12,1098.80399948,-5.45335819984,2.978407383,6.14892848384
2640.0,-260820.086577,-4644157.23354,-4895264.36301,4256835.4831,-1866494.61459,-4898508.57248,575.655478019,7314.05504394,-2291.82412158,-5.51035659068,2.41612600294,6.34098477708,6758662.11723,1.21585964881,0.40515305813056707,1.5353260045308288,0.4601756377200493,-2.0492465884191535,0.8393177487797294,-0.38053513412661943,-1.979895708393292E-5,-0.0012963136037994073,-5.5679866801211374E-5,385889.383534,5.93310923105E-12,1090.82783651,-5.51035659068,2.41612600294,6.34098477708
2700.0,143029.20478,-4513306.24645,-5021222.02541,4281433.54312,-1423644.86836,-5024502.29981,243.967296295,7441.86819104,-1906.34260862,-5.54161028942,1.84267371467,6.50339036293,6758662.11723,1.2202349179,0.327125346623837,1.5264912661277248,0.38217088022339085,-1.9680578772517305,0.8690802692322286,-0.27134948225375166,-1.979895708393292E-5,-0.001287916413448063,-6.0307257029307726E-5,386712.759104,5.69693952857E-12,1082.75552186,-5.54161028942,1.84267371467,6.50339036293
2760.0,547436.216033,-4365055.75871,-5123791.88362,4286089.57208,-974164.039852,-5127092.9441,-88.8200654077,7535.0063634,-1512.02538078,-5.54698351642,1.26074637043,6.6353956374,6758662.11723,1.22461018698,0.27296882624537694,1.5180930275281412,0.3279936618003265,-1.880120569969794,0.8922194432144464,-0.15583703953816158,-1.979895708393292E-5,-0.001277491812453436,-6.494738830371156E-5,387464.45869,5.47361785341E-12,1074.65674208,-5.54698351642,1.26074637043,6.6353956374
2820.0,950674.578557,-4200093.17523,-5202498.99515,4270784.23028,-520146.247209,-5205805.46788,-421.152773474,7593.04291018,-1110.71533498,-5.52646322134,0.673077577775,6.73639568389,6758662.11723,1.22898545607,0.23180862408491018,1.5103076716417072,0.2867905063940724,-1.7870319699310742,0.9081654811628678,-0.03556303891676267,-1.979895708393292E-5,-0.001265181376515673,-6.953446506352754E-5,388134.26706,5.26446868907E-12,1066.59675154,-5.52646322134,0.673077577775,6.73639568389
2880.0,1351017.54709,-4019168.35126,-5256979.92038,4235591.35791,-63706.2704562,-5260276.40827,-751.479890593,7615.71599841,-704.28725438,-5.48015891954,0.0824254411652,6.80593292463,6758662.11723,1.23336072516,0.1983278837633304,1.5032685185604946,0.2532662874075513,-1.6909843928360897,0.916573065524121,0.08731040971975565,-1.979895708393292E-5,-0.0012511515248541478,-7.40034730570663E-5,388713.840609,5.0703496281E-12,1058.6330516,-5.48015891954,0.0824254411652,6.80593292463
2940.0,1746745.532,-3823090.07806,-5286984.36911,4180677.58104,393030.373695,-5290255.52374,-1078.26070948,7602.92968311,-294.638907134,-5.40830191683,-0.508440768804,6.84369902604,6758662.11723,1.23773599425,0.16961847438817015,1.497083604046519,0.22453451896509352,-1.5945401313798286,0.9173809416101673,0.21024996884193609,-1.979895708393292E-5,-0.001235590935203798,-7.829136394410634E-5,389196.838942,4.89166478687E-12,1050.81264739,-5.40830191683,-0.508440768804,6.84369902604
3000.0,2136153.61998,-3612722.35949,-5292376.31056,4106301.47935,847937.39722,-5295606.9037,-1399.97202195,7554.75417709,116.317946674,-5.31124393136,-1.09675394702,6.84953605368,6758662.11723,1.24211126334,0.14393912771440592,1.4918418738379016,0.19887508137660037,-1.5002908287157992,0.9108300275343008,0.3306923463127642,-1.979895708393292E-5,-0.0012187077404690247,-8.233819242799244E-5,389579.018289,4.72840200403E-12,1043.17061153,-5.31124393136,-1.09675394702,6.84953605368
3060.0,2517559.04894,-3388980.49772,-5273134.54234,4012812.3205,1298897.69838,-5276309.53698,-1715.11528751,7471.4253227,526.666594845,-5.18945512471,-1.67976241572,6.82343687653,6758662.11723,1.24648653242,0.12016111623157187,1.4876154282347887,0.17517950235598492,-1.41050680809827,0.8974316770515269,0.44639564525970193,-1.979895708393292E-5,-0.0012007265739912257,-8.608819068014888E-5,389858.285387,4.5801948662E-12,1035.73039825,-5.18945512471,-1.67976241572,6.82343687653
3120.0,2889308.60313,-3152827.00713,-5229352.71723,3900648.36831,1743813.26381,-5232457.33761,-2022.22366647,7353.34327161,934.494414725,-5.04352155781,-2.25474304741,6.76554482506,6758662.11723,1.25086180151,0.09749427515589604,1.4844602812896506,0.15267660519292933,-1.326887639407039,0.8778959706764279,0.5556895099634744,-1.979895708393292E-5,-0.0011818855194463003,-8.949076810708636E-5,390034.7111,4.44640287045E-12,1028.50581833,-5.04352155781,-2.25474304741,6.76554482506
3180.0,3249785.89493,-2905267.37568,-5161238.82875,3770334.77393,2180614.96794,-5164258.62914,-2319.86888361,7201.07038306,1337.90187218,-4.87414209014,-2.81901418174,6.67615261189,6758662.11723,1.2552370706,0.07533847896971883,1.4824165475016626,0.1307836419975584,-1.2504702063219322,0.8530424992514539,0.6575678023142608,-1.979895708393292E-5,-0.0011624330079843433,-9.250142707142795E-5,390110.503745,4.32619711232E-12,1021.50406958,-4.87414209014,-2.81901418174,6.67615261189
3240.0,3597418.50042,-2647345.69357,-5069114.15954,3622481.06096,2607272.22312,-5072035.0914,-2606.66788966,7015.32835501,1735.01143397,-4.68212474387,-3.36994827148,6.55570052779,6758662.11723,1.25961233969,0.053194736128759516,1.4815084282816748,0.10901708207065762,-1.1816785786995163,0.8237166806365531,0.7516395010572603,-1.979895708393292E-5,-0.001142624691386768,-9.508258675084608E-5,390089.94273,4.21863810765E-12,1014.72898684,-4.68212474387,-3.36994827148,6.55570052779
3300.0,3930684.91648,-2380140.16912,-4953411.69894,3457778.21787,3021802.43515,-4956220.17625,-2881.28928911,6796.99460607,2123.9763506,-4.46838255712,-3.90498419548,6.40477392979,6758662.11723,1.26398760878,0.030604736598436866,1.4817441566409848,0.08693189536504567,-1.120457255333123,0.7907260522279038,0.837996253967311,-1.979895708393292E-5,-0.0011227203075143118,-9.720430779492826E-5,389979.273774,4.12273655827E-12,1008.18379823,-4.46838255712,-3.90498419548,6.40477392979
3360.0,4248121.30806,-2104758.55224,-4814674.03892,3276995.41243,3422280.2197,-4817357.0012,-3142.4595046,6547.09793026,2502.98926769,-4.2339289529,-4.42163917965,6.22410004192,6758662.11723,1.26836287786,0.007101914727699802,1.483115961502843,0.06407239760917789,-1.066427055227491,0.7548005053710012,0.9170572987038731,-1.979895708393292E-5,-0.001102980544730532,-9.884490989998448E-5,389786.567639,4.0374940666E-12,1001.87300306,-4.2339289529,-4.42163917965,6.22410004192
3420.0,4548328.01547,-1822333.48559,-4653550.75969,3080976.34491,3806846.33689,-4656095.73263,-3388.96864965,6266.81344962,2870.29062535,-3.97987265256,-4.91752027039,6.01454409236,6758662.11723,1.27273814695,-0.017837518897472083,1.4856000584050852,0.03992311347919985,-1.0190237909839204,0.7165732639369283,0.9894316114427927,-1.979895708393292E-5,-0.0010836639064614375,-9.999147310024604E-5,389521.544878,3.96192588275E-12,995.80331902,-3.97987265256,-4.91752027039,6.01454409236
3480.0,4829975.79243,-1534017.80365,-4470795.31905,2870635.25837,4173716.30259,-4473190.47225,-3619.6760832,5957.45689306,3224.17680656,-3.70741216439,-5.39033530847,5.77710481403,6758662.11723,1.27711341604,-0.04485464092731641,1.48915662762243,0.013848594988114754,-0.9776032552190109,0.6765766062655418,1.055813744429247,-1.979895708393292E-5,-0.0010650235762071623,-1.0064021184620399E-4,389195.369732,3.89507036472E-12,989.983858481,-3.70741216439,-5.39033530847,5.77710481403
3540.0,5091811.74723,-1240979.79992,-4267261.46147,2646952.62573,4521188.6371,-4269495.66324,-3833.51562167,5620.47823318,3563.00799723,-3.4178298796,-5.83790335535,5.51290933839,6758662.11723,1.28148868513,-0.07479393688625043,1.4937296803032156,-0.014992767506703695,-0.9415117727821966,0.6352464999344236,1.116914091806503,-1.979895708393292E-5,-0.0010473042872503168,-1.0079670928155091E-4,388820.416842,3.83599024602E-12,984.425772496,-3.4178298796,-5.83790335535,5.51290933839
3600.0,5332664.96062,-944398.48182,-4043899.16547,2410970.53513,4847652.71354,-4045962.03427,-4029.50038567,5257.45471481,3885.2157225,-3.11248580948,-6.25816452766,5.22320751493,6758662.11723,1.28586395422,-0.10884092235879446,1.499246604521479,-0.04778638392893918,-0.9101287622292213,0.5929317396884891,1.1734171333500922,-1.979895708393292E-5,-0.001030739209433664,-1.0047599804162782E-4,388410.014959,3.78376998763E-12,979.141589629,-3.11248580948,-6.25816452766,5.22320751493
3660.0,5551451.75548,-645458.833004,-3801750.14953,2163787.7958,5151596.17072,-3803632.10189,-4206.72726119,4870.08331244,4189.31002579,-2.7928109981,-6.6491892002,4.90936569081,6758662.11723,1.2902392233,-0.1487605108375193,1.5056169559260997,-0.0862998016890755,-0.8828893340084456,0.5499047390463719,1.2259596238944892,-1.979895708393292E-5,-0.0010155468766912278,-9.970247386451317E-5,387978.172269,3.73751229014E-12,974.144424896,-2.7928109981,-6.6491892002,4.90936569081
3720.0,5747180.5952,-345347.10215,-3541942.95901,1906554.7884,5431611.85718,-3543635.25372,-4364.3809566,4460.17265522,4473.88625938,-2.46030064639,-7.00918654134,4.57285998723,6758662.11723,1.29461449239,-0.1973401595455793,1.5127295346982752,-0.13332577539600082,-0.8592939124435585,0.5063723603564111,1.2751217400824162,-1.979895708393292E-5,-0.0010019281921907082,-9.850962971524394E-5,387539.288378,3.69633571359E-12,969.447175251,-2.46030064639,-7.00918654134,4.57285998723
3780.0,5918956.58916,-45246.1367517,-3265687.65822,1640468.08441,5686404.27585,-3267182.43658,-4501.73763939,4029.63446069,4737.63145745,-2.11650698341,-7.33651234958,4.21526911059,6758662.11723,1.29898976148,-0.25927501103651235,1.5204454750809182,-0.19356729008927592,-0.8389100726751628,0.4624859958027031,1.321425996777174,-1.979895708393292E-5,-9.90063560965213E-4,-9.69396012113214E-5,387107.858265,3.65937448086E-12,965.061769014,-2.11650698341,-7.33651234958,4.21526911059
3840.00000001,6065985.58576,253669.219936,-2974270.15348,1366764.86033,5914795.50107,-2975560.4754,-4618.16813851,3580.47451995,4979.33026473,-1.76303192131,-7.62967616384,3.8382667379,6758662.11723,1.30336503057,-0.3430770979319996,1.5285814298957672,-0.27554660898705824,-0.821370101180918,0.4183506066014339,1.3653404342921658,-1.979895708393292E-5,-9.801102114018342E-4,-9.504251896052173E-5,386698.173768,3.62578091709E-12,960.998501349,-1.76303192131,-7.62967616384,3.8382667379
3900.00000001,6187577.83496,550236.651405,-2669046.17456,1086717.13305,6115730.54229,-2670126.05039,-4713.14070037,3114.78327863,5197.87039659,-1.40151953039,-7.88734762431,3.44361351674,6758662.11723,1.30774029966,-0.4655155846410986,1.5368657540909136,-0.39604532341372206,-0.8063664961613943,0.3740326944466613,1.4072838774833223,-1.979895708393292E-5,-9.721997747841332E-4,-9.287566977101638E-5,386324.028292,3.59473054627E-12,957.265465419,-1.40151953039,-7.88734762431,3.44361351674
3960.00000001,6283151.20459,843310.793085,-2351434.94331,801625.843487,6288282.13173,-2352299.36125,-4786.22328897,2634.72605916,5392.24760857,-1.03364837064,-8.10836206489,3.03314872114,6758662.11723,1.31211556874,-0.6622351402189479,1.5448136249283464,-0.5907225030487974,-0.7936467301141658,0.32956730546249907,1.4476319703244738,-1.979895708393292E-5,-9.66436195255128E-4,-9.050247621094005E-5,385998.43044,3.5654295604E-12,953.86807594,-1.03364837064,-8.10836206489,3.03314872114
4020.00000001,6352233.93641,1131767.54422,-2022912.55937,512814.816126,6431654.91571,-2023557.50832,-4837.08542237,2142.53297092,5561.57015598,-0.661123715771,-8.29172532212,2.6087816048,6758662.11723,1.31649083783,-1.0062236645726454,1.5513621900179326,-0.9325821726170886,-0.783008019038408,0.2849642134910129,1.4867232770094383,-1.979895708393292E-5,-9.628940399441306E-4,-8.799131205779073E-5,385733.33217,3.53712414763E-12,950.808675334,-0.661123715771,-8.29172532212,2.6087816048
4080.00000001,6394466.92992,1414508.25115,-1685005.13421,221624.622359,6545189.03245,-1685427.62199,-4865.49954043,1640.48855565,5705.06272661,-0.285669705401,-8.43661774938,2.17248249371,6758662.11723,1.32086610692,-1.5599550954707257,1.5542510260126015,-1.484115846288195,-0.774292488476755,0.24021343454725927,1.524865105042357,-1.979895708393292E-5,-9.616172705534062E-4,-8.54141791189451E-5,385539.376893,3.50911098672E-12,948.086209909,-0.285669705401,-8.43661774938,2.17248249371
4140.00000001,6409605.54408,1690463.74767,-1339281.70537,-70593.6240306,6628363.06181,-1339479.77225,-4871.34190026,1130.9212161,5822.06983233,0.0909785397676,-8.54239742886,1.72627365999,6758662.11723,1.32524137601,-2.1210632739406496,1.5516173605824009,-2.042976101132774,-0.7673829200990423,0.19529020998911706,1.5623389225477065,-1.979895708393292E-5,-9.626185236873636E-4,-8.284527794575498E-5,385425.67258,3.4807480787E-12,945.695962642,0.0909785397676,-8.54239742886,1.72627365999
4200.00000001,6397520.90908,1958598.23877,-987346.963921,-362484.510942,6680796.33552,-987319.691262,-4854.59299842,616.192476028,5912.05864751,0.467082805465,-8.60860257732,1.27222001869,6758662.11723,1.3296166451,-2.4742676259187784,1.545220257462156,-2.393901951114605,-0.7621991496813244,0.15015957485551903,1.5994053653843046,-1.979895708393292E-5,-9.658789289194339E-4,-8.035951043896193E-5,385399.594481,3.45146499499E-12,943.629328929,0.467082805465,-8.60860257732,1.27222001869
4260.00000001,6358200.74227,2217913.01525,-630833.828326,-652694.583172,6702250.59907,-630581.342573,-4815.33752059,98.6861201847,5974.62128502,0.84090964078,-8.63495314499,0.81241968899,6758662.11723,1.33399191418,-2.676355358757045,1.5373771536451044,-2.593700723769163,-0.7586951313800434,0.10478060638950248,1.6363088957327698,-1.979895708393292E-5,-9.713484724750538E-4,-7.803095571339899E-5,385466.62155,3.42077158171E-12,941.873621222,0.84090964078,-8.63495314499,0.81241968899
4320.00000001,6291749.66465,2467449.98736,-271395.898949,-939878.580496,6692631.01966,-270919.370684,-4753.76382153,-419.202737576,6009.47650283,1.21073815209,-8.6213516102,0.348994460598,6758662.11723,1.33836718327,-2.8021431224500826,1.5291909965845674,-2.7172093931011543,-0.7568566608610072,0.05911042939972041,1.6732822058561847,-1.979895708393292E-5,-9.78946892646658E-4,-7.593136151183074E-5,385630.209941,3.38826430033E-12,940.411895303,1.21073815209,-8.6213516102,0.348994460598
4380.00000001,6198389.01619,2706295.02659,89300.1727204,-1222705.63058,6651986.53731,89998.534487,-4670.16294012,-935.07860982,6016.47083678,1.57486770262,-8.56788297515,-0.115919794349,6758662.11723,1.34274245236,-2.8885262466882287,1.5211587554926225,-2.80134348341228,-0.7566997463609095,0.013108041053329526,1.7105504732704093,-1.979895708393292E-5,-9.885650724634485E-4,-7.412869192067147E-5,385891.706265,3.35372002253E-12,939.228939146,1.57486770262,-8.56788297515,-0.115919794349
4440.00000001,6078456.17037,2933581.10581,449582.365546,-1499865.36899,6580509.55907,450499.323873,-4564.92715604,-1446.55656705,5995.57915741,1.93162548735,-8.47481397122,-0.58018272441,6758662.11723,1.34711772145,-2.952827175802192,1.513553696854743,-2.863445170224789,-0.758269622916642,-0.03326199125600265,1.7483355750509981,-1.979895708393292E-5,-0.0010000668778285284,-7.268576832084291E-5,386250.302421,3.31725062229E-12,938.321964238,1.93162548735,-8.47481397122,-0.58018272441
4500.00000001,5932403.35046,3148491.22884,807780.986408,-1770073.95908,6478534.99924,808912.291643,-4438.54809634,-1951.27309811,5946.90465112,2.27937395415,-8.3425914847,-1.04165907831,6758662.11723,1.35149299054,-3.003811247435828,1.5065567777307354,-2.912298728057279,-0.7616404149669692,-0.08002590937161566,1.7868603647607884,-1.979895708393292E-5,-0.0010132913766230161,-7.165903490086094E-5,386703.032995,3.27908327458E-12,937.68637922,2.27937395415,-8.3425914847,-1.04165907831
4560.00000001,5760795.95194,3350261.14124,1162236.3496,-2032079.98499,6346538.67133,1163576.75926,-4291.61440214,-2446.89685304,5870.67822823,2.61651804297,-8.1718402162,-1.49822822303,6758662.11723,1.35586825962,-3.046303352555789,1.500302645272023,-2.952746867269189,-0.7669154620885638,-0.12719717081964066,1.8263531071098709,-1.979895708393292E-5,-0.0010280553671104282,-7.109747325071089E-5,387244.815303,3.23951095728E-12,937.31308861,2.61651804297,-8.1718402162,-1.49822822303
4620.00000001,5564310.37755,3538181.8156,1511306.40374,-2284670.19177,6185135.04001,1512849.70691,-4124.80896706,-2931.1392229,5767.25736267,2.94151221641,-7.96335958944,-1.94779356359,6758662.11723,1.36024352871,-3.083167758292999,1.4948973099273961,-2.9876702464430966,-0.7742283282954776,-0.17477282680155465,1.8670521538253024,-1.979895708393292E-5,-0.001044156142709255,-7.10416833013086E-5,387868.53129,3.19888148299E-12,937.188585775,2.94151221641,-7.96335958944,-1.94779356359
4680.00000001,5343731.39336,3711601.70492,1853374.27225,-2526675.04725,5995074.34437,1855113.31849,-3938.90576077,-3401.76471209,5637.12437041,3.25286725589,-7.71811992707,-2.38829182891,6758662.11723,1.3646187978,-3.116223446793887,1.4904254808698738,-3.018902518073006,-0.7837445127777133,-0.2227298074456981,1.9092109264701262,-1.979895708393292E-5,-0.0010613744241443604,-7.152314083508211E-5,388565.149624,3.15757683016E-12,937.294528027,3.25286725589,-7.71811992707,-2.38829182891
4740.00000001,5099949.01623,3869928.75911,2186855.67412,-2756974.1013,5777239.10612,2188782.40663,-3734.76625239,-3856.60105964,5480.88413557,3.54915679872,-7.43725791317,-2.81770218869,6758662.11723,1.36899406689,3.136483580993387,1.4869537554358114,-3.0476876695800805,-0.7956638635536997,-0.2710210382940058,1.9531032427868245,-1.979895708393292E-5,-0.0010794773985312116,-7.256363558804011E-5,389323.885482,3.11596283809E-12,937.605259995,3.54915679872,-7.43725791317,-2.81770218869
4800.00000001,4833954.94484,4012632.20032,2510206.19206,-2974501.11882,5532640.03908,2512311.685,-3513.33544997,-4293.54906743,5299.26129543,3.82902359293,-7.12207136408,-3.2340551677,6758662.11723,1.37336933598,3.1076925654069187,1.4845320265828454,-3.0749262927083976,-0.8102236560216514,-0.31957129872924167,1.9990289758401498,-1.979895708393292E-5,-0.001098221816268905,-7.41748890395953E-5,390132.394821,3.07435217165E-12,938.086179365,3.82902359293,-7.12207136408,-3.2340551677
4860.00000001,4546838.54842,4139244.05376,2821928.35603,-3178248.9641,5262411.3788,2824202.85585,-3275.63757385,-4710.59209447,5093.09689754,4.09118544736,-6.77401333066,-3.63544132469,6758662.11723,1.37774460506,3.07989646893115,1.4831940961636865,-3.101318737856207,-0.8277022217399402,-0.3682727208394492,2.0473199515195755,-1.979895708393292E-5,-0.0011173571094321593,-7.635834754846218E-5,390976.99921,3.03418000935E-12,938.781374305,4.09118544736,-6.77401333066,-3.63544132469
4920.00000001,4239782.42886,4249360.43154,3120578.51088,-3367274.215,4967805.65358,3123011.48142,-3022.77138254,-5105.8051779,4863.34454389,4.33444085595,-6.39468555705,-4.02001966409,6758662.11723,1.38211987415,3.0525093796841714,1.48295793543047,-3.1274563123115477,-0.8484228766920022,-0.4169798202578766,2.098345851487172,-1.979895708393292E-5,-0.0011366285076831926,-7.91051445880952E-5,391842.936768,2.99715450858E-12,939.756422715,4.33444085595,-6.39468555705,-4.02001966409
4980.00000001,3914057.57391,4342642.56813,3404773.43795,-3540701.48677,4650187.92029,3407353.60914,-2755.90517152,-5477.36374286,4611.06603918,4.55767427605,-5.98583132249,-4.38602574993,6758662.11723,1.38649514324,3.0249857867528647,1.4838257954303267,3.1292981203975323,-0.8727576698818156,-0.4655039567916189,2.152519658761952,-1.979895708393292E-5,-0.0011557801382644545,-8.2396225249751E-5,392714.634271,2.96475721796E-12,941.062957605,4.55767427605,-5.98583132249,-4.38602574993
5040.00000001,3571018.12061,4418817.60653,3673196.70132,-3697727.44658,4311029.49095,3675912.12124,-2476.27146613,-5823.55186503,4337.42656198,4.75986104189,-5.54932769406,-4.73177949215,6758662.11723,1.39087041233,2.9967637897621295,1.4857842522425666,3.1020121996667913,-0.9011301055117178,-0.5136071556576138,2.210301815355948,-1.979895708393292E-5,-0.001174558103968793,-8.620262659437713E-5,393575.995165,2.9383651039E-12,942.74756366,4.75986104189,-5.54932769406,-4.73177949215
5100.00000001,3212095.7497,4477679.13556,3924604.69079,-3837624.50091,3951901.17771,3927442.78085,-2185.16143113,-6142.77005143,4043.68937919,4.94007189515,-5.08717722014,-5.05569257674,6758662.11723,1.39524568142,2.9672050450623866,1.4888042001177935,3.0732358840810416,-0.9340154255372493,-0.5609953024665782,2.2722016961000473,-1.979895708393292E-5,-0.001192713536404484,-9.048590838346537E-5,394410.697979,2.91929535405E-12,944.854844169,4.94007189515,-5.08717722014,-5.05569257674
5160.00000001,2838793.73354,4519087.47898,4157832.33478,-3959744.13965,3574466.08639,4160779.94782,-1883.91902024,-6433.54250685,3731.2101261,5.09747711592,-4.6014990955,-5.35627551185,6758662.11723,1.39962095051,2.935517726320428,1.4928407411940379,3.0421831572987177,-0.9719362118091929,-0.6073108927517944,2.3387741764889225,-1.979895708393292E-5,-0.0012100056210749398,-9.519872970773666E-5,395202.499547,2.90883760332E-12,947.429232731,5.09747711592,-4.6014990955,-5.35627551185
5220.00000001,2452680.66113,4542969.73843,4371798.45793,-4063519.922,3180471.99013,4374841.93887,-1573.93489026,-6694.52385504,3401.43067591,5.23135023802,-4.09451983058,-5.63214426347,6758662.11723,1.40399621959,2.9006420535225086,1.4978328304566457,3.0078027838446797,-1.0154499487176982,-0.6521258215601845,2.4106079551542474,-1.979895708393292E-5,-0.0012262045858291949,-1.0028556760638943E-4,395935.537425,2.90828290847E-12,950.516202765,5.23135023802,-4.09451983058,-5.63214426347
5280.00000001,2055383.86564,4549319.5926,4565510.7594,-4148470.09074,2771743.31692,4568636.0083,-1256.64010515,-6924.50528615,3055.87262399,5.34107133428,-3.56856345886,-5.8820264548,6758662.11723,1.40837148868,2.861061543347545,1.503702367013404,2.968589424883624,-1.0651238630144773,-0.6949352064336367,2.488300968162013,-1.979895708393292E-5,-0.0012410946359943246,-1.0568357352547079E-4,396594.626012,2.91894962574E-12,954.162871194,5.34107133428,-3.56856345886,-5.8820264548
5340.00000001,1648582.58078,4538196.85595,4738070.38967,-4214199.80313,2350172.78614,4741262.9268,-933.499656144,-7122.42010356,2696.13041397,5.42612985797,-3.02604131792,-6.10476710489,6758662.11723,1.41274675777,2.814465686729687,1.510352059279359,2.922246128351744,-1.1214911889248018,-0.735154007088471,2.572417064704509,-1.979895708393292E-5,-0.0012544768088125673,-1.1132356216226412E-4,397165.541087,2.94220226063E-12,958.41769949,5.42612985797,-3.02604131792,-6.10476710489
5400.00000001,1234000.85375,4509726.80105,4888676.1051,-4260402.96815,1917712.73092,4891921.13779,-606.005825092,-7287.34864573,2323.86413382,5.48612702795,-2.46944144101,-6.29933388303,6758662.11723,1.41712202686,2.757101348624303,1.5176605202996754,2.8650354912532197,-1.1849828762133807,-0.7721192350354337,2.6634179830323506,-1.979895708393292E-5,-0.0012661717083600464,-1.1713112477503953E-4,397635.287741,2.97945624016E-12,963.328798147,5.48612702795,-2.46944144101,-6.29933388303
5460.00000001,813400.243808,4464099.24923,5016627.98145,-4286863.68153,1476366.14453,5019910.47242,-275.671418609,-7418.52256082,1940.79201188,5.52077774633,-1.90131759758,-6.46482185663,6758662.11723,1.42149729595,2.682429069106348,1.5254707539870942,2.7904356774916486,-1.2558312974478478,-0.8051016568605615,2.761567203913724,-1.979895708393292E-5,-0.0012760220712313838,-1.230278555218977E-4,397992.347058,3.0321592582E-12,968.940263737,5.52077774633,-1.90131759758,-6.46482185663
5520.00000001,388572.336006,4401567.43492,5121330.66924,-4293457.25169,1028177.49014,5124635.40604,55.9770985219,-7515.32841418,1548.68264364,5.5299120386,-1.32427802287,-6.60045771136,6758662.11723,1.42587256503,2.5781199694346104,1.5335615176251758,2.6861369995997535,-1.3339499263108694,-0.83333156198177,2.866809673799716,-1.979895708393292E-5,-0.0012838951046805053,-1.289326750668129E-4,398226.897326,3.10173978898E-12,975.286154449,5.5299120386,-1.32427802287,-6.60045771136
5580.00000001,-38668.8987572,4322446.64981,5202296.17572,-4280150.81135,575223.314713,5205607.84101,387.406541821,-7577.31061137,1149.34698168,5.51347600736,-0.740973877866,-6.70560342383,6758662.11723,1.43024783412,2.4189668410804024,1.5415698105727436,2.5269526495916086,-1.41880673803275,-0.8560424071096018,2.9786451686032542,-1.979895708393292E-5,-0.0012896845339442134,-1.3476323098609704E-4,398331.005993,3.18951795849E-12,982.382306354,5.51347600736,-0.740973877866,-6.70560342383
5640.00000001,-466494.865928,4227112.67352,5259146.16031,-4247003.51145,119602.708288,5262449.4027,717.083988026,-7604.17362171,744.630122134,5.47153229246,-0.154087482833,-6.77975936839,6758662.11723,1.43462310321,2.1516868784174745,1.548766026473879,2.2596210460569597,-1.5093269873456296,-0.8725327525160075,3.0960309717140104,-1.979895708393292E-5,-0.0012933122951295298,-1.4043734991846566E-4,398298.78915,3.29658512187E-12,990.217249976,5.47153229246,-0.154087482833,-6.77975936839
5700.00000001,-893070.199265,4115999.99794,5291613.73233,-4194166.29559,-336572.348753,5294893.23735,1043.48376865,-7595.78349017,336.402922188,5.40426003154,0.433679631157,-6.82256684099,6758662.11723,1.4389983723,1.6932984771111756,1.5535044674045588,1.8011822284822276,-1.6038737197094526,-0.8822403616597666,-3.065823067280059,-1.979895708393292E-5,-0.0012947298149693892,-1.4587451247856086E-4,398126.535827,3.42367473266E-12,998.744692521,5.40426003154,0.433679631157,-6.82256684099
5760.00000001,-1316560.66962,3989599.8534,5299544.74184,-4121881.25539,-791186.707578,5302785.30284,1365.09444609,-7552.1686281,-73.4465160521,5.31195431658,1.01961880659,-6.83380998483,6758662.11723,1.44337364139,1.1029240258293578,1.5533369573439302,1.2107802343567065,-1.7003468029029172,-0.8848143289668408,-2.9426144462438764,-1.979895708393292E-5,-0.0012939188287048706,-1.5099731917277785E-4,397812.794976,3.57106093847E-12,1007.88062989,5.31195431658,1.01961880659,-6.83380998483
5820.00000001,-1735141.11704,3848458.04486,5282898.55682,-4030480.56838,-1242131.79842,5286085.14536,1680.42574188,-7473.51987588,-483.021458885,5.19502514392,1.60102643231,-6.81341710429,6758662.11723,1.44774891047,0.6577352258327385,1.5483827183735854,0.7656080030324758,-1.7964041599521106,-0.8801660988726993,-2.8198388072739276,-1.979895708393292E-5,-0.0012908917019710349,-1.5573291434114534E-4,397358.423623,3.7385213555E-12,1017.50731979,5.19502514392,1.60102643231,-6.81341710429
5880.00000001,-2147003.37238,3693172.60724,5241748.32183,-3920385.02255,-1687315.35993,5244866.15734,1988.01538684,-7360.18983391,-890.42521454,5.0539958566,2.17521615575,-6.76146135523,6758662.11723,1.45212417956,0.3995659889289533,1.54111196228404,0.5075198656326939,-1.889754830480622,-0.8684831519525485,-2.6997558300202704,-1.979895708393292E-5,-0.0012856912402855112,-1.6001433568063492E-4,396766.595257,3.92538015518E-12,1027.48400002,5.0539958566,2.17521615575,-6.76146135523
5940.00000001,-2550364.1343,3524391.28931,5176280.69576,-3792102.13293,-2124671.10633,5179315.31406,2286.43586238,-7212.69146083,-1293.76982917,4.88950108006,2.73953108461,-6.67816080219,6758662.11723,1.45649944865,0.24525943483832757,1.5330971278459264,0.35337815094176334,-1.9784365889832678,-0.8502006074300358,-2.5842970857598924,-1.979895708393292E-5,-0.0012783899892831667,-1.6378175924000393E-4,396042.768155,4.13061467529E-12,1037.66151364,4.88950108006,2.73953108461,-6.67816080219
6000.00000001,-2943472.76749,3342808.87618,5086795.06833,-3646223.85764,-2552168.28866,5089732.38875,2574.30100298,-7031.69594127,-1691.18476707,4.70228415407,3.29135592625,-6.56387783486,6758662.11723,1.46087471774,0.14379489716164567,1.5250347197658598,0.2521798249485532,-2.060999049345988,-0.8259402209859938,-2.47488306404179,-1.979895708393292E-5,-0.0012690890481784503,-1.6698361368877902E-4,395194.613969,4.35298276682E-12,1047.89658813,4.70228415407,3.29135592625,-6.56387783486
6060.00000001,-3324618.98799,3149164.36069,4973702.25762,-3483423.92288,-2967821.10616,4976528.64844,2850.27242952,-6818.02982845,-2080.82553658,4.49319406585,3.8281290127,-6.41911793876,6758662.11723,1.46524998683,0.07108918534287482,1.5172762220095197,0.17985741923533904,-2.1365600354917733,-0.796435132067289,-2.3723668840907193,-1.979895708393292E-5,-0.0012579164363588687,-1.6957754280280855E-4,394231.907527,4.59112467507E-12,1058.06221171,4.49319406585,3.8281290127,-6.41911793876
6120.00000001,-3692140.40164,2944237.97472,4837522.69291,-3304454.76758,-3369697.92476,4840225.03469,3113.06578376,-6572.67147001,-2460.8822227,4.26318189139,4.34735415755,-6.24452781759,6758662.11723,1.46962525591,0.01531370296680685,1.51003888258899,0.12459585555215276,-2.204754436688599,-0.7624585002412833,-2.2770854558879057,-1.979895708393292E-5,-0.0012450250668395596,-1.7153120092599442E-4,393166.379416,4.84361130426E-12,1068.05264919,4.26318189139,4.34735415755,-6.24452781759
6180.00000001,-4044429.86193,2728848.09142,4678884.08963,-3110144.12077,-3755930.25982,4681449.83629,3361.45673485,-6296.74672878,-2829.5878877,4.01329675464,4.84661229097,-6.04089286716,6758662.11723,1.474000525,-0.029832703334278204,1.503478439509336,0.080105046824296,-2.2656220224102266,-0.7247674836227396,-2.188971600314176,-1.979895708393292E-5,-0.0012305903895905807,-1.7282287210612212E-4,392011.533561,5.10893581089E-12,1077.78371233,4.01329675464,4.84661229097,-6.04089286716
6240.00000001,-4379942.61426,2503848.01022,4498518.62547,-2901391.22606,-4124721.48142,4500935.86271,3594.2867292,-5991.52401358,-3185.22680065,3.74468131612,5.32357281808,-5.80913400399,6758662.11723,1.47837579409,-0.06797767825675002,1.497716090159946,0.04276576551891618,-2.319479782374822,-0.6840661027109479,-2.1076815454518183,-1.979895708393292E-5,-0.001214807771715672,-1.734419090575594E-4,390782.432571,5.38546365075E-12,1087.18999397,3.74468131612,5.32357281808,-5.80913400399
6300.00000001,-4697203.19389,2270122.6363,4297259.62913,-2679162.72958,-4474355.20112,4299517.13002,3810.46845586,-5658.40863806,-3526.14245756,3.45856680525,5.77600464603,-5.55030385439,6758662.11723,1.48275106318,-0.1013577986319918,1.4928493373507565,0.010347059742552877,-2.366808388251994,-0.6409850070215805,-2.032708185101268,-1.979895708393292E-5,-0.001197889680255224,-1.7338899259956256E-4,389495.454263,5.67136269718E-12,1096.22083778,3.45856680525,5.77600464603,-5.55030385439
6360.00000001,-4994812.04601,2028585.06697,4076037.79533,-2444488.24916,-4803203.30081,4078125.0727,4008.99100062,-5298.93652931,-3850.74535382,3.15626761312,6.20178682501,-5.26558231304,6758662.11723,1.48712633227,-0.13144022348540446,1.488956579067416,-0.0186154835700676,-2.4081652137308924,-0.5960737925958747,-1.9634676462218874,-1.979895708393292E-5,-0.0011800627276946645,-1.7267621540415545E-4,388168.023264,5.96453287662E-12,1104.83630794,3.15626761312,6.20178682501,-5.26558231304
6420.00000001,-5271451.83686,1780173.09724,3835876.94211,-2198455.6443,-5109733.56495,3837784.29759,4188.92466288,-4914.7673109,-4157.52047161,2.83917546489,6.59891874888,-4.95627148337,6758662.11723,1.49150160135,-0.15924711036589834,1.4860990693696448,-0.045144184609259196,-2.444124720041991,-0.5498013945740509,-1.8993583398608263,-1.979895708393292E-5,-0.0011615646310162168,-1.7132699561978458E-4,386818.322156,6.26254913159E-12,1113.0038162,2.83917546489,6.59891874888,-4.95627148337
6480.00000001,-5525893.42659,1525845.65752,3577889.32859,-1942206.00776,-5392516.87992,3579607.89799,4349.42541091,-4507.67678851,-4445.03444548,2.50875319372,6.96552986174,-4.62379001531,6758662.11723,1.49587687044,-0.18553755096172025,1.4843217195916083,-0.0700011793857211,-2.47524148311165,-0.5025609965726242,-1.8397972032465526,-1.979895708393292E-5,-0.0011426411240718277,-1.6937582625914304E-4,385464.987041,6.56262603837E-12,1120.69560478,2.50875319372,6.96552986174,-4.62379001531
6540.00000002,-5757001.4749,1266579.19609,3303270.55352,-1676928.40143,-5650233.96527,3304792.3484,4489.73895208,-4079.5488692,-4711.94237066,2.16652814048,7.29988881794,-4.26966685946,6758662.11723,1.50025213953,-0.2109179768300508,1.483653385373531,-0.09379874388658757,-2.5020297251260475,-0.4546770283027874,-1.7842392541610852,-1.979895708393292E-5,-0.0011235428514800368,-1.668678654222163E-4,384126.792817,6.86160842013E-12,1127.88702314,2.16652814048,7.29988881794,-4.26966685946
6600.00000002,-5963739.65288,1003364.01964,3013294.05716,-1403854.35991,-5881681.60392,3014612.00232,4609.2043966,-3632.36694881,-4956.9942196,1.81408520624,7.60041204429,-3.89553446009,6758662.11723,1.50462740862,-0.23591636688028067,1.4841069402849196,-0.11707336841919408,-2.524953834653174,-0.4064127777017707,-1.7321859585022135,-1.979895708393292E-5,-0.0011045222619852876,-1.6385837088238499E-4,382822.333747,7.15598971722E-12,1134.55542921,1.81408520624,7.60041204429,-3.89553446009
6660.00000002,-6145175.43517,737200.604859,2709305.25092,-1124252.18709,-6085778.34074,2710413.21771,4707.25749461,-3168.20480485,-5179.04083401,1.45305958683,7.86567165523,-3.50312141305,6758662.11723,1.50900267771,-0.2610399711166333,1.485679277875325,-0.14034330081387553,-2.544425648065631,-0.3579778226320634,-1.6831866253373862,-1.979895708393292E-5,-0.0010858305114828711,-1.6041198082978236E-4,381569.705136,7.44195810878E-12,1140.67952686,1.45305958683,7.86567165523,-3.50312141305
6720.00000002,-6300484.4489,469095.894289,2392715.30112,-839421.071709,-6261569.62072,2393608.13634,4783.43342878,-2689.21703502,-5377.03946085,1.0851292214,8.0944026738,-3.09424461794,6758662.11723,1.51337794679,-0.28682994026196285,1.4883512996804398,-0.16416295308474452,-2.5608055426403387,-0.30953491887566625,-1.6368357674178493,-1.979895708393292E-5,-0.0010677143817204163,-1.5660184123215016E-4,380386.192012,7.71546883982E-12,1146.23897034,1.0851292214,8.0944026738,-3.09424461794
6780.00000002,-6428954.35731,200059.58982,2064994.59522,-550685.049096,-6408232.34096,2065668.14547,4837.36914588,-2197.62908436,-5550.05880334,0.71200698895,8.28550951414,-2.67080095753,6758662.11723,1.51775321588,-0.31392537396045245,1.4920878879792536,-0.18918668997644053,-2.57440541422987,-0.2612062322213945,-1.5927683437880948,-1.979895708393292E-5,-0.0010504132207060407,-1.5250857988789265E-4,379287.970735,7.97233944067E-12,1151.21408929,0.71200698895,8.28550951414,-2.67080095753
6840.00000002,-6529988.25818,-68899.5431589,1727665.9203,-259386.837224,-6525078.79305,1728117.05171,4868.80521362,-1695.72690678,-5697.28355922,0.335432689132,8.43807168389,-2.23475854054,6758662.11723,1.52212848497,-0.34315349634104814,1.4968377981979961,-0.2162587142822768,-2.5854923470615443,-0.21307893540243103,-1.5506540675655496,-1.979895708393292E-5,-0.0010341559148692764,-1.4821912828537307E-4,378289.829283,8.20836158832E-12,1155.58556369,0.335432689132,8.43807168389,-2.23475854054
6900.00000002,-6603107.57911,-336777.347722,1382297.38536,33118.4241099,-6611559.97539,1382523.99857,4877.58719077,-1185.84630873,-5818.01842161,-0.0428351543324,8.55134866875,-1.78814754743,6758662.11723,1.52650375406,-0.3756748286282639,1.5025333008122066,-0.24655792497027545,-2.594292275508017,-0.16521025227745903,-1.5101914688488212,-1.979895708393292E-5,-0.0010191579107928367,-1.4382539511864796E-4,377404.91173,8.41943450714E-12,1159.33446243,-0.0428351543324,8.55134866875,-1.78814754743
6960.00000002,-6647954.45414,-602577.910513,1030495.12036,325469.50147,-6667268.25785,1030496.16065,4863.66650119,-670.362025152,-5911.69151974,-0.421027627629,8.62478396499,-1.33305072162,6758662.11723,1.53087902315,-0.4132414425288313,1.5090891825244754,-0.281855838287577,-2.6009932522162993,-0.11763205299512679,-1.4711020858517958,-1.979895708393292E-5,-0.001005618314709274,-1.3942279984891425E-4,376644.492032,8.60172604119E-12,1162.44313616,-0.421027627629,8.62478396499,-1.33305072162
7020.00000002,-6664293.56828,-865317.147179,673895.786178,616305.433341,-6691939.38418,673671.248721,4827.10080469,-151.676579898,-5977.85727953,-0.797373856485,8.65800823011,-0.87159355173,6758662.11723,1.53525429223,-0.4586981739553636,1.5164001876937891,-0.3250174575624373,-2.6057481297537937,-0.07035510431461346,-1.4331249603882497,-1.979895708393292E-5,-9.937171095315994E-4,-1.3510868085148337E-4,376017.781688,8.75183116957E-12,1164.89595985,-0.797373856485,8.65800823011,-0.87159355173
7080.00000002,-6652013.45928,-1124026.32552,314158.930759,904271.902733,-6685453.80103,313709.861003,4768.05386036,367.79101586,-6016.19868723,-1.17010948845,8.65084152626,-0.40593419288,6758662.11723,1.53962956132,-0.5170471147658584,1.5243345539728306,-0.3810654153664979,-2.608676574630989,-0.023373070106921676,-1.3960114943114947,-1.979895708393292E-5,-9.83612540536813E-4,-1.309806000265075E-4,375531.775242,8.86691647642E-12,1166.6798577,-1.17010948845,8.65084152626,-0.40593419288
7140.00000002,-6611127.26811,-1377755.514,-47040.7722015,1188027.5863,-6647837.30532,-47712.2831345,4686.79488046,885.616672054,-6026.52894159,-1.53748518371,8.60329463603,0.0617468224194,6758662.11723,1.54400483041,-0.597953632776344,1.5327169255188944,-0.45968564377741367,-2.609866393594608,0.023333655197844746,-1.3595206518870084,-1.979895708393292E-5,-9.754387299423859E-4,-1.271345736538375E-4,375191.136803,8.94484299954E-12,1167.78470353,-1.53748518371,8.60329463603,0.0617468224194
7200.00000002,-6541772.93253,-1625576.94368,-408021.365155,1466250.44943,-6579261.00527,-408912.189932,4583.69737574,1399.38267889,-6008.79248375,-1.89777506955,8.51556943547,0.529257031084,6758662.11723,1.5483800995,-0.7223821191777233,1.5412783972811903,-0.581862776943071,-2.6093741808480555,0.06979420914985421,-1.3234144501653329,-1.979895708393292E-5,-9.693035862671046E-4,-1.2366326688220022E-4,374998.12994,8.9842599549E-12,1168.20364042,-1.89777506955,8.51556943547,0.529257031084
7260.00000002,-6444212.82066,-1866588.27181,-767101.491529,1737643.95686,-6480040.59386,-768207.480951,4459.2374957,1906.68915984,-5963.065397,-2.24928511305,8.38805831438,0.994402589679,6758662.11723,1.55275536859,-0.9419843327792871,1.5494870814791706,-0.799268159905979,-2.6072253036524518,0.1160435579326027,-1.287453652989521,-1.979895708393292E-5,-9.652870750413963E-4,-1.2065419572451339E-4,374952.592411,8.98466344125E-12,1167.93334832,-2.24928511305,8.38805831438,0.994402589679
