time,gePosition_m_X,gePosition_m_Y,gePosition_m_Z,eiPosition_m_X,eiPosition_m_Y,eiPosition_m_Z,eiVelocity_m_s_X,eiVelocity_m_s_Y,eiVelocity_m_s_Z,eiAccel_m_s2_X,eiAccel_m_s2_Y,eiAccel_m_s2_Z,semiMajorAxis_m,gast_rad,eulerAngle_rad_Roll,eulerAngle_rad_Pitch,eulerAngle_rad_Yaw,eulerAngleWrtEi_rad_Roll,eulerAngleWrtEi_rad_Pitch,eulerAngleWrtEi_rad_Yaw,bodyAngularRateWrtEi_rad_s_Roll,bodyAngularRateWrtEi_rad_s_Pitch,bodyAngularRateWrtEi_rad_s_Yaw,altitudeMsl_m,airDensity_kg_m3,ambientTemperature_dgK,eiGravitation_m_s2_X,eiGravitation_m_s2_Y,eiGravitation_m_s2_Z
0.0,-1428622.33421605,4163200.23408807,5136049.85325658,-4292653.41,955168.470000001,5139356.57,109.64966300148,-7527.72649000027,1484.52148900137,5.52898656935719,-1.23026788740986,-6.61954989994584,6758662.11722982,1.02331933954551,0.196897354857469,1.48180599450461,0.197659401373356,-1.37314475876759,-0.867737478486566,3.05977258920153,-1.97989570827E-5,-0.001134281491609,0.0,398287.115472891,3.4018E-12,990.9677734375,5.52898656935719,-1.23026788740986,-6.61954989994584
60.0,-1789712.66688801,3920255.07286153,5213136.77866225,-4276130.76360603,501640.150638707,5216447.94770985,440.899504427431,-7584.04304560393,1084.18939672429,5.50841669093311,-0.646201702281487,-6.719712406156,6758662.11722981,1.02769460895833,0.196477574531898,1.4824063491373,0.19724141783063,-1.45384951035489,-0.878472629823746,-3.11968742124602,-1.97989570827E-5,-0.0011150148564449,-5.1214351494E-6,398357.017701142,3.2024E-12,984.492431640625,5.50841669093311,-0.646201702281487,-6.719712406156
120.0,-2144732.04662905,3662345.06425589,5266057.40817693,-4239785.46485052,45786.4492663021,5269357.68010088,770.149856362154,-7605.2077588941,678.777242700872,5.46236021841777,-0.058989324126963,-6.78881750197518,6758662.11722981,1.03206987837114,0.195205084336031,1.48419983722375,0.195988276928094,-1.53524750770478,-0.883989231053644,-3.01576069106579,-1.97989570827E-5,-0.0010959939815091,-1.01542537111E-5,398286.426972884,3.31E-12,992.429565429687,5.46236021841777,-0.058989324126963,-6.78881750197518
180.0,-2492166.13162718,3390598.74813122,5294563.01581385,-4183783.25764123,-410279.480789338,5297837.0895684,1095.87688043119,-7591.11290731518,270.1592543332,5.39101509822649,0.528665740843096,-6.82652947798967,6758662.11722984,1.03644514778395,0.193026732640993,1.48716300383286,0.193867377851087,-1.61603767937211,-0.884430403767336,-2.91287242197028,-1.97989570827E-5,-0.0010774702410982,-1.50328936867E-5,398079.274173534,3.4386E-12,1001.05029296875,5.39101509822649,0.528665740843096,-6.82652947798967
240.0,-2830524.93703077,3106195.59239715,5298517.77706277,-4108380.89026428,-864442.894077582,5301750.47079932,1416.57209400392,-7541.81319429672,-139.774483846494,5.29469509567205,1.11405482451913,-6.8326557264296,6758662.11722987,1.04082041719676,0.18983614280034,1.49125651317014,0.190792092434681,-1.69500460067091,-0.880039756065842,-2.81217652605306,-1.97989570827E-5,-0.0010596893963383,-1.96944870509E-5,397733.849092701,3.5884E-12,1010.26550292968,5.29469509567205,1.11405482451913,-6.8326557264296
300.0,-3158349.27065452,2810360.86253624,5277899.46242089,-4013924.98616862,-1314597.20057474,5281075.7837958,1730.74928790111,-7457.5256937731,-549.126655786194,5.17382866282707,1.69447627941298,-6.80714795491118,6758662.11722986,1.04519568660958,0.18545274350848,1.49642559771219,0.186600457132494,-1.7711094050175,-0.87113896622851,-2.71464975846304,-1.97989570827E-5,-0.001042888575619,-2.40799693684E-5,397253.412922238,3.7594E-12,1019.95324707031,5.17382866282707,1.69447627941298,-6.80714795491118
360.0,-3474217.08356248,2504360.33240143,5232799.61189834,-3900850.50203059,-1758653.68795009,5235904.82755119,2036.95136094596,-7338.62906255893,-956.001393644212,5.0289572988201,2.26724769265309,-6.75010277495491,6758662.11722984,1.04957095602238,0.179580448059328,1.50260067034993,0.181013540494964,-1.84354682406595,-0.858099557987282,-2.62103442720525,-1.97989570827E-5,-0.0010272932568754,-2.81351607646E-5,396641.36562969,3.9509E-12,1029.97082519531,5.0289572988201,2.26724769265309,-6.75010277495491
420.0,-3776749.70791139,2189494.85846839,5163423.18837942,-3769678.77900081,-2194551.17459288,5166442.89226219,2333.75704093164,-7185.66202019759,-1358.51297383502,4.8607334037903,2.82971808104518,-6.66176165594942,6758662.11722984,1.0539462254352,0.171725502485287,1.50969806207142,0.173553010434435,-1.91176355139676,-0.841313842610671,-2.53181978677935,-1.97989570827E-5,-0.0010131142743135,-3.18117987391E-5,395895.088251038,4.162E-12,1040.1689453125,4.8607334037903,2.82971808104518,-6.66176165594942
480.0,-4064617.95455067,1867094.84019274,5070087.71000333,-3621015.19485857,-2620265.54951372,5073007.89024537,2619.78746171101,-6999.32109896113,-1754.79449109273,4.66991762971271,3.37928001560925,-6.54251023745121,6758662.11722982,1.05832149484801,0.161022734593151,1.51762079320994,0.163367136657548,-1.97544349934836,-0.821169221148991,-2.44725653875426,-1.97989570827E-5,-0.0010005448865638,-3.50684994812E-5,395030.641323597,4.3915E-12,1050.40612792968,4.66991762971271,3.37928001560925,-6.54251023745121
540.0,-4336548.04310486,1538514.58951118,4953221.86403547,-3455546.42660893,-3033819.15548765,4956028.96803487,2893.71256636928,-6780.45766980717,-2143.00647189824,4.45737573340016,3.91338162296542,-6.39287699509382,6758662.11722981,1.06269676426082,0.145829226862194,1.5262591271819,0.148824253705363,-2.03447134348026,-0.798028380953957,-2.36739303567016,-1.97989570827E-5,-9.897579576011E-4,-3.78716212379E-5,394059.702145742,4.6383E-12,1060.55859375,4.45737573340016,3.91338162296542,-6.39287699509382
600.0,-4591327.33761593,1205126.63283089,4813363.60702585,-3274037.33484955,-3433289.97225013,4816044.60446501,3154.25730682394,-6530.07425328243,-2521.34538840811,4.22407493918241,4.42953841007267,-6.21353125792628,6758662.11722981,1.06707203367362,0.12262477500918,1.53549009721721,0.126413048078913,-2.0888864862571,-0.772216176388834,-2.29212104562216,-1.97989570827E-5,-9.809033141151E-4,-4.01960015269E-5,392989.7494385,4.901E-12,1070.52355957031,4.22407493918241,4.42953841007267,-6.21353125792628
660.0,-4827809.86129808,868315.969071724,4651157.75838314,-3077327.48299857,-3816820.55719292,4653700.20187493,3400.20761071461,-6249.32012759444,-2888.05203397277,3.97107982105355,4.92534485815665,-6.00528057770799,6758662.11722982,1.07144730308643,0.082309575851947,1.54517266506772,0.0870401140707079,-2.13883695612476,-0.744012686514167,-2.2212215483183,-1.97989570827E-5,-9.741053515315E-4,-4.20255400854E-5,391827.634741179,5.1781E-12,1080.21948242187,3.97107982105355,4.92534485815665,-6.00528057770799
720.0,-5044921.56455813,529474.307458965,4467353.0968242,-2866327.30620439,-4182626.70183835,4469745.17990494,3630.41608710393,-5939.48624933605,-3241.41972144849,3.6995477164527,5.3984857312233,-5.76906745354909,6758662.11722981,1.07582257249925,-0.0077657640774378,1.55511793377116,-0.0019401298069513,-2.18453901751838,-0.713651251181897,-2.15440477207897,-1.97989570827E-5,-9.694609640872E-4,-4.33536017258E-5,390589.996172759,5.4681E-12,1089.58361816406,3.6995477164527,5.3984857312233,-5.76906745354909
780.0,-5241665.32116445,189994.308806901,4262798.97147704,-2642013.94644313,-4529005.76339754,4265029.58367401,3843.80744331334,-5601.99950563128,-3579.80226580021,3.41072368628999,5.846747044375,-5.50596541829331,6758662.1172298,1.08019784191205,-0.393731376316486,1.56473747868795,-0.386656640914192,-2.22624495010639,-0.681320100170852,-2.0913419965947,-1.97989570827E-5,-9.67037871369E-4,-4.41832178151E-5,389296.844622607,5.7689E-12,1098.56665039062,3.41072368628999,5.846747044375,-5.50596541829331
840.0,-5417125.62830558,-148736.146016441,4038441.44171074,-2405426.77194258,-4854344.63194323,4040500.22042439,4039.38358616932,-5238.41631975566,-3901.62171297017,3.10593503833352,6.26802663725345,-5.21717449618125,6758662.1172298,1.08457311132487,-2.3691699181538,1.56440627139963,-2.36069355285344,-2.26421918944939,-0.647166313110475,-2.03168891057896,-1.97989570827E-5,-9.668734043453E-4,-4.45270717104E-5,387963.481300883,6.0783E-12,1107.12976074218,3.10593503833352,6.26802663725345,-5.21717449618125
900.0,-5570472.98726818,-485339.636897017,3795318.96202706,-2157662.60064273,-5157127.29514892,3797196.34098206,4216.2283820388,-4850.41563555417,-4205.37577765619,2.78658543361583,6.66034429835499,-4.90401604458825,6758662.1172298,1.08894838073768,-2.72608278391453,1.55472694414002,-2.71605636026423,-2.29872179667286,-0.611301105486678,-1.97510153627027,-1.97989570827E-5,-9.689737987566E-4,-4.44072617103E-5,386611.30852087,6.3938E-12,1115.24084472656,2.78658543361583,6.66034429835499,-4.90401604458825
960.0,-5700967.94258045,-818454.811245904,3534557.63056348,-1899870.64890283,-5435941.96416304,3536244.88459791,4373.51205128858,-4439.79130921397,-4489.64495351173,2.45414859808007,7.02185138672442,-4.56792699598553,6758662.11722981,1.09332365015049,-2.81428881420643,1.54476930948194,-2.80257056296163,-2.32999776075841,-0.573805713258981,-1.9212461949254,-1.97989570827E-5,-9.733140240849E-4,-4.38548442435E-5,385256.591437082,6.7121E-12,1122.87268066406,2.45414859808007,7.02185138672442,-4.56792699598553
1020.0,-5807964.75871303,-1146741.89376201,3257366.02191449,-1633247.22808599,-5689487.72599555,3258855.30789261,4510.49517421382,-4008.44394012673,-4753.09926035098,2.11016166424396,7.3508398986551,-4.21045351969878,6758662.11722979,1.0976989195633,-2.85589577369176,1.53507516389135,-2.84235304064409,-2.35827062362007,-0.53473738852378,-1.86980499889089,-1.97989570827E-5,-9.798381541021E-4,-4.29091693E-5,383915.472811385,7.0298E-12,1130.00073242187,2.11016166424396,7.3508398986551,-4.21045351969878
1080.0,-5890914.71479886,-1468888.07664787,2965029.62706434,-1359030.21298284,-5916580.68979238,2966314.02071612,4626.53228704339,-3558.37217567503,-4994.50459422085,1.75621817018927,7.64575092852297,-3.833244126512,6758662.11722979,1.10207418897612,-2.88172532312919,1.52582995268921,-2.86623688469551,-2.38373911872276,-0.494135203084686,-1.82047815288189,-1.97989570827E-5,-9.884602624028E-4,-4.16170286731E-5,382612.577290348,7.3429E-12,1136.60229492187,1.75621817018927,7.64575092852297,-3.833244126512
1140.0,-5949368.99932619,-1783612.76826859,2658904.92522849,-1078493.30726906,-6116159.59655313,2659978.45373708,4721.07504834278,-3091.66352777447,-5212.72864768934,1.39396074566022,7.90518247477739,-3.43804224265474,6758662.11722981,1.10644945838892,-2.90052968731375,1.51717379747464,-2.88298788967394,-2.406575781714,-0.452025488076451,-1.77298407641126,-1.97989570827E-5,-9.990658056307E-4,-4.00316446798E-5,381362.917326334,7.6471E-12,1142.65649414062,1.39396074566022,7.90518247477739,-3.43804224265474
1200.0,-5982981.18836927,-2089672.67887428,2340413.11430863,-792940.132317241,-6287290.86420461,2341270.78448689,4793.67495799482,-2610.48474187501,-5406.74636939627,1.0250735174472,8.12789654440821,-3.0266782831849,6758662.1172298,1.11082472780174,-2.91574251879679,1.50922912731332,-2.8960552056123,-2.42692674979328,-0.40842682627391,-1.72705809722709,-1.97989570827E-5,-0.0010115134403017,-3.82115320764E-5,380194.967625397,7.9378E-12,1148.142578125,1.0250735174472,8.12789654440821,-3.0266782831849
1260.0,-5991509.29264263,-2385866.72273105,2011033.52846714,-503698.166693226,-6429173.0424675,2011671.35038417,4843.98561293802,-2117.0717618468,-5575.64493381641,0.651274268515437,8.31282551191483,-2.60106125820555,6758662.11722982,1.11519999721455,-2.92899612474597,1.50210519916213,-2.90708832013331,-2.44491218353969,-0.363354570971823,-1.68245024366346,-1.97989570827E-5,-0.0010256372076954,-3.62192685867E-5,379113.802273269,8.2104E-12,1153.04113769531,0.651274268515437,8.31282551191483,-2.60106125820555
1320.0,-5974817.36049393,-2671040.71682334,1672296.77300613,-212112.564553188,-6541140.65463567,1672711.77894626,4871.76448597487,-1613.71933672274,-5718.62819429183,0.274306387482386,8.45907769191743,-2.16316994869451,6758662.11722984,1.11957526662736,-2.94117849996482,1.49589849909547,-2.91699381556448,-2.46062691329266,-0.316824901250421,-1.63892248909663,-1.97989570827E-5,-0.0010412490160268,-3.41202097725E-5,378137.13197787,8.4599E-12,1157.33276367187,0.274306387482386,8.45907769191743,-2.16316994869451
1380.0,-5932876.62587567,-2944091.85720568,1325777.60828453,80460.1180883177,-6622667.40621843,1325967.86694269,4876.87421621916,-1102.77031761807,-5835.0205946947,-0.104069352976453,8.56594208806514,-1.71504369194223,6758662.11722985,1.12395053604017,-2.95282862530085,1.49069217022079,-2.9263303630947,-2.47414103586514,-0.268858445520778,-1.59624567007711,-1.97989570827E-5,-0.0010581413500328,-3.19811821501E-5,377270.032488774,8.6818E-12,1160.99865722656,-0.104069352976453,8.56594208806514,-1.71504369194223
1440.0,-5865766.19235209,-3203972.95508512,973087.615810202,372658.259633665,-6673368.74335947,973052.241650227,4859.28340212033,-586.604695273007,-5924.27051757332,-0.482083148433891,8.63289228480157,-1.25877281965125,6758662.11722988,1.12832580545299,-2.96430895822734,1.48655523766684,-2.93548088431293,-2.48550027426165,-0.219483518720625,-1.55419620313991,-1.97989570827E-5,-0.0010760901445049,-2.98691849561E-5,376528.405951905,8.8718E-12,1164.02111816406,-0.482083148433891,8.63289228480157,-1.25877281965125
1500.0,-5773673.2462934,-3449696.41580367,615867.680893266,663121.541665112,-6693003.74703074,615606.838618438,4819.06689047255,-67.6284305439506,-5985.95304930521,-0.8579646038137,8.65958945282588,-0.79648879460925,6758662.11722988,1.13270107486579,-2.97589079111138,1.48354187025039,-2.94473756000485,-2.49472597148394,-0.168739026942555,-1.51255265548538,-1.97989570827E-5,-0.0010948577688351,-2.78501264062E-5,375921.968944083,9.0262E-12,1166.38513183593,-0.8579646038137,8.65958945282588,-0.79648879460925
1560.0,-5656892.79457463,-3680337.94506538,255780.32733092,950497.319820409,-6681476.35218942,255295.23143931,4756.40555737137,451.737868218218,-6019.7721456149,-1.22995122006694,8.64588444371054,-0.330354094470652,6758662.11722991,1.1370763442786,-2.98780211625994,1.48169076516362,-2.95434933048849,-2.5018146267558,-0.116677098984517,-1.47109217462568,-1.97989570827E-5,-0.0011141960825606,-2.59876153306E-5,375458.300624371,9.1418E-12,1168.07775878906,-1.22995122006694,8.64588444371054,-0.330354094470652
1620.0,-5515826.92431864,-3895039.96800286,-105498.059496743,1233446.9662423,-6638835.88436261,-106205.150076057,4671.58557970691,969.070365639001,-6025.56218379864,-1.59629688216533,8.59181895408186,0.137448106466061,6758662.11722987,1.14145161369142,-3.00025890448811,1.48102468800466,-2.96455280021523,-2.50673690465127,-0.063365508934512,-1.4295867463918,-1.97989570827E-5,-0.0011338495352658,-2.43418243395E-5,375142.288781353,9.2164E-12,1169.08959960937,-1.59629688216533,8.59181895408186,0.137448106466061
1680.0,-5350983.58449322,-4093014.74799981,-466285.084013787,1510652.15305865,-6565276.90947368,-467210.876183916,4564.99719846155,1481.95346135608,-6003.28889111449,-1.95528030341509,8.49762574499268,0.604724404552086,6758662.1172299,1.14582688310422,-3.01349009877427,1.48155017713429,-2.97559685488981,-2.50943605974566,-0.0088899586107851,-1.38779922588213,-1.97989570827E-5,-0.0011535582961173,-2.29684366762E-5,374976.967145097,9.2487E-12,1169.41369628906,-1.95528030341509,8.49762574499268,0.604724404552086
1740.0,-5162974.89147212,-4273547.19357661,-824900.228676118,1780821.0465073,-6461138.39612261,-826040.410291651,4437.13297779407,1987.99123663675,-5953.04964202476,-2.305213380668,8.36372790758603,1.06928172851027,6758662.11722989,1.15020215251704,-3.02776278583575,1.48325740766776,-2.9877674612005,-2.50982572616657,0.0466437056210952,-1.34547907033905,-1.97989570827E-5,-0.0011730614071481,-2.19176860009E-5,374959.075690923,9.2384E-12,1169.04760742187,-2.305213380668,8.36372790758603,1.06928172851027
1800.0,-4952514.96299125,-4435997.34309448,-1179672.74105793,2042694.38164054,-6326902.19296538,-1181022.00083346,4288.58556662272,2484.81882822846,-5875.07312029947,-2.64444941490565,8.19073717181097,1.52893793959841,6758662.11722987,1.15457742192984,-3.04341339202689,1.48612019759755,-3.00141850320461,-2.5077870277672,0.103107259752479,-1.30235769696209,-1.97989570827E-5,-0.0011920999589655,-2.12334966371E-5,375082.95397931,9.186E-12,1167.9921875,-2.64444941490565,8.19073717181097,1.52893793959841
1860.0,-4720417.28725766,-4579802.51853144,-1528949.48167673,2295051.38802869,-6163190.82727995,-1530501.53379448,4120.04497214524,2970.11367207358,-5769.71834537841,-2.97139115191208,7.97945126076471,1.98153241327245,6758662.11722987,1.15895269134266,-3.06089259673012,1.49009611981627,-3.01701635635121,-2.50316497688541,0.16034776138632,-1.25814339533612,-1.97989570827E-5,-0.0012104202872028,-2.09527312604E-5,375351.379689237,9.0932E-12,1166.25244140625,-2.97139115191208,7.97945126076471,1.98153241327245
1920.0,-4467591.63628386,-4704479.14113003,-1871102.69450299,2536715.53752984,-5970764.63424081,-1872850.30780658,3932.29535743536,3441.60655985056,-5637.47306582489,-3.28449859833384,7.73085029913984,2.42493654486376,6758662.11722987,1.16332796075546,-3.0808369028789,1.49512664892045,-3.03521114651695,-2.49576415690361,0.218184998507966,-1.21251575023732,-1.97989570827E-5,-0.001227777182744,-2.11045533597E-5,375746.446199197,8.9626E-12,1163.83740234375,-3.28449859833384,7.73085029913984,2.42493654486376
1980.0,-4195040.53481479,-4809624.20329167,-2204537.6623738,2766560.08600094,-5750518.22982727,-2206472.69401266,3726.21137791128,3897.0924519908,-5478.95152615897,-3.58229656935883,7.44609229019964,2.85706412166563,6758662.11722987,1.16770323016828,-3.10419180248189,1.50113719858429,-3.05695963933649,-2.48534374010972,0.276408612526025,-1.16511958843721,-1.97989570827E-5,-0.0012439370991514,-2.17099126781E-5,376261.99234465,8.7974E-12,1160.76123046875,-3.58229656935883,7.44609229019964,2.85706412166563
2040.0,-3903855.29846613,-4894916.39270081,-2527700.21000992,2983513.38179147,-5503476.34364236,-2529813.6433772,3502.75407406079,4334.44099186391,-5294.8916168069,-3.86338192552467,7.12650768162922,3.27588150414145,6758662.1172299,1.17207849958109,-3.13243930939218,1.50803673858261,-3.08375253890966,-2.47161199966575,0.334774769785091,-1.11555857356932,-1.97989570827E-5,-0.001258681327981,-2.27811627967E-5,376887.34595231,8.6015E-12,1157.04187011718,-3.86338192552467,7.12650768162922,3.27588150414145
2100.0,-3595211.65689571,-4960116.86627993,-2839084.01802184,3186563.91497946,-5230789.03119736,-2841366.00480764,3262.96634031021,4751.60666722064,-5086.15142032018,-4.12643045778773,6.77359304645672,3.67941755972481,6758662.11722989,1.1764537689939,3.11513342259589,1.51571626434405,-3.11806822717858,-2.45422066691012,0.393002253013928,-1.06338876943721,-1.97989570827E-5,-0.0012718090984325,-2.43218205761E-5,377609.634847029,8.3794E-12,1152.70239257812,-4.12643045778773,6.77359304645672,3.67941755972481
2160.0,-3270364.97996108,-5005069.67320759,-3137237.71217998,3374765.08257507,-4933726.28840113,-3139677.61834143,3007.96799231988,5146.63856672691,-4853.70517037598,-4.37020338193335,6.38900391094836,4.0657732938811,6758662.11722989,1.18082903840671,3.06770047425836,1.52404423246015,3.11882027920144,-2.43275981390363,0.450767860620236,-1.00811282493418,-1.97989570827E-5,-0.0012831405439444,-2.63264769249E-5,378415.688858797,8.1356E-12,1147.77185058593,-4.37020338193335,6.38900391094836,4.0657732938811
2220.0,-2930645.12686725,-5029701.82785675,-3420771.69331258,3547239.64632322,-4613672.09406245,-3423358.14874328,2738.95045725718,5517.68968150269,-4598.638643343,-4.59355340567444,5.97454676689602,4.43313112473321,6758662.11722989,1.18520430781953,2.99957612528018,1.53285336834493,3.0516712971158,-2.40675447823346,0.507701057661643,-0.949175974824848,-1.97989570827E-5,-0.001292519466892,-2.87808669952E-5,379289.542796846,7.8751E-12,1142.283203125,-4.59355340567444,5.97454676689602,4.43313112473321
2280.0,-2577450.94026575,-5034023.03512376,-3688364.67447599,3703183.86127358,-4272117.90914854,-3691085.62613914,2457.17111372215,5863.02570398438,-4322.14400535984,-4.7954303343463,5.53217031097919,4.77976374961026,6758662.11722991,1.18957957723233,2.89057688167342,1.54189911504629,2.94348959240158,-2.37566508339445,0.563377951760179,-0.885965890578702,-1.97989570827E-5,-0.0012998158252741,-3.16621053025E-5,380214.806923516,7.6026E-12,1136.27587890625,-4.7954303343463,5.53217031097919,4.77976374961026
2340.0,-2212244.40911237,-5018125.07221063,-3938769.8935098,3841871.25494707,-3910655.6643235,-3941612.66178236,2163.94730996243,6181.03327914015,-4025.51414089893,-4.97488618394073,5.06395595884187,5.10404255434038,6758662.11722988,1.19395484664514,2.68610273447256,1.55070292237294,2.73968105823589,-2.33889493116314,0.617314923355296,-0.817819641734825,-1.97989570827E-5,-0.0013049278635731,-3.49390874444E-5,381174.05673899,7.3228E-12,1129.79467773437,-4.97488618394073,5.06395595884187,5.10404255434038
2400.0,-1836544.52581784,-4982180.83248315,-4170820.97073258,3962656.03870022,-3530970.2699006,-4173772.30869239,1860.6500907985,6470.22766606672,-3710.1364916567,-5.1310797733034,4.57210768612795,5.40444551895297,6758662.11722988,1.19833011605796,2.22119077161902,1.55782493915654,2.27529152955642,-2.2958096686729,0.668962697063439,-0.744042657282298,-1.97989570827E-5,-0.0013077838146254,-3.85730553063E-5,382149.853346406,7.0401E-12,1122.89013671875,-5.1310797733034,4.57210768612795,5.40444551895297
2460.0,-1451920.86482259,-4926443.03854445,-4383437.38334506,4064976.13476312,-3134831.68476348,-4386483.53871828,1548.69766527262,6729.25977125817,-3377.48643729605,-5.26328077061595,4.05894125292196,5.67956457665766,6758662.11722987,1.20270538547076,1.36322940905833,1.55894006623483,1.41772085111832,-2.24577544873554,0.717702384767294,-0.663946394621976,-1.97989570827E-5,-0.0013083431103899,-4.2518317256E-5,383126.455451176,6.7585E-12,1115.61853027343,-5.26328077061595,4.05894125292196,5.67956457665766
2520.0,-1059986.91117939,-4851242.633133,-4575629.53007319,4148355.80438979,-2724086.58303043,-4578756.30954692,1229.54864842423,6956.9225183401,-3029.12025205139,-5.37087317276524,3.52687287180276,5.92811238649104,6758662.11722988,1.20708065488357,0.783068495112136,1.55286420081102,0.837832763697712,-2.18822376632024,0.762846112724059,-0.57691268985573,-1.97989570827E-5,-0.0013065970562119,-4.67231093509E-5,384086.225811476,6.4818E-12,1108.041015625,-5.37087317276524,3.52687287180276,5.92811238649104
2580.0,-662393.169030385,-4756986.85786254,-4746503.36169145,4212407.86460096,-2300649.6592375,-4749696.1972848,904.695111770009,7152.156522775,-2666.6676734697,-5.45335819983266,2.97840738300244,6.14892848383539,6758662.11722989,1.21145592429638,0.532804490633969,1.54431999630142,0.587739815571036,-2.12274999011871,0.803646170703765,-0.482491800611083,-1.97989570827E-5,-0.0013025689441151,-5.11305785342E-5,385012.99508878,6.213E-12,1100.22448730468,-5.45335819983266,2.97840738300244,6.14892848383539
2640.0,-260820.081010188,-4644157.03116251,-4895264.55530392,4256835.4831028,-1866494.61459016,-4898508.57248122,575.655478021131,7314.05504394126,-2291.82412158807,-5.51035659067877,2.41612600294258,6.34098477707519,6758662.11722989,1.2158311937092,0.405153130258642,1.53532600325818,0.460175710436775,-2.04924659027886,0.839317751400412,-0.380535135902506,-1.97989570827E-5,-0.0012963136038325,-5.56798646824E-5,385894.56878823,5.955E-12,1092.23779296875,-5.51035659067877,2.41612600294258,6.34098477707519
2700.0,143029.209414745,-4513306.03804502,-5021222.21261144,4281433.54312112,-1423644.86836813,-5024502.29981322,243.967296297338,7441.86819103388,-1906.34260862543,-5.54161028941558,1.84267371467159,6.50339036292487,6758662.11722986,1.220206463122,0.327125409501803,1.5264912650078,0.382170943479492,-1.96805787877915,0.869080272072804,-0.271349483831914,-1.97989570827E-5,-0.0012879164134476,-6.03072555643E-5,386715.337343735,5.71E-12,1084.15270996093,-5.54161028941558,1.84267371467159,6.50339036292487
2760.0,547436.219852129,-4365055.54550866,-5123792.06484313,4286089.57208114,-974164.039856677,-5127092.94410378,-88.8200654054303,7535.00636340089,-1512.02538078153,-5.54698351641283,1.26074637043652,6.63539563739238,6758662.11722988,1.22458173253482,0.27296888183684,1.51809302653596,0.327993717548729,-1.88012057102023,0.892219446213088,-0.155837040792729,-1.97989570827E-5,-0.0012774918124181,-6.49473875182E-5,387463.672616968,5.4797E-12,1076.0390625,-5.54698351641283,1.26074637043652,6.63539563739238
2820.0,950674.581683364,-4200092.95848633,-5202499.169563,4270784.2302783,-520146.247213758,-5205805.46787955,-421.152773471707,7593.04291018084,-1110.71533498286,-5.52646322133731,0.673077577781572,6.73639568389018,6758662.11722984,1.22895700194763,0.231808673737256,1.51030767076681,0.286790555977775,-1.78703197043314,0.908165484244495,-0.0355630397457531,-1.97989570827E-5,-0.0012651813764465,-6.95344649711E-5,388131.146929718,5.2655E-12,1067.96179199218,-5.52646322133731,0.673077577781572,6.73639568389018
2880.0,1351017.54964659,-4019168.13224732,-5256980.0871619,4235591.35790864,-63706.2704615065,-5260276.40827512,-751.47989058989,7615.71599841144,-704.287254385773,-5.48015891953776,0.0824254411720424,6.80593292462391,6758662.11722982,1.23333227136044,0.19832792836727,1.50326851779619,0.253266331717694,-1.69098439271614,0.916573068602777,0.0873104093738104,-1.97989570827E-5,-0.0012511515247494,-7.40034736589E-5,388704.113634015,5.068E-12,1059.9794921875,-5.48015891953776,0.0824254411720424,6.80593292462391
2940.0,1746745.53411614,-3823089.85806874,-5286984.52749358,4180677.58104619,393030.373689568,-5290255.52374122,-1078.26070947623,7602.92968310351,-294.638907140203,-5.4083019168284,-0.508440768796418,6.84369902603248,6758662.11722981,1.23770754077325,0.169618514526524,1.49708360339026,0.224534558588354,-1.59454013064892,0.917380944600773,0.210249968978732,-1.97989570827E-5,-0.0012355909350657,-7.82913652288E-5,389186.789150549,4.8876E-12,1052.13940429687,-5.4083019168284,-0.508440768796418,6.84369902603248
3000.0,2136153.62179094,-3612722.1397941,-5292376.45979672,4106301.47935572,847937.397214166,-5295606.90369916,-1399.972021946,7554.75417708677,116.31794666793,-5.3112439313538,-1.09675394701615,6.84953605367536,6758662.11722984,1.24208281018606,0.143939163763862,1.49184187328762,0.198875116699012,-1.50029082743481,0.910830030353663,0.330692346874548,-1.97989570827E-5,-0.0012187077402991,-8.23381943721E-5,389569.224718936,4.7241E-12,1044.4765625,-5.3112439313538,-1.09675394701615,6.84953605367536
3060.0,2517559.05057918,-3388980.27959518,-5273134.68174308,4012812.32049824,1298897.69837099,-5276309.53698358,-1715.11528750485,7471.42532270194,526.666594838669,-5.18945512470914,-1.67976241571331,6.82343687652241,6758662.11722986,1.24645807959887,0.120161148421757,1.48761542778626,0.175179533617213,-1.41050680636992,0.897431679629496,0.446395646142137,-1.97989570827E-5,-0.0012007265737915,-8.60881932481E-5,389850.964941631,4.5771E-12,1037.01513671875,-5.18945512470914,-1.67976241571331,6.82343687652241
3120.0,2889308.60471891,-3152826.7918441,-5229352.84615137,3900648.36831284,1743813.26380487,-5232457.33761688,-2022.22366646447,7353.34327160774,934.494414718665,-5.04352155781059,-2.25474304739753,6.76554482505417,6758662.11722984,1.25083334901168,0.0974943036062184,1.48446028094045,0.152676632527432,-1.32688763736048,0.877895972958039,0.555689511040578,-1.97989570827E-5,-0.001181885519219,-8.9490771252E-5,390032.203162007,4.4457E-12,1029.76928710937,-5.04352155781059,-2.25474304739753,6.76554482505417
3180.0,3249785.89659371,-2905267.16448557,-5161238.94658971,3770334.77392794,2180614.96792963,-5164258.62914348,-2319.8688836109,7201.07038306316,1337.90187216959,-4.87414209013627,-2.8190141817285,6.67615261188972,6758662.11722982,1.2552086184245,0.0753385037101366,1.48241654724575,0.130783665454138,-1.25047020408932,0.853042501198422,0.657567803453725,-1.97989570827E-5,-0.001162433007732,-9.25014307361E-5,390106.873487289,4.329E-12,1022.74633789062,-4.87414209013627,-2.8190141817285,6.67615261188972
3240.0,3597418.50228782,-2647345.48767426,-5069114.26574169,3622481.06095827,2607272.22311067,-5072035.09140583,-2606.66788965981,7015.32835500723,1735.01143396123,-4.68212474386578,-3.36994827147311,6.55570052778818,6758662.11722982,1.2595838878373,0.0531947571109141,1.48150842811245,0.109017101621745,-1.18167857639783,0.823716682227039,0.751639502138348,-1.97989570827E-5,-0.0011426246911129,-9.50825908686E-5,390089.019936093,4.226E-12,1015.95050048828,-4.68212474386578,-3.36994827147311,6.55570052778818
3300.0,3930684.91867075,-2380139.96970972,-4953411.79301687,3457778.21786942,3021802.43514015,-4956220.17625154,-2881.2892891058,6796.99460606819,2123.97635059548,-4.46838255711744,-3.90498419547426,6.40477392978714,6758662.11722982,1.26395915725012,0.0306047536975765,1.48174415654578,0.086931910909841,-1.12045725306031,0.790726053452486,0.837996254891063,-1.97989570827E-5,-0.0011227203072237,-9.72043122906E-5,389975.310505711,4.1355E-12,1009.38500976562,-4.46838255711744,-3.90498419547426,6.40477392978714
3360.0,4248121.31069835,-2104758.36046116,-4814674.12043252,3276995.41243046,3422280.2196961,-4817357.00120821,-3142.45950459859,6547.09793026699,2502.98926768503,-4.23392895290154,-4.4216391796432,6.22410004191948,6758662.11722981,1.26833442666293,0.0071019277394318,1.48311596146942,0.0640724089686652,-1.06642705305759,0.754800506230406,0.917057299395233,-1.97989570827E-5,-0.0011029805444282,-9.88449146915E-5,389775.473861763,4.0564E-12,1003.05456542968,-4.23392895290154,-4.4216391796432,6.22410004191948
3420.0,4548328.01865792,-1822333.30253304,-4653550.82826529,3080976.34491742,3806846.3368863,-4656095.73263618,-3388.96864964244,6266.81344961944,2870.29062534076,-3.97987265256474,-4.91752027037913,6.01454409236587,6758662.11722982,1.27270969607574,-0.0178375102697865,1.48560005841689,0.0399231203838167,-1.01902378896826,0.716573264438935,0.989431611848847,-1.97989570827E-5,-0.0010836639061509,-9.99914780998E-5,389503.726485487,3.9876E-12,996.966003417968,-3.97987265256474,-4.91752027037913,6.01454409236587
3480.0,4829975.79626356,-1534017.63037709,-4470795.37435844,2870635.25837041,4173716.30258833,-4473190.47225729,-3619.67608319907,5957.45689306862,3224.17680654872,-3.70741216438716,-5.39033530846443,5.77710481403399,6758662.11722983,1.27708496548855,-0.0448546370937945,1.48915662765935,0.0138485970559395,-0.977603253390405,0.676576606424787,1.05581374451824,-1.97989570827E-5,-0.0010650235758929,-1.00640216962E-4,389172.883722222,3.928E-12,991.128601074218,-3.70741216438716,-5.39033530846443,5.77710481403399
3540.0,5091811.75181277,-1240979.63741476,-4267261.50325968,2646952.62573548,4521188.63709424,-4269495.66324884,-3833.51562166441,5620.47823318163,3563.00799722381,-3.4178298796067,-5.83790335533689,5.51290933839378,6758662.11722984,1.28146023490136,-0.0747939384056925,1.49372968034304,-0.0149927708056956,-0.94151177115764,0.63524649976732,1.11691409156286,-1.97989570827E-5,-0.0010473042869395,-1.007967144192E-4,388798.669827813,3.8765E-12,985.553405761718,-3.4178298796067,-5.83790335533689,5.51290933839378
3600.0,5332664.96603683,-944398.331001035,-4043899.19354678,2410970.5351356,4847652.71353842,-4045962.0342749,-4029.50038566694,5257.45471481108,3885.21572249446,-3.11248580948596,-6.25816452765392,5.22320751493186,6758662.11722985,1.28583550431417,-0.108840929993684,1.49924660453767,-0.0477863933287879,-0.910128760810994,0.592931739218345,1.17341713277203,-1.97989570827E-5,-0.0010307392091302,-1.00476003106E-4,388392.065637013,3.8322E-12,980.25341796875,-3.11248580948596,-6.25816452765392,5.22320751493186
3660.0,5551451.76180906,-645458.694734239,-3801750.16376462,2163787.79580677,5151596.17071617,-3803632.10189489,-4206.7272611863,4870.08331244332,4189.31002578281,-2.79281099810801,-6.64918920019273,4.90936569081073,6758662.11722985,1.29021077372699,-0.148760525642301,1.50561695588343,-0.0862998182158719,-0.882889332795298,0.549904738294672,1.22595962298882,-1.97989570827E-5,-0.0010155468764036,-9.97024787615E-5,387962.670783068,3.7938E-12,975.241333007812,-2.79281099810801,-6.64918920019273,4.90936569081073
3720.0,5747180.60250228,-345346.977212923,-3541942.95933849,1906554.78840266,5431611.85717345,-3543635.25373136,-4364.38095659731,4460.1726552271,4473.88625937863,-2.4603006463968,-7.00918654133008,4.57285998723076,6758662.11722986,1.29458604313979,-0.197340183005905,1.51272953455588,-0.133325800507698,-0.859293911424036,0.506372359349551,1.27512173886751,-1.97989570827E-5,-0.0010019281919232,-9.85096343531E-5,387521.789423539,3.7605E-12,970.530517578125,-2.4603006463968,-7.00918654133008,4.57285998723076
3780.0,5918956.59750338,-45246.0258542518,-3265687.64463944,1640468.08441049,5686404.27584929,-3267182.43659099,-4501.73763939219,4029.63446069472,4737.63145744513,-2.11650698341549,-7.3365123495735,4.21526911059791,6758662.11722986,1.29896131255261,-0.259275045281755,1.52044547478062,-0.193567325891565,-0.838910071834501,0.462485994566285,1.32142599527451,-1.97989570827E-5,-9.900635607242E-4,-9.6939605503E-5,387087.74045447,3.7313E-12,966.132507324218,-2.11650698341549,-7.3365123495735,4.21526911059791
3840.0,6065985.5951861,253669.316168207,-2974270.12605051,1366764.86033039,5914795.5010678,-2975560.47540646,-4618.16813850795,3580.47451995315,4979.33026472144,-1.7630319213144,-7.62967616383446,3.83826673790465,6758662.11722984,1.30333658196542,-0.343077146021236,1.52858142935779,-0.275546658513073,-0.821370100503696,0.418350605163152,1.36534043253084,-1.97989570827E-5,-9.801102111928E-4,-9.50425228248E-5,386676.155493024,3.705E-12,962.057983398437,-1.7630319213144,-7.62967616383446,3.83826673790465
3900.0,6187577.84550372,550236.73242989,-2669046.13341498,1086717.13304975,6115730.54228949,-2670126.05039999,-4713.14070037189,3114.78327863511,5197.87039658278,-1.40151953039481,-7.88734762430433,3.4436135167478,6758662.11722982,1.30771185137822,-0.465515650605369,1.53686575318881,-0.396045390672513,-0.806366495631545,0.374032692835664,1.40728387549688,-1.97989570827E-5,-9.721997746139E-4,-9.28756731343E-5,386299.324332668,3.6808E-12,958.315002441406,-1.40151953039481,-7.88734762430433,3.4436135167478
3960.0,6283151.21628236,843310.858450325,-2351434.88863379,801625.843491181,6288282.13172865,-2352299.36125572,-4786.2232889638,2634.72605916594,5392.24760856848,-1.03364837064162,-8.10836206488603,3.03314872114656,6758662.11722981,1.31208712079104,-0.662235226567297,1.54481362345693,-0.590722590533151,-0.793646729712654,0.329567303707217,1.44763196814696,-1.97989570827E-5,-9.664361951281E-4,-9.05024790082E-5,385977.101657956,3.6578E-12,954.908752441406,-1.03364837064162,-8.10836206488603,3.03314872114656
4020.0,6352233.94926092,1131767.59355974,-2022912.49141807,512814.81612989,6431654.91570848,-2023557.50832804,-4837.08542236645,2142.53297092406,5561.57015597339,-0.661123715775903,-8.2917253221181,2.60878160480685,6758662.11722983,1.31646239020385,-1.00622375457014,1.55136218769707,-0.932582263574787,-0.783008018751833,0.284964211620834,1.48672327467824,-1.97989570827E-5,-9.628940398652E-4,-8.79913142344E-5,385715.643283726,3.635E-12,951.841796875,-0.661123715775903,-8.2917253221181,2.60878160480685
4080.0,6394466.94392852,1414508.28419952,-1685005.05329138,221624.622363176,6545189.03244509,-1685427.622001,-4865.49954042589,1640.48855566109,5705.06272660556,-0.285669705406528,-8.43661774937913,2.17248249371884,6758662.11722984,1.32083765961666,-1.55995511260741,1.55425102294959,-1.4841158641967,-0.774292488291066,0.240213432592425,1.52486510259656,-1.97989570827E-5,-9.61617270526E-4,-8.54141806316E-5,385518.744942193,3.6116E-12,949.112976074218,-0.285669705406528,-8.43661774937913,2.17248249371884
4140.0,6409605.55924418,1690463.76424394,-1339281.6118741,-70593.6240262131,6628363.06181179,-1339479.77225325,-4871.34190025932,1130.92121610797,5822.06983232761,0.0909785397619023,-8.54239742885921,1.72627365999735,6758662.11722986,1.32521292902947,-2.12106319881197,1.55161735773471,-2.04297602658072,-0.767382920001871,0.195290207981529,1.56233892002712,-1.97989570827E-5,-9.626185237162E-4,-8.28452787626E-5,385405.237336686,3.587E-12,946.717895507812,0.0909785397619023,-8.54239742885921,1.72627365999735
4200.0,6397520.9253768,1958598.23878844,-987346.858270244,-362484.510937868,6680796.33552138,-987319.691270026,-4854.59299842447,616.192476037958,5912.05864751011,0.467082805459251,-8.60860257731694,1.27222001869925,6758662.11722986,1.32958819844228,-2.47426753292413,1.54522025524847,-2.39390185849179,-0.762199149663706,0.150159572823396,1.59940536283036,-1.97989570827E-5,-9.658789290058E-4,-8.03595105414E-5,385392.008335765,3.5604E-12,944.6474609375,0.467082805459251,-8.60860257731694,1.27222001869925
4260.0,6358200.75967155,2217912.99873385,-630833.711013626,-652694.583167519,6702250.59906626,-630581.342581158,-4815.33752059088,98.6861201944381,5974.62128501881,0.8409096407744,-8.63495314499078,0.81241968900003,6758662.11722984,1.33396346785509,-2.67635527577407,1.53737715195226,-2.59370064095,-0.758695131435692,0.104780604363795,1.63630889318492,-1.97989570827E-5,-9.713484726208E-4,-7.80309550952E-5,385473.936169373,3.5312E-12,942.88916015625,0.8409096407744,-8.63495314499078,0.81241968900003
4320.0,6291749.68311816,2467449.95440942,-271395.770519415,-939878.580491666,6692631.01965921,-270919.370692764,-4753.76382152615,-419.202737566289,6009.47650282679,1.21073815208285,-8.62135161020031,0.348994460608326,6758662.11722982,1.33833873726791,-2.80214305251919,1.52919099527625,-2.71720932311754,-0.756856660986876,0.059110427409832,1.67328220335779,-1.97989570827E-5,-9.789468928518E-4,-7.59313601801E-5,385649.661999299,3.4991E-12,941.42626953125,1.21073815208285,-8.62135161020031,0.348994460608326
4380.0,6198389.0356665,2706294.97740054,89300.3116720859,-1222705.63057431,6651986.53731292,89998.5344787073,-4670.16294012327,-935.078609809672,6016.47083677639,1.57486770261072,-8.56788297514817,-0.115919794338592,6758662.11722981,1.34271400668071,-2.88852618821313,1.52115875447606,-2.80134342469,-0.756699746556471,0.0131080391284771,1.71055047085965,-1.97989570827E-5,-9.885650727273E-4,-7.41286898948E-5,385911.040458749,3.4638E-12,940.241882324218,1.57486770261072,-8.56788297514817,-0.115919794338592
4440.0,6078456.19079231,2933581.04068928,449582.514375553,-1499865.36898642,6580509.55907048,450499.323864641,-4564.92715604502,-1446.55656704249,5995.57915740888,1.93162548734818,-8.4748139712225,-0.580182724398875,6758662.11722977,1.34708927609353,-2.95282712692356,1.51355369607184,-2.86344512091506,-0.758269623185361,-0.033261993087582,1.74833557277289,-1.97989570827E-5,-0.0010000668781509,-7.26857656332E-5,386260.906110216,3.4255E-12,939.332275390625,1.93162548734818,-8.4748139712225,-0.580182724398875
4500.0,5932403.37175866,3148491.1481629,807781.144426386,-1770073.95907722,6478534.99924503,808912.291635041,-4438.54809634498,-1951.273098102,5946.90465112494,2.27937395414437,-8.34259148470279,-1.04165907830278,6758662.11722978,1.35146454550634,-3.00381120667574,1.50655677714085,-2.91229868668534,-0.761640415312594,-0.0800259110826761,1.78686036264361,-1.97989570827E-5,-0.0010132913769989,-7.16590315951E-5,386711.563902613,3.3843E-12,938.692749023437,2.27937395414437,-8.34259148470279,-1.04165907830278
4560.0,5760795.97403908,3350261.04549347,1162236.5160783,-2032079.98498978,6346538.67133145,1163576.75924712,-4291.61440214103,-2446.89685302695,5870.67822823238,2.61651804295964,-8.17184021620262,-1.49822822301649,6758662.11722979,1.35583981491915,-3.04630331882039,1.50030264484357,-2.95274683278315,-0.766915462519439,-0.127197172383617,1.82635310517955,-1.97989570827E-5,-0.0010280553675372,-7.10974693811E-5,387250.587975755,3.3407E-12,938.314392089843,2.61651804295964,-8.17184021620262,-1.49822822301649
4620.0,5564310.40036066,3538181.70534386,1511306.57789944,-2284670.19176755,6185135.04001182,1512849.70689776,-4124.80896706357,-2931.13922289189,5767.25736267527,2.94151221640818,-7.96335958944404,-1.94779356358061,6758662.1172298,1.36021508433196,-3.08316773082273,1.49489730963195,-2.98767021807192,-0.774228328820644,-0.17477282819282,1.86705215213818,-1.97989570827E-5,-0.00104415614318,-7.10416789324E-5,387870.794611311,3.2951E-12,938.183410644531,2.94151221640818,-7.96335958944404,-1.94779356358061
4680.0,5343731.41678382,3711601.58079911,1853374.45328635,-2526675.0472498,5995074.34437757,1855113.31847907,-3938.9057607779,-3401.76471208537,5637.12437041756,3.25286725588301,-7.71811992707034,-2.38829182890033,6758662.11722981,1.36459035374478,-3.11622342503006,1.49042548068592,-3.01890249527989,-0.783744513407973,-0.222729808641964,1.90921092503074,-1.97989570827E-5,-0.0010613744246541,-7.15231360397E-5,388564.424437352,3.2481E-12,938.281433105468,3.25286725588301,-7.71811992707034,-2.38829182890033
4740.0,5099949.04015803,3869928.62185828,2186855.86119717,-2756974.10129709,5777239.10612954,2188782.40661877,-3734.76625238855,-3856.60105963538,5480.88413557353,3.54915679871022,-7.43725791317639,-2.81770218867616,6758662.11722981,1.36896562315758,3.13648359743651,1.48695375533932,-3.04768765200618,-0.795663864299166,-0.271021039271301,1.95310324164023,-1.97989570827E-5,-0.0010794773990728,-7.25636304462E-5,389320.120740946,3.2001E-12,938.5830078125,3.54915679871022,-7.43725791317639,-2.81770218867616
4800.0,4833954.96916985,4012632.05074903,2510206.384312,-2974501.11882012,5532640.03908433,2512311.68499446,-3513.33544997142,-4293.54906742187,5299.26129543554,3.82902359292116,-7.12207136408721,-3.23405516768845,6758662.11722982,1.37334089257039,3.10769257680867,1.48453202655222,-3.07492628013757,-0.810223656894695,-0.319571299466117,1.99902897500696,-1.97989570827E-5,-0.0010982218168355,-7.41748836367E-5,390127.674368455,3.1515E-12,939.053466796875,3.82902359292116,-7.12207136408721,-3.23405516768845
4860.0,4546838.57303108,4139243.89274019,2821928.55255719,-3178248.96410148,5262411.37880526,2824202.85584031,-3275.63757385099,-4710.59209446128,5093.0968975455,4.09118544735927,-6.77401333066193,-3.63544132467636,6758662.1172298,1.37771616198321,3.07989647541271,1.48319409617658,-3.10131873013439,-0.827702222751037,-0.368272721316307,2.04731995100098,-1.97989570827E-5,-0.0011173571100138,-7.63583419746E-5,390970.623199172,3.104E-12,939.736633300781,4.09118544735927,-6.77401333066193,-3.63544132467636
4920.0,4239782.45363512,4249360.26002312,3120578.71077659,-3367274.21499624,4967805.65358196,3123011.4814116,-3022.7713825432,-5105.80517789431,4863.34454389181,4.3344408559488,-6.39468555706063,-4.02001966407798,6758662.11722979,1.38209143139601,3.05250938133617,1.48295793546403,-3.12745630942059,-0.848422877848029,-0.416979820455844,2.09834585130744,-1.97989570827E-5,-0.00113662850827,-7.91051389356E-5,391846.536273422,3.0595E-12,940.698364257812,4.3344408559488,-6.39468555706063,-4.02001966407798
4980.0,3914057.59873305,4342642.38711371,3404773.64029333,-3540701.48676998,4650187.92029939,3407353.60913413,-2755.90517152194,-5477.36374285303,4611.06603918626,4.55767427604698,-5.98583132250082,-4.38602574991811,6758662.11722977,1.38646670080883,3.02498578352695,1.48382579546363,3.1292981183999,-0.872757671185096,-0.465503956695867,2.15251965893331,-1.97989570827E-5,-0.001155780138848,-8.23962196118E-5,392730.685719248,3.0195E-12,941.989990234375,4.55767427604698,-5.98583132250082,-4.38602574991811
5040.0,3571018.14534454,4418817.41708778,3673196.90517686,-3697727.44657808,4311029.49095716,3675912.12123738,-2476.27146613953,-5823.55186502079,4337.42656198839,4.7598610418822,-5.54932769406832,-4.73177949214515,6758662.11722976,1.39084197022164,2.99676378155496,1.48578425225056,3.10201219263727,-0.901130106962281,-0.513607155252181,2.21030181586352,-1.97989570827E-5,-0.0011745581045387,-8.62026210636E-5,393574.459118842,2.9856E-12,943.658325195312,4.7598610418822,-5.54932769406832,-4.73177949214515
5100.0,3212095.77422097,4477678.93880162,3924604.8952079,-3837624.50090302,3951901.17772055,3927442.7808493,-2185.16143113929,-6142.77005142781,4043.68937919579,4.94007189515118,-5.08717722014707,-5.05569257672882,6758662.11722975,1.39521723963445,2.96720503166405,1.4888042000772,3.07323587178685,-0.934015427122577,-0.560995301742641,2.27220169692244,-1.97989570827E-5,-0.001192713536952,-9.04859030502E-5,394418.149128362,2.9591E-12,945.747497558593,4.94007189515118,-5.08717722014707,-5.05569257672882
5160.0,2838793.75770924,4519087.27606978,4157832.538815,-3959744.13964476,3574466.08639721,4160779.94781251,-1883.91902024147,-6433.54250684368,3731.21012611019,5.09747711591648,-4.60149909551073,-5.35627551184181,6758662.11722974,1.39959250904726,2.93551770738124,1.49284074107978,3.04218313937018,-0.971936213511363,-0.607310891700019,2.33877417761611,-1.97989570827E-5,-0.0012100056215892,-9.51987246583E-5,395220.961921507,2.9415E-12,948.302368164062,5.09747711591648,-4.60149909551073,-5.35627551184181
5220.0,2452680.68482555,4542969.53056973,4371798.6606374,-4063519.92199771,3180471.99013575,4374841.93886384,-1573.93489026385,-6694.5238550341,3401.43067591927,5.23135023801626,-4.09451983058595,-5.63214426346591,6758662.11722974,1.40396777846008,2.9006420285545,1.49783283024303,3.00780275977046,-1.01544995050279,-0.652125820178536,2.41060795653715,-1.97989570827E-5,-0.0012262045863026,-1.002855629217E-4,395968.708784637,2.9341E-12,951.368103027343,5.23135023801626,-4.09451983058595,-5.63214426346591
5280.0,2055383.88873447,4549319.38101574,4565510.95984519,-4148470.0907431,2771743.31692651,4568636.0082966,-1256.64010515268,-6924.50528614445,3055.87262400248,5.34107133428295,-3.56856345886652,-5.88202645479721,6758662.11722972,1.40834304787288,2.86106151166757,1.50370236667276,2.96858939394266,-1.06512386483463,-0.694935204725826,2.48830096974943,-1.97989570827E-5,-0.0012410946364175,-1.056835692799E-4,396633.888154848,2.9383E-12,954.992248535156,5.34107133428295,-3.56856345886652,-5.88202645479721
5340.0,1648582.60313125,4538196.64189754,4738070.58691704,-4214199.80313419,2350172.78614719,4741262.92679517,-933.499656148964,-7122.42010355547,2696.13041397555,5.42612985797278,-3.0260413179328,-6.10476710488411,6758662.11722973,1.4127183172857,2.81446564736652,1.51035205877769,2.92224608953792,-1.12149119071307,-0.735154005063147,2.57241706643313,-1.97989570827E-5,-0.001254476809178,-1.11323558422E-4,397208.559307522,2.9556E-12,959.22314453125,5.42612985797278,-3.0260413179328,-6.10476710488411
5400.0,1234000.87524516,4509726.58580663,4888676.29823266,-4260402.96814883,1917712.73093072,4891921.13778969,-606.005825097017,-7287.34864572798,2323.8641338292,5.48612702794748,-2.46944144102157,-6.29933388302862,6758662.11722973,1.41709358669851,2.7571013002155,1.51766051959528,2.86503544321824,-1.1849828778854,-0.772119232714053,2.66341798481266,-1.97989570827E-5,-0.0012661717086623,-1.171311215971E-4,397681.973395309,2.9874E-12,964.109558105468,5.48612702794748,-2.46944144102157,-6.29933388302862
5460.0,813400.26431232,4464099.03407701,5016628.16957908,-4286863.68152608,1476366.14453401,5019910.47242194,-275.671418614609,-7418.52256081583,1940.79201189197,5.5207777463307,-1.9013175975957,-6.46482185662914,6758662.1172297,1.42146885611132,2.68242900983379,1.52547075302604,2.79043561837486,-1.2558312989058,-0.805101654273723,2.76156720561757,-1.97989570827E-5,-0.0012760220714649,-1.230278529532E-4,398038.757522803,3.0351E-12,969.695678710937,5.5207777463307,-1.9013175975957,-6.46482185662914
5520.0,388572.355401563,4401567.22114841,5121330.85149171,-4293457.25168644,1028177.49014966,5124635.40603641,55.9770985163864,-7515.32841417854,1548.68264365011,5.52991203859761,-1.32427802288245,-6.60045771135441,6758662.11722973,1.42584412552413,2.57811989712389,1.53356151632752,2.68613692724628,-1.33394992744192,-0.833331559174741,2.86680967532379,-1.97989570827E-5,-0.0012838951048415,-1.289326731433E-4,398273.21946521,3.1004E-12,976.016357421875,5.52991203859761,-1.32427802288245,-6.60045771135441
5580.0,-38668.8805867108,4322446.43871618,5202296.35124898,-4280150.81135388,575223.314721736,5205607.84100971,387.406541815798,-7577.31061136859,1149.34698168588,5.51347600735737,-0.74097387787784,-6.70560342382885,6758662.1172297,1.43021939493695,2.41896675494533,1.54156980881492,2.526952563181,-1.41880673872883,-0.856042404141661,2.97864516983623,-1.97989570827E-5,-0.0012896845340291,-1.347632297319E-4,398374.499703773,3.1845E-12,983.088562011718,5.51347600735737,-0.74097387787784,-6.70560342382885
5640.0,-466494.849094271,4227112.46636447,5259146.32830891,-4247003.51144833,119602.708296877,5262449.40270252,717.083988020976,-7604.17362170528,744.630122144108,5.47153229246231,-0.15408748284485,-6.77975936839206,6758662.11722966,1.43459466434975,2.15168678862398,1.54876602409167,2.25962095577081,-1.50932698751511,-0.872532749460897,3.09603097255929,-1.97989570827E-5,-0.0012933122951392,-1.40437349346E-4,398343.702168071,3.2886E-12,990.9013671875,5.47153229246231,-0.15408748284485,-6.77975936839206
5700.0,-893070.183874688,4115999.79598738,5291613.89201103,-4194166.29559398,-336572.348743475,5294893.23735456,1043.48376864755,-7595.78349017283,336.402922198336,5.40426003153836,0.433679631145325,-6.8225668409854,6758662.11722968,1.43896993376255,1.69329843605863,1.55350446442054,1.80118218670868,-1.6038737192939,-0.882240358599863,-3.06582306688083,-1.97989570827E-5,-0.0012947298149019,-1.458745125876E-4,398167.211135927,3.4136E-12,999.409851074218,5.40426003153836,0.433679631145325,-6.8225668409854
5760.0,-1316560.65577194,3989599.65788607,5299544.89246392,-4121881.2553868,-791186.707568893,5302785.30284123,1365.09444608174,-7552.16862809996,-73.4465160421865,5.31195431658264,1.01961880658277,-6.8338099848282,6758662.11722964,1.44334520317537,1.10292408568516,1.55333695455045,1.21078029326629,-1.70034680189338,-0.884814325989164,-2.94261444631814,-1.97989570827E-5,-0.0012939188285627,-1.509973199511E-4,397848.501541829,3.5598E-12,1008.53063964843,5.31195431658264,1.01961880658277,-6.8338099848282
5820.0,-1735141.10483061,3848457.85698819,5282898.69769017,-4030480.56837837,-1242131.79841442,5286085.14536378,1680.4257418787,-7473.51987588394,-483.021458875433,5.19502514392409,1.60102643229635,-6.81341710428772,6758662.11722961,1.44772047258818,0.657735317280989,1.54838271640032,0.765608093320734,-1.79640415838253,-0.880166096063219,-2.81983880777273,-1.97989570827E-5,-0.0012908917017578,-1.557329157642E-4,397380.932441905,3.7273E-12,1018.14721679687,5.19502514392409,1.60102643229635,-6.81341710428772
5880.0,-2147003.361894,3693172.4281688,5241748.45230099,-3920385.02255638,-1687315.35991639,5244866.15734626,1988.01538683103,-7360.18983391481,-890.425214529768,5.0539958565996,2.17521615574218,-6.76146135523255,6758662.11722959,1.45209574200099,0.399566067170798,1.54111196099357,0.507519942512809,-1.88975482845461,-0.868483149385504,-2.69975583084755,-1.97989570827E-5,-0.0012856912400047,-1.600143377124E-4,396772.943359077,3.9154E-12,1028.11889648437,5.0539958565996,2.17521615574218,-6.76146135523255
5940.0,-2550364.12561062,3524391.1201589,5176280.81521546,-3792102.13292903,-2124671.10632027,5179315.31405717,2286.43586237048,-7212.69146082895,-1293.76982915562,4.88950108005823,2.7395310845959,-6.67816080219447,6758662.11722958,1.4564710114138,0.245259495120989,1.5330971270135,0.35337820967729,-1.97843658661162,-0.850200605165239,-2.58429708679119,-1.97989570827E-5,-0.0012783899889383,-1.637817618333E-4,396034.105104322,4.1232E-12,1038.296875,4.88950108005823,2.7395310845959,-6.67816080219447
6000.0,-2943472.76066716,3342808.71800722,5086795.17621677,-3646223.85764391,-2552168.28865044,5089732.38875211,2574.30100297858,-7031.69594127052,-1691.18476705843,4.70228415407751,3.29135592624168,-6.56387783485931,6758662.11722955,1.46084628082662,0.143794942499335,1.52503471924076,0.25217986857256,-2.06099904676697,-0.825940219066822,-2.47488306516322,-1.97989570827E-5,-0.0012690890477781,-1.669836167866E-4,395177.730701522,4.3498E-12,1048.53771972656,4.70228415407751,3.29135592624168,-6.56387783485931
6060.0,-3324618.9831014,3149164.21451408,4973702.35344208,-3483423.92288503,-2967821.10615534,4976528.64843966,2850.27242951736,-6818.02982845595,-2080.8255365666,4.49319406585146,3.8281290126875,-6.41911793876339,6758662.11722958,1.46522155023942,0.0710892188620764,1.51727622169658,0.179857450895547,-2.13656003280494,-0.796435130519529,-2.37236688517035,-1.97989570827E-5,-0.0012579164359105,-1.695775463386E-4,394206.516140826,4.5938E-12,1058.71362304687,4.49319406585146,3.8281290126875,-6.41911793876339
6120.0,-3692140.39872903,2944237.84147913,4837522.77622539,-3304454.76758653,-3369697.9247543,4840225.03469676,3113.06578375338,-6572.67147001291,-2460.88222269586,4.26318189138983,4.34735415753886,-6.2445278175927,6758662.11722959,1.46959681965224,0.0153137269827687,1.51003888242227,0.124595877587203,-2.20475443401258,-0.762458499076008,-2.27708545681843,-1.97989570827E-5,-0.0012450250663508,-1.715312048254E-4,393141.125343257,4.854E-12,1068.71887207031,4.26318189138983,4.34735415753886,-6.2445278175927
6180.0,-4044429.86104491,2728847.97199903,4678884.16004466,-3110144.12077161,-3755930.25981728,4681449.83629329,3361.45673484447,-6296.74672878952,-2829.58788769462,4.01329675464249,4.84661229095986,-6.04089286716278,6758662.11722961,1.47397208906505,-0.0298326871911139,1.50347843944127,0.0801050608913914,-2.26562201983327,-0.724767482837921,-2.18897160103045,-1.97989570827E-5,-0.0012305903890708,-1.72822876288E-4,391981.544486028,5.1289E-12,1078.46813964843,4.01329675464249,4.84661229095986,-6.04089286716278
6240.0,-4379942.61543406,2503847.90541446,4498518.6826564,-2901391.22605985,-4124721.48140795,4500935.86271867,3594.28672919421,-5991.52401358921,-3185.22680064407,3.74468131612507,5.32357281807312,-5.80913400399599,6758662.11722961,1.47834735847786,-0.0679776688366266,1.49771609015289,0.0427657727955899,-2.3194797799342,-0.684066102294946,-2.10768154586954,-1.97989570827E-5,-0.0012148077711735,-1.734419134357E-4,390766.594255602,5.4169E-12,1087.89575195312,3.74468131612507,5.32357281807312,-5.80913400399599
6300.0,-4697203.19715852,2270122.5468363,4297259.6728218,-2679162.72957994,-4474355.20111625,4299517.13002576,3810.46845585797,-5658.40863806761,-3526.1424575508,3.45856680525754,5.77600464602549,-5.55030385439659,6758662.1172296,1.48272262789067,-0.101357795115717,1.49284933737378,0.0103470610767527,-2.36680838600619,-0.64098500695832,-2.03270818520327,-1.97989570827E-5,-0.0011978896797029,-1.733889970838E-4,389489.428496884,5.7161E-12,1096.95056152343,3.45856680525754,5.77600464602549,-5.55030385439659
6360.0,-4994812.05136965,2028584.99347722,4076037.82532889,-2444488.24916624,-4803203.30079962,4078125.07270879,4008.99100061206,-5298.93652931393,-3850.74535381625,3.15626761312319,6.20178682500562,-5.26558231304512,6758662.11722958,1.48709789730349,-0.131440225285258,1.48895657909378,-0.0186154875613344,-2.40816521168107,-0.596073792862261,-1.96346764599715,-1.97989570827E-5,-0.0011800627271418,-1.726762199024E-4,388168.254786863,6.0243E-12,1105.59167480468,3.15626761312319,6.20178682500562,-5.26558231304512
6420.0,-5271451.84433457,1780173.04027768,3835876.95828211,-2198455.64429943,-5109733.56494127,3837784.29760063,4188.92466287579,-4914.76731091284,-4157.52047160576,2.83917546489344,6.59891874886871,-4.95627148337269,6758662.11722956,1.49147316671629,-0.159247117061708,1.48609906937586,-0.0451441934767699,-2.44412471819181,-0.549801395144912,-1.8993583392952,-1.97989570827E-5,-0.0011615646304743,-1.713270000395E-4,386822.37482922,6.339E-12,1113.78637695312,2.83917546489344,6.59891874886871,-4.95627148337269
6480.0,-5525893.43616265,1525845.61753911,3577889.33085461,-1942206.00776415,-5392516.87991956,3579607.89799938,4349.42541090773,-4507.67678852404,-4445.03444547492,2.50875319372378,6.96552986172744,-4.62379001531508,6758662.11722956,1.4958484361291,-0.185537562260934,1.484321719557,-0.0700011928084071,-2.4752414814745,-0.502560997423251,-1.83979720234747,-1.97989570827E-5,-0.0011426411235521,-1.693758305087E-4,385471.980906421,6.6572E-12,1121.50646972656,2.50875319372378,6.96552986172744,-4.62379001531508
6540.0,-5757001.48656931,1266579.17346275,3303270.54186537,-1676928.40143006,-5650233.9652604,3304792.34840274,4489.73895208257,-4079.54886920502,-4711.94237064939,2.16652814048643,7.2998888179302,-4.26966685946334,6758662.11722955,1.50022370554192,-0.210917992543604,1.48365338527966,-0.0937987616470739,-2.50202972368267,-0.45467702940361,-1.78423925294857,-1.97989570827E-5,-0.0011235428509938,-1.668678694128E-4,384132.857471308,6.9754E-12,1128.72729492187,2.16652814048643,7.2998888179302,-4.26966685946334
6600.0,-5963739.66661965,1003364.01464037,3013294.03164221,-1403854.35990948,-5881681.60391224,3014612.0023283,4609.20439659335,-3632.36694881624,-4956.99421959896,1.81408520624124,7.60041204428529,-3.89553446009432,6758662.11722955,1.50459897495472,-0.235916386904673,1.48410694011623,-0.117073390390086,-2.52495383338325,-0.406412779023333,-1.73218595700168,-1.97989570827E-5,-0.001104522261545,-1.638583745295E-4,382827.288113356,7.2896E-12,1135.42553710937,1.81408520624124,7.60041204428529,-3.89553446009432
6660.0,-6145175.45095185,737200.617645724,2709305.21164988,-1124252.1870936,-6085778.34073428,2710413.21771725,4707.25749461268,-3168.20480486359,-5179.04083400056,1.45305958683248,7.86567165522013,-3.50312141305499,6758662.11722954,1.50897424436754,-0.261039995435263,1.48567927761783,-0.140343326952585,-2.5444256469638,-0.357977824145971,-1.68318662357904,-1.97989570827E-5,-0.0010858305110973,-1.604119840549E-4,381570.303211446,7.5957E-12,1141.57983398437,1.45305958683248,7.86567165522013,-3.50312141305499
6720.0,-6300484.46668409,469095.92493692,2392715.24828643,-839421.071713421,-6261569.62071754,2393608.13634416,4783.43342878255,-2689.21703502632,-5377.03946084752,1.08512922140741,8.09440267379569,-3.094244617953,6758662.11722955,1.51334951378035,-0.286829968941013,1.48835129932423,-0.164162983436563,-2.56080554167467,-0.309534920553032,-1.636835765436,-1.97989570827E-5,-0.0010677143814009,-1.566018439637E-4,380381.612496987,7.8891E-12,1147.16979980468,1.08512922140741,8.09440267379569,-3.094244617953
6780.0,-6428954.37705451,200059.63829785,2064994.52907032,-550685.049100422,-6408232.34095652,2065668.14547516,4837.36914587983,-2197.62908436678,-5550.05880333323,0.712006988955907,8.28550951413657,-2.67080095754278,6758662.11722957,1.51772478319316,-0.313925407161637,1.49208788751289,-0.189186724685649,-2.5744054133819,-0.261206234030855,-1.59276834161843,-1.97989570827E-5,-0.0010504132204624,-1.525085820631E-4,379280.889401732,8.1651E-12,1152.17541503906,0.712006988955907,8.28550951413657,-2.67080095754278
6840.0,-6529988.27982606,-68899.4769841648,1727665.84114018,-259386.837228506,-6525078.79304703,1728117.05171771,4868.80521361631,-1695.72690679482,-5697.28355921176,0.33543268913821,8.43807168388547,-2.23475854055235,6758662.1172296,1.52210005260597,-0.34315353434418,1.49683779761243,-0.216258753610054,-2.58549234633402,-0.21307893731382,-1.55065406524641,-1.97989570827E-5,-0.0010341559147084,-1.482191298512E-4,378281.095918442,8.4189E-12,1156.57739257812,0.33543268913821,8.43807168388547,-2.23475854055235
6900.0,-6603107.60259772,-336777.264083564,1382297.29355987,33118.4241051847,-6611559.97539282,1382523.99857613,4877.58719076914,-1185.84630874215,-5818.0184216105,-0.0428351543261685,8.55134866874121,-1.78814754743631,6758662.11722964,1.52647532201879,-0.375674871862243,1.50253330009829,-0.246557969336481,-2.59429227488039,-0.165210254261061,-1.51019146642104,-1.97989570827E-5,-0.0010191579107231,-1.438253960326E-4,377393.722966848,8.6458E-12,1160.3564453125,-0.0428351543261685,8.55134866874121,-1.78814754743631
