time,gePosition_m_X,gePosition_m_Y,gePosition_m_Z,eiPosition_m_X,eiPosition_m_Y,eiPosition_m_Z,eiVelocity_m_s_X,eiVelocity_m_s_Y,eiVelocity_m_s_Z,eiAccel_m_s2_X,eiAccel_m_s2_Y,eiAccel_m_s2_Z,semiMajorAxis_m,gast_rad,eulerAngle_rad_Roll,eulerAngle_rad_Pitch,eulerAngle_rad_Yaw,eulerAngleWrtEi_rad_Roll,eulerAngleWrtEi_rad_Pitch,eulerAngleWrtEi_rad_Yaw,bodyAngularRateWrtEi_rad_s_Roll,bodyAngularRateWrtEi_rad_s_Pitch,bodyAngularRateWrtEi_rad_s_Yaw,altitudeMsl_m,airDensity_kg_m3,ambientTemperature_dgK,eiGravitation_m_s2_X,eiGravitation_m_s2_Y,eiGravitation_m_s2_Z
0.0,-1436381.48862739,4185811.47756286,5163944.85376219,-4315967.73999999,960356.199999999,5167269.52999999,129.091036999934,-7491.51385500013,1452.51565399991,5.45462505155714,-1.21381540129775,-6.54922131695573,6759052.98367584,1.02331933954551,0.0,-0.202458193231342,-1.0E-16,-2.47159390556422,-0.0371889647578316,-1.42899313520438,0.0,-0.0011222299538715,0.0,434991.318347183,1.782E-12,992.872619628906,5.45462505155714,-1.21381540129775,-6.54922131695573
60.0,-1794959.86978044,3943151.45531305,5239238.50079528,-4298410.79404839,509021.634083275,5242566.74001568,455.965803321045,-7547.2727045161,1056.37890894091,5.43715584500083,-0.643958336597186,-6.65045631592345,6758724.51955502,1.02769460895833,-3.1574672685E-6,-0.202437020237263,-9.14134268533E-5,-2.47204519445283,0.0156058984055744,-1.38719418655663,0.0,-0.0011222299538715,0.0,433112.108100487,1.7267E-12,986.205932617187,5.43715584500083,-0.643958336597186,-6.65045631592345
120.0,-2147589.80053533,3685729.11928236,5290614.51484044,-4261287.36437032,55369.9947332601,5293931.16678625,781.064614553653,-7568.71042718376,655.051492768557,5.39543349839641,-0.0701808969938979,-6.72216509439808,6758493.9950962,1.03206987837114,-1.26853508216E-5,-0.202371154518638,-1.824276241614E-4,-2.4702868224414,0.0683734591138526,-1.3453262721125,0.0,-0.0011222299538715,0.0,430973.214025562,1.8565E-12,994.00390625,5.39543349839641,-0.0701808969938979,-6.72216509439808
180.0,-2492787.68676763,3414636.57055335,5317814.83129245,-4204747.62512259,-398533.849193173,5321104.78380644,1102.93445240503,-7555.66464366398,250.318033184544,5.32954570700891,0.505084131370586,-6.76393080027574,6758365.92983689,1.03644514778395,-2.86239868485E-5,-0.202257202798421,-2.721927664653E-4,-2.46629730856899,0.121020690681026,-1.30315483303669,0.0,-0.0011222299538715,0.0,428581.074407673,2.0097E-12,1002.474609375,5.32954570700891,0.505084131370586,-6.76393080027574
240.0,-2829089.65582437,3131015.823682,5320689.07972242,-4129028.7182391,-850619.681035557,5323937.32627542,1420.13033675882,-7508.11972360597,-156.015152648167,5.23967291679976,1.07937892446097,-6.77544777889218,6758343.10418055,1.04082041719676,-5.09558028894E-5,-0.2020919734943,-3.598652322998E-4,-2.46002784214147,0.173452077418911,-1.26044067503454,0.0,-0.0011222299538715,0.0,425944.59347763,2.1886E-12,1011.53186035156,5.23967291679976,1.07937892446097,-6.77544777889218
300.0,-3155057.48329053,2836054.43578988,5299195.68352514,-4034454.10345188,-1298820.78260538,5302387.3905756,1731.22092773065,-7426.20810045499,-562.126816990874,5.12608956803797,1.65022692882824,-6.75652449861762,6758426.49401153,1.04519568660958,-7.9604709376E-5,-0.201872493892474,-4.446134767496E-4,-2.45140153543319,0.225567612984537,-1.2169363688748,0.0,-0.0011222299538715,0.0,423075.147218909,2.3956E-12,1021.05712890625,5.12608956803797,1.65022692882824,-6.75652449861762
360.0,-3469284.53071224,2530980.98139219,5253402.54894377,-3921432.56992011,-1741082.8477646,5256523.12286808,2034.79420375422,-7310.2111959781,-966.187720106968,4.98916537968629,2.21513957982434,-6.70708661081304,6758615.23231794,1.04957095602238,-1.1443586251E-4,-0.201596026668345,-5.256238303444E-4,-2.4403123052206,0.277260663528004,-1.17238263276538,0.0,-0.0011222299538715,0.0,419986.555991892,2.633E-12,1030.91064453125,4.98916537968629,2.21513957982434,-6.70708661081304
420.0,-3770401.6782361,2217060.37948251,5183487.33247091,-3790456.9048569,-2175372.93909081,5186522.48579886,2329.46321686156,-7160.55992684595,-1366.36775565757,4.82936662948437,2.77162353142122,-6.62718010990137,6758906.59916226,1.0539462254352,-1.552558104415E-4,-0.201260085638662,-6.021061832807E-4,-2.42662345611852,0.328415635844809,-1.1265047310276,0.0,-0.0011222299538715,0.0,416695.023280153,2.9031E-12,1040.94470214843,4.82936662948437,2.77162353142122,-6.62718010990137
480.0,-4057083.23428973,1895589.07964303,5089737.27527032,-3642102.21456329,-2599688.46157325,5092673.09195564,2613.87192320441,-6977.83475966841,-1760.84326743538,4.64725737102177,3.31718849308279,-6.51697454092733,6759296.04109478,1.05832149484801,-2.018130328354E-4,-0.200862450626513,-6.732995159275E-4,-2.41016609222267,0.378905391623042,-1.0790089779852,0.0,-0.0011222299538715,0.0,413219.040287832,3.2081E-12,1051.0185546875,4.64725737102177,3.31718849308279,-6.51697454092733
540.0,-4328052.80237603,1567890.11448135,4972548.59309759,-3477023.89350932,-3012066.12510106,4975371.59254906,2886.70108295065,-6762.76527545172,-2147.80455824746,4.44350051620968,3.84935575855253,-6.3767661836211,6759777.2208161,1.06269676426082,-2.537988820913E-4,-0.200401181318388,-7.384772392009E-4,-2.39073756663118,0.428588353352696,-1.02957952153461,0.0,-0.0011222299538715,0.0,409579.256569989,3.55E-12,1061.00622558593,4.44350051620968,3.84935575855253,-6.3767661836211
600.0,-4582089.08282683,1235308.02652268,4832425.41028822,-3295955.23759036,-3410590.86501942,4835122.60988262,3146.67421903537,-6516.22919977607,-2525.46358696016,4.21885869986222,4.36566749659433,-6.2069811241784,6760342.09755653,1.06707203367362,-3.108489321931E-4,-0.19987462999132,-7.969523113045E-4,-2.36810030457777,0.477305259161748,-0.977875710221154,0.0,-0.0011222299538715,0.0,405798.317361982,3.9311E-12,1070.802734375,4.21885869986222,4.36566749659433,-6.2069811241784
660.0,-4818031.58501017,899203.678815388,4669978.22678978,-3099704.69847425,-3793404.68729133,4672537.20258428,3392.56361893906,-6239.25085134098,-2892.06184388559,3.9741948330595,4.86369685469037,-6.00817810931948,6760981.03824564,1.07144730308643,-3.725447389115E-4,-0.199281452988033,-8.48082100482E-4,-2.34198152173847,0.524875548503723,-0.923530536890918,0.0,-0.0011222299538715,0.0,401900.66878647,4.3532E-12,1080.32360839843,3.9741948330595,4.86369685469037,-6.00817810931948
720.0,-5034786.2230727,560948.95993269,4485921.90800287,-2889152.77707754,-4158715.40188324,4488330.85336148,3623.19635781609,-5932.99895913848,-3245.878387906,3.71047224406565,5.34105890360369,-5.78105106232568,6761682.95908512,1.07582257249925,-4.384160124693E-4,-0.198620620819434,-8.912729669476E-4,-2.31207462246155,0.571093406929628,-0.866150918523769,0.0,-0.0011222299538715,0.0,397912.332655308,4.8182E-12,1089.50244140625,3.71047224406565,5.34105890360369,-5.78105106232568
780.0,-5231330.76589728,221921.395757727,4281073.18841461,-2665248.55569547,-4504805.20497402,4283320.97026164,3837.46031505086,-5598.78379762793,-3585.23802112834,3.42875430030426,5.79542242384593,-5.52643112834721,6762435.49661591,1.08019784191205,-5.079432010671E-4,-0.197891426776487,-9.259845404681E-4,-2.27804341613892,0.615723578532658,-0.805320928444332,0.0,-0.0011222299538715,0.0,393860.653142624,5.3273E-12,1098.28662109375,3.42875430030426,5.79542242384593,-5.52643112834721
840.0,-5406720.10964424,-116501.317604434,4056347.68170496,-2429005.8701794,-4830039.06756438,4058423.89411752,4034.3101498477,-5238.05359011421,-3908.5195686039,3.13020340272452,6.22452250490766,-5.24528810702248,6763225.20678308,1.08457311132487,-5.805604807749E-4,-0.197093493938151,-9.517336735207E-4,-2.23953072833746,0.658497185275644,-0.740609538334227,0.0,-0.0011222299538715,0.0,389774.018175655,5.8812E-12,1106.63403320312,3.13020340272452,6.22452250490766,-5.24528810702248
900.0,-5560091.339111,-452946.843272962,3812756.39221146,-2181499.12581394,-5132872.88514825,3814651.40706465,4212.77319496247,-4852.39013325357,-4214.16422194658,2.8160792452594,6.62617389524992,-4.93873112503129,6764037.78985807,1.08894838073768,-6.556591441758E-4,-0.196226780468342,-9.680980531357E-4,-2.19617345685161,0.699107991457945,-0.671584903514905,0.0,-0.0011222299538715,0.0,385681.558961391,6.4796E-12,1114.509765625,2.8160792452594,6.62617389524992,-4.93873112503129
960.0,-5690668.54227817,-786053.776541118,3551401.72537269,-1923858.76319066,-5411861.34041516,3553106.73975372,4371.95522138413,-4443.50360036632,-4500.68389678936,2.4877362373567,6.99828500635773,-4.60800840027304,6764858.33838925,1.09332365015049,-7.325913769563E-4,-0.19529158310333,-9.747194574027E-4,-2.14762649395811,0.73720983281946,-0.597837598274158,0.0,-0.0011222299538715,0.0,381612.83162421,7.1212E-12,1121.88403320312,2.4877362373567,6.99828500635773,-4.60800840027304
1020.0,-5797767.34090611,-1114477.24003399,3273472.99803763,-1657266.38338501,-5665665.42860858,3274980.07815075,4511.04602091608,-4013.22648810046,-4766.66954521664,2.14661999702837,7.33887243866093,-4.25450595348717,6765671.60463264,1.0976989195633,-8.106744082302E-4,-0.194288538741433,-9.713066451385E-4,-2.0935979220477,0.772416288152419,-0.519015195786379,0.0,-0.0011222299538715,0.0,377597.485456523,7.8032E-12,1128.73107910156,2.14661999702837,7.33887243866093,-4.25450595348717
1080.0,-5880799.0989943,-1436894.47729932,2980241.45331134,-1382949.54508506,-5893059.59329721,2981543.57460318,4629.32474844563,-3563.50667998019,-5010.79935592024,1.79426283565787,7.64607586206317,-3.87974513276466,6766462.28319254,1.10207418897612,-8.891950168893E-4,-0.193218624059537,-9.576378692781E-4,-2.0338970172306,0.80430405688161,-0.434869716206493,0.0,-0.0011222299538715,0.0,373664.922761637,8.5215E-12,1135.02697753906,1.79426283565787,7.64607586206317,-3.87974513276466
1140.0,-5939274.77040547,-1752010.41861867,2673054.78887428,-1102176.2499452,-6092938.41904939,2674145.87211986,4726.16496148629,-3096.39961141824,-5231.84676718654,1.43227817390637,7.91817305058416,-3.48537883181416,6767215.30389969,1.10644945838892,-9.674143727061E-4,-0.192083153095814,-9.335630060925E-4,-1.96849424162766,0.832421788233729,-0.345317113992177,0.0,-0.0011222299538715,0.0,369843.955675045,9.2698E-12,1140.7509765625,1.43227817390637,7.91817305058416,-3.48537883181416
1200.0,-5972808.34706569,-2058563.1905208,2353331.21240501,-816249.136278991,-6264322.82695544,2354206.15550832,4801.03929158397,-2614.05953371843,-5428.68821128282,1.06235385024357,8.15359484072428,-3.07318630409616,6767916.12930974,1.11082472780174,-0.0010445731871592,-0.190883772754993,-8.990052933578E-4,-1.8975880567891,0.856306046586332,-0.250503628377508,0.0,-0.0011222299538715,0.0,366162.465666515,1.00404E-11,1145.88354492187,1.06235385024357,8.15359484072428,-3.07318630409616
1260.0,-5981119.86994533,-2355329.53838798,2022553.04278043,-526499.405184362,-6406365.71922399,2023207.74806008,4853.52368062817,-2118.72988919595,-5600.31050371689,0.686244309459024,8.35093975817615,-2.64506650181572,6768551.0506482,1.11519999721455,-0.0011198971453289,-0.18962245621149,-8.53962671083E-4,-1.82166724799808,0.875505368607211,-0.150867679179676,0.0,-0.0011222299538715,0.0,362647.071629336,1.08233E-11,1150.40795898437,0.686244309459024,8.35093975817615,-2.64506650181572
1320.0,-5964037.96655734,-2641130.12976246,1682259.88102469,-234280.507217688,-6518357.02027888,1682691.27777514,4883.30111520117,-1612.73282545818,-5745.81778751945,0.305761687305688,8.50898803896677,-2.20302990075598,6769107.47560069,1.11957526662736,-0.0011926025863803,-0.188301494206478,-7.985087184867E-4,-1.74155126111542,0.889611704009718,-0.0471798027874684,0.0,-0.0011222299538715,0.0,359322.812537983,1.1607E-11,1154.30822753906,0.305761687305688,8.50898803896677,-2.20302990075598
1380.0,-5921501.88100354,-2914834.70457478,1334041.38041551,59038.3783020887,-6599728.06396593,1334247.44255741,4890.16479398596,-1098.45789368605,-5864.43794142674,-0.0772341617137069,8.62671476043,-1.74918880821838,6769574.20108131,1.12395053604017,-0.0012619023965341,-0.186923484257163,-7.327931804615E-4,-1.65838850205414,0.898296012532675,0.0594594277738313,0.0,-0.0011222299538715,0.0,356212.85058465,1.2378E-11,1157.57055664062,-0.0772341617137069,8.62671476043,-1.74918880821838
1440.0,-5853562.96566416,-3175367.03760462,979529.650601912,352079.035482928,-6650055.27968387,979509.409261223,4874.02066702645,-578.349992929614,-5955.52836184873,-0.460846614599528,8.70330179575974,-1.28574619077518,6769941.66404162,1.12832580545299,-0.001327012074838,-0.185491317819839,-6.57042076183E-4,-1.57359797714451,0.901342140956061,0.167678126161451,0.0,-0.0011222299538715,0.0,353338.200478463,1.31218E-11,1160.18359375,-0.460846614599528,8.70330179575974,-1.28574619077518
1500.0,-5760385.60744243,-3421709.67811977,620391.335901309,643461.036154986,-6669063.134487,620144.886785821,4834.88929131194,-54.8966394105697,-6018.58103193969,-0.843154097856624,8.73814831411599,-0.814983099712491,6770202.1635339,1.13270107486579,-0.0013871559285235,-0.184008165472292,-5.715573816478E-4,-1.48875463280141,0.898671663261705,0.275948106381844,0.0,-0.0011222299538715,0.0,350717.490204692,1.38231E-11,1162.13854980468,-0.843154097856624,8.73814831411599,-0.814983099712491
1560.0,-5642247.56599236,-3652908.43187936,258319.412976731,931808.653768973,-6656626.29343684,257847.918450452,4772.9069546801,469.385343997558,-6053.22679700325,-1.22222263320399,8.73087956675949,-0.339244813301058,6770350.04763087,1.1370763442786,-0.001441573351624,-0.182477460205163,-4.767162770196E-4,-1.40543861087806,0.890353408722482,0.382735975570324,0.0,-0.0011222299538715,0.0,348366.757995351,1.44662E-11,1163.4306640625,-1.22222263320399,8.73087956675949,-0.339244813301058
1620.0,-5499539.70650174,-3868076.55156693,-104975.242299443,1215757.82178308,-6612770.9666423,-105669.556509808,4688.32602925216,991.963608179914,-6059.23877381152,-1.5961189443501,8.68135372837449,0.139074145425515,6770381.85943922,1.14145161369142,-0.0014895251374879,-0.180902878935473,-3.729699491242E-4,-1.3250832579708,0.87659508491412,0.486655472654379,0.0,-0.0011222299538715,0.0,346299.289567285,1.50361E-11,1164.05822753906,-1.5961189443501,8.68135372837449,0.139074145425515
1680.0,-5332765.11527413,-4066398.60325453,-467772.464953571,1493963.08941085,-6537675.41841743,-468686.318449978,4581.51452630136,1510.30440540054,-6036.53483204023,-1.96292393610115,8.58966660094507,0.617545920730972,6770296.43731913,1.14582688310422,-0.001530299773356,-0.179288322378096,-2.608419388874E-4,-1.24885725461018,0.857719280693578,0.586585691997715,0.0,-0.0011222299538715,0.0,344525.498855607,1.5519E-11,1164.02209472656,-1.96292393610115,8.58966660094507,0.617545920730972
1740.0,-5142537.59242442,-4247133.97868769,-828351.530811979,1765104.52626669,-6431669.62166682,-829480.602607075,4452.95483630147,2021.88693125134,-5985.17909865075,-2.32074634070901,8.45615403406936,1.093725940799,6770094.96551636,1.15020215251704,-0.0015632196629702,-0.177637893431897,-1.4092602377E-4,-1.17760232747199,0.834129955495516,0.68173373402934,0.0,-0.0011222299538715,0.0,343052.854530941,1.59029E-11,1163.32751464843,-2.32074634070901,8.45615403406936,1.093725940799
1800.0,-4929579.52233395,-4409620.02598957,-1184999.9464882,2027894.52684685,-6295234.0488134,-1186338.894433,4303.24165053343,2524.21774084635,-5905.382450315,-2.66773631670932,8.28139196867777,1.56516998997422,6769780.97269977,1.15457742192984,-0.0015876472216549,-0.175955874255938,-1.38836259711E-5,-1.11182815163961,0.80627674941942,0.771640181183789,0.0,-0.0011222299538715,0.0,341885.853569067,1.61783E-11,1161.98181152343,-2.66773631670932,8.28139196867777,1.56516998997422
1860.0,-4694719.12894702,-4553274.77475333,-1536022.23811366,2281084.46595523,-6128997.59912189,-1537564.7235878,4133.07907361939,3014.84509530418,-5797.50197442192,-3.00209878320142,8.06619406858027,2.029451472256,6769360.27732521,1.15895269134266,-0.0016029907872455,-0.174246702227137,1.195592612302E-4,-1.05175052705713,0.774623138813344,0.856141320707125,0.0,-0.0011222299538715,0.0,341026.042072832,1.63388E-11,1159.99560546875,-3.00209878320142,8.06619406858027,2.029451472256
1920.0,-4438887.12936576,-4677599.23535794,-1879748.67678229,2523471.15713425,-5933734.67093756,-1881487.39452594,3943.27694925523,3491.3730942032,-5662.0393953026,-3.32210627784674,7.81160696357701,2.48417859539008,6768840.88026972,1.16332796075546,-0.0016087102900291,-0.172514944983589,2.586156341419E-4,-0.997352850114571,0.73962184730683,0.935308099546529,0.0,-0.0011222299538715,0.0,340472.082466759,1.63813E-11,1157.3818359375,-3.32210627784674,7.81160696357701,2.48417859539008
1980.0,-4163112.80535986,-4782179.2565938,-2214543.87896322,2753903.06787169,-5710361.39593974,-2216470.5918935,3734.74643376789,3951.47545288371,-5499.63847850049,-3.6261111396624,7.51890318633788,2.92701120814366,6768232.80672828,1.16770323016828,-0.0016043226252087,-0.170765274766973,4.024415280749E-4,-0.948453052767025,0.701698364090558,1.00937964568383,0.0,-0.0011222299538715,0.0,340219.865128523,1.63061E-11,1154.15698242187,-3.6261111396624,7.51890318633788,2.92701120814366
2040.0,-3868519.51819235,-4866686.93022634,-2538815.22137919,2971286.24777941,-5459931.06079686,-2540920.80019831,3508.49486350128,4392.90879007535,-5311.08144162477,-3.91255683737855,7.1895719401787,3.35567703598652,6767547.90088274,1.17207849958109,-0.0015894066726106,-0.169002442283131,5.501405528029E-4,-0.904764262395779,0.661241692923337,1.07870311022515,0.0,-0.0011222299538715,0.0,340262.661528015,1.61171E-11,1150.34033203125,-3.91255683737855,7.1895719401787,3.35567703598652
2100.0,-3556319.69744373,-4930881.53582001,-2851021.01200524,3174589.92900802,-5183628.74940244,-2853295.47937499,3265.61997204612,4813.52530105783,-5097.28441501217,-4.17998828974335,6.82530788373089,3.76798708176655,6766799.57826478,1.1764537689939,-0.0015636079104895,-0.167231250301472,7.007689060513E-4,-0.865943656409797,0.618600671029557,1.14368536469901,0.0,-0.0011222299538715,0.0,340591.315041631,1.58211E-11,1145.95434570312,-4.17998828974335,6.82530788373089,3.76798708176655
2160.0,-3227809.33917224,-4974610.02388095,-3149678.36183721,3362851.76178133,-4882765.24599948,-3152110.94086387,3007.30352165921,5211.28470398802,-4859.29200859309,-4.42706105437853,6.42799815913951,4.16184998689423,6766002.54198912,1.18082903840671,-0.0015266425730518,-0.165456527211859,8.533408507326E-4,-0.831628470604744,0.574084102476163,1.20475760412149,0.0,-0.0011222299538715,0.0,341194.46482857,1.54279E-11,1141.02502441406,-4.42706105437853,6.42799815913951,4.16184998689423
2220.0,-2884362.05269509,-4997807.04002109,-3433370.70580806,3535182.65199792,-4558770.24581416,-3435949.87255419,2734.80441963416,5584.26536159967,-4598.2710526056,-4.65254929505691,5.99970792117971,4.53528518345163,6765172.470071,1.18520430781953,-0.0014783013051483,-0.163683100751834,0.0010068346348017,-0.801460593525618,0.527963218794046,1.26235143450256,0.0,-0.0011222299538715,0.0,342058.797515962,1.49493E-11,1135.58325195312,-4.65254929505691,5.99970792117971,4.53528518345163
2280.0,-2527422.69845625,-5000494.49728513,-3700754.92556825,3690771.17223417,-4213184.92521078,-3703468.46528362,2449.45139475733,5930.67449657618,-4315.50358882189,-4.85535247188645,5.54266464449891,4.88643470662327,6764325.68182418,1.18957957723233,-0.0014184522720905,-0.161915772108,0.0011601988251426,-0.775102129224934,0.480475363499946,1.31688407491215,0.0,-0.0011222299538715,0.0,343169.320955968,1.43985E-11,1129.66467285156,-4.85535247188645,5.54266464449891,4.88643470662327
2340.0,-2158500.66183188,-4982780.70791365,-3950568.03165298,3828887.5220705,-3847653.92777597,-3953403.09839593,2152.63531128067,6248.85743584101,-4012.3791955627,-5.03450073312261,5.05924149469838,5.21357357783918,6763478.79183387,1.19395484664514,-0.0013470436878836,-0.16015929058329,0.001312359019172,-0.752244364731159,0.431828159555619,1.36875025216611,0.0,-0.0011222299538715,0.0,344509.653998574,1.379E-11,1123.30920410156,-5.03450073312261,5.05924149469838,5.21357357783918
2400.0,-1779162.80932331,-4944859.08955096,-4181633.36768896,3948887.01832697,-3463916.82611118,-4184576.54699209,1845.80119813876,6537.30583613123,-3690.38673391917,-5.1891590195707,4.5519400464667,5.51511870993634,6762648.36019896,1.19833011605796,-0.0012641057311693,-0.158418329007402,0.0014622248901893,-0.732612222169497,0.382203705602165,1.41831872472849,0.0,-0.0011222299538715,0.0,346062.326067948,1.31381E-11,1116.56359863281,-5.1891590195707,4.5519400464667,5.51511870993634
2460.0,-1391026.17443555,-4887006.46417899,-4392866.30459903,4050213.10042024,-3063799.12146681,-4395903.6788193,1530.44006959447,6794.66485988257,-3351.10560434185,-5.31862992136547,4.02337261940408,5.78963632450981,6761850.54764264,1.20270538547076,-0.0011697518248556,-0.156697460051114,0.0016086975149967,-0.715965803182059,0.331762550950647,1.46593184720343,0.0,-0.0011222299538715,0.0,347809.08033369,1.24572E-11,1109.47973632812,-5.31862992136547,4.02337261940408,5.78963632450981
2520.0,-995750.420691904,-4809580.97082713,-4583279.39810491,4132399.84053846,-2649202.84473405,-4586396.61408759,1208.08061035729,7019.73928609569,-2996.19660227155,-5.4223553512076,3.476244481002,6.0358479067221,6761100.78371713,1.20708065488357,-0.0010641792624712,-0.155001133587369,0.0017506769254812,-0.702100190358212,0.280647333880532,1.51190703253136,0.0,-0.0011222299538715,0.0,349731.174418981,1.17606E-11,1102.115234375,-5.4223553512076,3.476244481002,6.0358479067221
2580.0,-595030.128777161,-4713019.61534851,-4751986.98808124,4195073.95258513,-2222096.8227973,-4755169.32676026,880.280793775411,7211.49855501289,-2627.39245904261,-5.49991711713059,2.91333613833503,6.25263475280458,6760413.45570471,1.21145592429638,-9.476691718111E-4,-0.153333655223261,0.0018870698197849,-0.690844310846548,0.228986050926655,1.55653933164893,0.0,-0.0011222299538715,0.0,351809.672871241,1.10605E-11,1094.53332519531,-5.49991711713059,2.91333613833503,6.25263475280458
2640.0,-190586.953826077,-4597835.48226701,-4898209.22337011,4237956.29780116,-1784506.67394012,-4901441.67092304,548.619496290386,7369.08075776965,-2246.48815022644,-5.55103649118474,2.33748590749111,6.43904118938075,6759801.62498497,1.2158311937092,-8.205858141132E-4,-0.15169916610799,0.0020167973637988,-0.682059398477153,0.176894972960839,1.60010462255091,0.0,-0.0011222299538715,0.0,354025.726019226,1.03678E-11,1086.80041503906,-5.55103649118474,2.33748590749111,6.43904118938075
2700.0,215838.302518278,-4464614.63490777,-5021275.50043871,4260862.88858646,-1338504.59500878,-5024542.8206136,214.688165303282,7491.79559248421,-1855.33104828218,-5.57557287805322,1.7515729147922,6.59427656108343,6759276.77664299,1.220206463122,-6.833752247448E-4,-0.150101624102911,0.0021388030100536,-0.675637400334763,0.124481249655684,1.64286309449952,0.0,-0.0011222299538715,0.0,356360.830334924,9.6915E-12,1078.98547363281,-5.57557287805322,1.7515729147922,6.59427656108343
2760.0,622493.662355539,-4314012.73076266,-5120627.30869105,4263705.39528224,-886199.001493212,-5123914.11592361,-119.91740873365,7579.12631642914,-1455.8109902376,-5.57352168989595,1.15850064853425,6.71771609368821,6758848.60698735,1.22458173253482,-5.365632089999E-4,-0.148544786381412,0.0022520602589178,-0.671499544171357,0.0718452562649063,1.68506284590302,0.0,-0.0011222299538715,0.0,358797.06598899,9.0389E-12,1071.15563964843,-5.57352168989595,1.15850064853425,6.71771609368821
2820.0,1027623.94308291,-4146751.37936156,-5195820.47928929,4246491.16353325,-429724.07971381,-5199111.31223254,-453.605171511765,7630.73073002613,-1049.85032452503,-5.54501153127292,0.561181146173144,6.80890074450861,6758524.85247856,1.22895700194763,-3.807527140014E-4,-0.147032193508854,0.002355580286497,-0.669595197593234,0.0190827414763376,1.72694350238929,0.0,-0.0011222299538715,0.0,361317.30791582,8.4157E-12,1063.37377929687,-5.54501153127292,0.561181146173144,6.80890074450861
2880.0,1429478.69128225,-3963614.2698796,-5246526.83798397,4209322.75233486,28770.6919760515,-5249806.23307838,-784.794696917259,7646.44123256072,-639.393994397262,-5.49030079165475,-0.0374801288590165,6.86753615078235,6758311.16239036,1.23333227136044,-2.166206045873E-4,-0.145567155036344,0.0024484193645718,-0.66990109483224,-0.0337131638638819,1.76873981779806,0.0,-0.0011222299538715,0.0,363905.407371524,7.8256E-12,1055.69482421875,-5.49030079165475,-0.0374801288590165,6.86753615078235
2940.0,1826320.04204499,-3765443.0953727,-5272535.26570025,4152397.00500567,487130.998536528,-5275787.83041953,-1111.92485909285,7626.26399194481,-226.399708852565,-5.40977373373671,-0.634598693055942,6.8934907811556,6758211.01637895,1.23770754077325,-4.49138774272E-5,-0.144152736627005,0.0025296860005784,-0.672420971457565,-0.0864500178187577,1.81068525456716,0.0,-0.0011222299538715,0.0,366546.341658434,7.2709E-12,1048.1630859375,-5.40977373373671,-0.634598693055942,6.8934907811556
3000.0,2216430.46889319,-3553133.29996341,-5273752.17349687,4076003.66714448,943208.068277315,-5276962.65891386,-1433.46125662668,7570.37727184065,187.171754048042,-5.30393615452226,-1.22732472540283,6.88679338621141,6758225.68705577,1.24208281018606,1.335546467236E-4,-0.142791748719566,0.0025985477296348,-0.677185623440863,-0.139034159546657,1.85301555739309,0.0,-0.0011222299538715,0.0,369226.330389851,6.7527E-12,1040.81030273437,-5.30393615452226,-1.22732472540283,6.88679338621141
3060.0,2598120.39143425,-3327629.67455891,-5250201.40104026,3980523.56717225,1394868.92832278,-5253354.77336745,-1747.90336523841,7479.12895930636,599.36607200736,-5.17341068389117,-1.81285603688649,6.84762983240851,6758354.2466752,1.24645807959887,3.179111078919E-4,-0.141486736721728,0.0026542374960874,-0.684253388028604,-0.191368764155272,1.89597233842272,0.0,-0.0011222299538715,0.0,371932.917365629,6.2707E-12,1033.65795898437,-5.17341068389117,-1.81285603688649,6.84762983240851
3120.0,2969735.60976502,-3089921.82582963,-5202023.54995902,3866426.37636863,1840006.48880949,-5205105.06072959,-2053.79139884235,7353.03333514758,1008.24469667651,-5.01893177297455,-2.38845034834322,6.7763393908727,6758593.61618154,1.25083334901168,5.072258201843E-4,-0.140239972714667,0.0026960595685134,-0.693711024129251,-0.243351801392966,1.93980668443215,0.0,-0.0011222299538715,0.0,374655.017814158,5.8241E-12,1026.71752929687,-5.01893177297455,-2.38845034834322,6.7763393908727
3180.0,3329664.53639515,-2841039.54225948,-5129474.76540906,3734267.96643276,2276549.4116075,-5132470.01997689,-2349.71286164814,7192.767127666,1411.89393429928,-4.84134041285673,-2.95143690426106,6.67341053919667,6758938.65411516,1.2552086184245,7.005188617998E-4,-0.139053448640298,0.0027233949395026,-0.705674943496457,-0.29487383865079,1.9847827749562,0.0,-0.0011222299538715,0.0,377382.931418707,5.4114E-12,1019.99560546875,-4.84134041285673,-2.95143690426106,6.67341053919667
3240.0,3676345.19808861,-2582048.08014095,-5032924.98093632,3584687.38357193,2702471.7217468,-5035820.00498635,-2634.30877606452,6999.16488876221,1808.43376101839,-4.64157861347747,-3.4992274520391,6.53947632157866,6759382.28226447,1.2595838878373,8.967659879932E-4,-0.137928870934494,0.0027357061696153,-0.720292703993083,-0.345815628539167,2.03118146110106,0.0,-0.0011222299538715,0.0,380108.322180163,5.0308E-12,1013.49523925781,-4.64157861347747,-3.4992274520391,6.53947632157866
3300.0,4008271.9815348,-2314043.39146008,-4912855.6433165,3418403.45898812,3115802.12201539,-4915636.94709101,-2906.27957268295,6773.21372961636,2196.02634740797,-4.42068366352704,-4.02932661444931,6.37530930092809,6759915.64445952,1.26395915725012,0.0010949048121531,-0.136867656562014,0.0027325416431962,-0.737744613882404,-0.396045423113264,2.07930369084637,0.0,-0.0011222299538715,0.0,382824.166766163,4.6805E-12,1007.22033691406,-4.42068366352704,-4.02932661444931,6.37530930092809
3360.0,4324002.09817182,-2038147.31472289,-4769856.93552244,3236211.07642243,3514632.97338081,-4772511.5754834,-3164.39062963803,6516.047451632,2572.88426850185,-4.17978218486302,-4.5393416784062,6.18181612646627,6760528.29452905,1.26833442666293,0.0012938411999838,-0.135870930402831,0.0027135392122202,-0.758245199936343,-0.445415963275185,2.12947356768601,0.0,-0.0011222299538715,0.0,385524.673552835,4.3584E-12,1001.17578125,-4.17978218486302,-4.5393416784062,6.18181612646627
3420.0,4622161.74481689,-1755502.74893254,-4604624.51735607,3038977.11815938,3897128.905991,-4607140.15501897,-3407.47744928385,6228.94010713647,2937.27837674364,-3.92008398964976,-5.02699181639866,5.96003173217299,6761208.40917218,1.27270969607574,0.0014924558225281,-0.134939523934332,0.0026784292126282,-0.782044147514375,-0.493761107247541,2.182040681504,0.0,-0.0011222299538715,0.0,388205.175073863,4.0625E-12,995.369262695312,-3.92008398964976,-5.02699181639866,5.96003173217299
3480.0,4901451.93804454,-1467268.83013932,-4417955.80461163,2827636.1116037,4261535.02755463,-4420320.76230223,-3634.45046050626,5913.29902358785,3287.54531601257,-3.64287574503755,-5.49011674881054,5.71111317534799,6761943.02131466,1.27708496548855,0.0016896108153024,-0.134073975149779,0.0026270368454342,-0.809426110334321,-0.540892092945705,2.23738113673301,0.0,-0.0011222299538715,0.0,390861.997046682,3.7909E-12,989.810180664062,-3.64287574503755,-5.49011674881054,5.71111317534799
3540.0,5160654.00151725,-1174616.12925723,-4210745.8089333,2603185.59923605,4606184.6979168,-4212949.12223536,-3844.29943522559,5570.65732480887,3622.0946553064,-3.34951444868378,-5.92668484652714,5.43633312063017,6762718.26941487,1.28146023490136,0.0018841564930149,-0.133274529650433,0.0025592839222783,-0.840708494418044,-0.586593485463479,2.29589640632107,0.0,-0.0011222299538715,0.0,393492.307541339,3.5418E-12,984.509887695312,-3.34951444868378,-5.92668484652714,5.43633312063017
3600.0,5398634.68674974,-878721.889167376,-3983982.56180651,2366681.25543452,4929506.84066353,-3986014.02848561,-4036.09750784078,5202.66598307214,3939.41562091894,-3.04142071863553,-6.33480066429258,5.1370729730106,6763519.65814235,1.28583550431417,0.0020749380722322,-0.132541142846623,0.0024751899816166,-0.87623593595159,-0.630618956489031,2.35800875226265,0.0,-0.0011222299538715,0.0,396093.950188487,3.3135E-12,979.481201171875,-3.04142071863553,-6.33480066429258,5.1370729730106
3660.0,5614350.90910588,-580765.318494029,-3738742.14738537,2119231.77431693,5230032.76464052,-3740592.37259173,-4209.00478662304,4811.08543669267,4238.08340615828,-2.7200719028664,-6.71271188676936,4.81481566358943,6764332.3258629,1.29021077372699,0.0022608023576271,-0.131873483202134,0.0023748727874827,-0.916369733392621,-0.672687194541328,2.42415149132678,0.0,-0.0011222299538715,0.0,398665.265583311,3.1043E-12,974.736572265625,-2.7200719028664,-6.71271188676936,4.81481566358943
3720.0,5806854.08221212,-281922.958840876,-3476183.37010708,1861993.55340703,5506402.47038797,-3477843.80767884,-4362.27154647194,4397.77680910063,4516.76503793063,-2.3869950168842,-7.05881566160943,4.47113809390951,6765141.31441757,1.29458604313979,0.0024406043511798,-0.131270936456273,0.0022585482275875,-0.961470034188901,-0.712478471151579,2.49475192225359,0.0,-0.0011222299538715,0.0,401204.905226541,2.9127E-12,970.2880859375,-2.3869950168842,-7.05881566160943,4.47113809390951
3780.0,5975294.03544829,16635.8583130633,-3197542.0842723,1596165.19854546,5757370.41870201,-3199005.07397933,-4495.24099307468,3964.69276710793,4774.22477996948,-2.04375952207584,-7.37166428746262,4.10770324845831,6765931.83677786,1.29896131255261,0.0026132137476312,-0.130732610759149,0.0021265296314725,-1.01186829656376,-0.749632697977078,2.57020444870444,0.0,-0.0011222299538715,0.0,403711.642448011,2.7372E-12,966.146850585937,-2.04375952207584,-7.37166428746262,4.10770324845831
3840.0,6118922.50076373,313753.449447028,-2904125.21396234,1322981.87603801,5981810.74085719,-2905384.0145504,-4607.35158941924,3513.86805815845,5009.32905321496,-1.69196996258935,-7.64997022005697,3.72625199014245,6766689.53828899,1.30333658196542,0.0027775212835113,-0.13025734265774,0.0019792265323224,-1.06782779220836,-0.783750186440593,2.65083167584888,0.0,-0.0011222299538715,0.0,406184.184778283,2.5767E-12,962.321533203125,-1.69196996258935,-7.64997022005697,3.72625199014245
3900.0,6237096.1567764,608288.096557138,-2597304.49280326,1043709.53854146,6178721.87247993,-2598353.3107181,-4698.13893685039,3047.4097686621,5221.05085492358,-1.33325848431312,-7.89261035656722,3.32859455994628,6767400.74737995,1.30771185137822,0.002932444911236,-0.129843703873482,0.0018171428982514,-1.12949122332751,-0.814396691485516,2.7368325645593,0.0,-0.0011222299538715,0.0,408620.992167623,2.4298E-12,958.818969726562,-1.33325848431312,-7.89261035656722,3.32859455994628
3960.0,6329279.2199537,899118.230083379,-2278509.95414916,759639.051609692,6347230.59566144,-2279343.96784066,-4767.23720445374,2567.48734793441,5408.47365957661,-0.969277265623726,-8.09862955767123,2.9166018092963,6768052.71182314,1.31208712079104,0.0030769357737008,-0.129490008816058,0.0016408748601209,-1.19681752736287,-0.841114518153451,2.82821972578027,0.0,-0.0011222299538715,0.0,411020.105298317,2.2954E-12,955.643188476562,-0.969277265623726,-8.09862955767123,2.9166018092963
4020.0,6395045.57464602,1185146.46354845,-1949223.20321651,472080.248138648,6486595.47664264,-1949838.58294354,-4814.38010251853,2076.32244466826,5570.79478660158,-0.601690895743143,-8.26724336814463,2.49219620153951,6768633.81687303,1.31646239020385,0.0032099839587001,-0.129194322782915,0.0014511079635567,-1.26951498962715,-0.863441217719235,2.92475298348053,0.0,-0.0011222299538715,0.0,413378.987997983,2.1726E-12,952.79443359375,-0.601690895743143,-8.26724336814463,2.49219620153951
4080.0,6434080.43583983,1465303.46701897,-1610970.50352987,182355.938135526,6596209.68928733,-1611364.42660766,-4839.40139816016,1576.17860511043,5707.32822234853,-0.232168742470535,-8.3978399006663,2.0573426270477,6769133.78190055,1.32083765961666,0.0033306240160616,-0.128954470799469,0.0012486139728727,-1.3469842395072,-0.880936370299907,3.02588278913901,0.0,-0.0011222299538715,0.0,415694.387440081,2.0604E-12,950.2705078125,-0.232168742470535,-8.3978399006663,2.0573426270477
4140.0,6446181.54070549,1738551.66735194,-1265315.71070769,-108204.09872579,6675603.21757089,-1265486.3721606,-4842.23497385388,1069.35088406059,5817.50688667308,0.137622643585751,-8.48998085371111,1.61403908438695,6769543.83247562,1.32521292902947,0.0034379402237235,-0.128768047060936,0.0010342472540079,-1.4282901441823,-0.893214956947386,3.13072250829182,0.0,-0.0011222299538715,0.0,417962.215421364,1.9579E-12,948.064819335937,0.137622643585751,-8.48998085371111,1.61403908438695
4200.0,6431259.86731192,2003888.76413019,-913853.087096918,-398269.110433803,6724444.43342618,-913799.705700667,-4822.91443259826,558.155421314333,5900.88433784933,0.506027036664039,-8.54340164291839,1.1643072873368,6769856.84523193,1.32958819844228,0.0035310715919329,-0.12863242494299,8.089407628141E-4,-1.51218186627839,-0.899983141597871,-3.04511645560203,0.0,-0.0011222299538715,0.0,420177.453540919,1.8645E-12,946.167785644531,0.506027036664039,-8.54340164291839,1.1643072873368
4260.0,6389339.88124179,2260351.05122362,-558200.031030371,-686513.332841896,6742541.0494768,-557922.850748629,-4781.57225662952,44.9190370987945,5957.13591331889,0.871405900472012,-8.55801063596004,0.710183263887787,6770067.46327646,1.33396346785509,0.0036092165972321,-0.128544767554855,5.73701663853E-4,-1.59717155966514,-0.901069880622736,-2.93670437710318,0.0,-0.0011222299538715,0.0,422334.084583144,1.7793E-12,944.565368652343,0.871405900472012,-8.55801063596004,0.710183263887787
4320.0,6320559.31322933,2507016.53504984,-199989.754508193,-971621.886248685,6729840.44941159,-199490.041349483,-4718.438529967,-468.031099717346,5986.05930790597,1.23214555299467,-8.53388749339762,0.253708018285227,6770172.18037795,1.33833873726791,0.0036716376401507,-0.128502038814676,3.296066035606E-4,-1.68166464249026,-0.896447079823538,-2.82877442785696,0.0,-0.0011222299538715,0.0,424425.051839844,1.7018E-12,943.23974609375,1.23214555299467,-8.53388749339762,0.253708018285227
4380.0,6225168.47332353,2743007.84182697,159136.057122408,-1252296.58258003,6686429.40196789,159856.022781508,-4633.83923849116,-978.377677418199,5987.57459549762,1.58666407452232,-8.4712806319142,-0.203081669649778,6770169.39267919,1.34271400668071,0.0037176652221445,-0.128501015032964,7.77966604066E-5,-1.76411526569327,-0.886233030467036,-2.72282563184964,0.0,-0.0011222299538715,0.0,426442.247507727,1.6315E-12,942.175170898437,1.58666407452232,-8.4712806319142,-0.203081669649778
4440.0,6103529.1094079,2967494.90742169,517534.570409077,-1527261.61832046,6612533.1676473,518471.505968621,-4528.19416463304,-1483.82326944233,5961.72370468498,1.93341790359257,-8.37060384112501,-0.658162232623344,6770059.41722115,1.34708927609353,0.0037467018386854,-0.128538296995222,-1.805280066423E-4,-1.84317013069429,-0.870678181065375,-2.62016400583171,0.0,-0.0011222299538715,0.0,428376.530684039,1.5679E-12,941.367309570312,1.93341790359257,-8.37060384112501,-0.658162232623344
4500.0,5956112.82013739,3179697.44477033,873569.081641915,-1795269.12946403,6508514.01032892,874718.718806417,-4402.0143969747,-1982.10013512193,5908.6693633534,2.27090806913615,-8.23243210033403,-1.10953201736442,6769844.47712987,1.35146454550634,0.0037582255862342,-0.128610322539516,-4.441137911699E-4,-1.91776872478978,-0.850137066293647,-2.52180196824281,0.0,-0.0011222299538715,0.0,430217.774866959,1.5109E-12,940.811157226562,2.27090806913615,-8.23243210033403,-1.10953201736442
4560.0,5783499.03444379,3378887.18527416,1225616.21602053,-2055104.58606299,6374869.12882152,1226973.32160718,-4255.89947800599,-2470.97974692021,5828.69353155152,2.59768601265318,-8.05749665645193,-1.55521962923252,6769528.6538923,1.35583981491915,0.0037517934812691,-0.128713379628338,-7.11659534493E-4,-1.98718521862234,-0.825033244481229,-2.42841607425059,0.0,-0.0011222299538715,0.0,431954.944267191,1.46E-12,940.497131347656,2.59768601265318,-8.05749665645193,-1.55521962923252
4620.0,5586372.57166352,3564389.89202414,1572073.01813618,-2305592.0054259,6212228.02605192,1573631.41904367,-4090.53421584061,-2948.28200202332,5722.19534601036,2.91235896163595,-7.84667943814808,-1.99329185592605,6769117.8077211,1.36021508433196,0.0037270444896739,-0.128843619916673,-9.818226643559E-4,-2.05101663836419,-0.795824367404183,-2.3403584588044,0.0,-0.0011222299538715,0.0,433576.197665583,1.4152E-12,940.411682128906,2.91235896163595,-7.84667943814808,-1.99329185592605
4680.0,5365520.79801833,3735587.14416104,1911363.90527613,-2545598.96462985,6021349.33597174,1913116.51747849,-3906.68518775744,-3411.88408102273,5589.68860327495,3.21359482451525,-7.60100689349495,-2.42186111498417,6768619.467565,1.36459035374478,0.0036837022644311,-0.128997072819467,-0.0012532255587387,-2.10913442233121,-0.762972581344679,-2.25770487214837,0.0,-0.0011222299538715,0.0,435069.018020611,1.3761E-12,940.536437988281,3.21359482451525,-7.60100689349495,-2.42186111498417
4740.0,5121830.39659864,3891917.89309713,2241947.45676704,-2774041.39473088,5803117.13033857,2243886.3181824,-3705.1969649093,-3859.72892196871,5431.79881141208,3.50012658785881,-7.32164334822414,-2.8390923807064,6768042.69285291,1.36896562315758,0.003621577589012,-0.129169660081655,-0.0015244621164375,-2.16161933430516,-0.726922731008363,-2.1803193291666,0.0,-0.0011222299538715,0.0,436420.365552882,1.3425E-12,940.84521484375,3.50012658785881,-7.32164334822414,-2.8390923807064
4800.0,4856283.76912773,4032879.7926884,2562323.01444339,-2989888.14084488,5558536.72925001,2564439.32151413,-3486.98808835647,-4289.8332841276,5249.25984254339,3.77075620803718,-7.00988398868396,-3.24320955894501,6767397.9095469,1.37334089257039,0.0035405705228789,-0.129357210852525,-0.0017941045155971,-2.2086956925759,-0.688088514411159,-2.10791940654478,0.0,-0.0011222299538715,0.0,437616.851616311,1.3143E-12,941.307861328125,3.77075620803718,-7.00988398868396,-3.24320955894501
4860.0,4569955.08861059,4158030.30671447,2871037.07130846,-3192165.27408775,5288730.04065985,2873321.21911765,-3253.0468266896,-4700.29538214647,5042.91021992377,4.02435800165994,-6.66714757719037,-3.63250129251741,6766696.72351641,1.37771616198321,0.0034406722444817,-0.12955547726344,-0.0020607101407936,-2.25067440710655,-0.646845345354836,-2.04013268752609,0.0,-0.0011222299538715,0.0,438644.930316493,1.2918E-12,941.977783203125,4.02435800165994,-6.66714757719037,-3.63250129251741
4920.0,4264006.02248456,4266987.59816875,3166689.42749984,-3379960.14316434,4994930.45506867,3169131.05323806,-3004.42674488047,-5089.30207780692,4813.68907386579,4.25988155129391,-6.29496900736488,-4.00532619520957,6765951.71461691,1.38209143139601,0.0033219665856494,-0.129760150503806,-0.0023228286580041,-2.28790857763048,-0.603528169642263,-1.97654059263943,0.0,-0.0011222299538715,0.0,439491.104556945,1.2754E-12,942.916137695312,4.25988155129391,-6.29496900736488,-4.00532619520957
4980.0,3939681.1460922,4359431.20585847,3447939.09472187,-3552425.155137,4678477.32215862,3450527.12430953,-2742.24211265135,-5455.13562290523,4562.6318004669,4.47635415479255,-5.89499180307278,-4.36011752789374,6765176.21515849,1.38646670080883,0.0031846312499037,-0.129966877384888,-0.002579009215526,-2.32076163506881,-0.558432545550576,-1.91670960400008,0.0,-0.0011222299538715,0.0,440142.142985219,1.2657E-12,944.173095703125,4.47635415479255,-5.89499180307278,-4.36011752789374
5040.0,3598303.06620812,4435102.51463502,3713509.93231047,-3708781.27654441,4340810.03634723,3716232.62997272,-2467.66317862069,-5796.1799527961,4290.86545582391,4.67288285747441,-5.46896065670374,-4.69538734552318,6764384.07667342,1.39084197022164,0.0030289387056013,-0.130171277374553,-0.0028278077471658,-2.34958612931966,-0.511817629037988,-1.86021176869509,0.0,-0.0011222299538715,0.0,440585.304171065,1.2631E-12,945.794067382812,4.67288285747441,-5.46896065670374,-4.69538734552318
5100.0,3241267.27399814,4493805.02620041,3962195.99999486,-3848321.24754009,3983461.75809733,3965041.02057951,-2181.91133383492,-6110.9265355517,3999.60391625915,4.84865611589238,-5.01871409094677,-5.00973015803395,6763589.4290346,1.39521723963445,0.0028552567432134,-0.130368960078582,-0.0030677943519952,-2.37471069016366,-0.463910091153025,-1.80663694139116,0.0,-0.0011222299538715,0.0,440808.564274403,1.2681E-12,947.822387695312,4.84865611589238,-5.01871409094677,-5.00973015803395
5160.0,2870036.74620681,4535404.43785464,4192866.61416589,-3970412.50304429,3608052.79737984,4195821.05798912,-1886.25418513257,-6397.97978630412,3690.14283211146,5.00294514958191,-4.54617731324578,-5.30182616084297,6762806.43603979,1.39959250904726,0.0026640486845341,-0.130555543135895,-0.0032975607231509,-2.39643281959763,-0.414908334594487,-1.75559909277098,0.0,-0.0011222299538715,0.0,440800.844446274,1.2814E-12,950.302001953125,5.00294514958191,-4.54617731324578,-5.30182616084297
5220.0,2486136.31260817,4559828.53675089,4404471.09600611,-4074499.79602414,3216283.68499787,4407521.56600575,-1582.00055522876,-6656.06205996767,3363.8543989777,5.13510504258069,-4.05335531429161,-5.57044410109506,6762049.05155855,1.40396777846008,0.002455873229998,-0.130726670486308,-0.003515727595384,-2.41501559444174,-0.364986634163273,-1.70673858759946,0.0,-0.0011222299538715,0.0,440552.234244819,1.3037E-12,953.277160644531,5.13510504258069,-4.05335531429161,-5.57044410109506
5280.0,2091146.80687252,4567066.91721062,4596043.20114498,-4160107.51891728,2809927.95660822,4599175.8621174,-1270.49542260189,-6884.01823802746,3022.18196607384,5.24457565937982,-3.54232624186075,-5.8144438535732,6761330.78024736,1.40834304787288,0.0022313839292685,-0.130878030959937,-0.0037209521794845,-2.43068683092737,-0.314299004181775,-1.6597218607659,0.0,-0.0011222299538715,0.0,440054.207434279,1.3359E-12,956.794738769531,5.24457565937982,-3.54232624186075,-5.8144438535732
5340.0,1686699.01705705,4557170.52842905,4766705.22154558,-4226841.71988217,2390824.67329152,4769905.8612385,-953.114810366192,-7080.81992631926,2666.63449679334,5.33088244010391,-3.01523505981676,-6.03277878484368,6760664.44667767,1.4127183172857,0.0019913282588142,-0.131005377128197,-0.0039119355488698,-2.44363968028496,-0.262982710843732,-1.61423949942401,0.0,-0.0011222299538715,0.0,439299.82666036,1.3792E-12,960.902954101562,5.33088244010391,-3.01523505981676,-6.03277878484368
5400.0,1274467.45098981,4530251.05948359,4915671.75109135,-4274391.81099344,1960870.70150226,4918925.84292185,-631.260629492392,-7245.56928065224,2298.78089177159,5.3936371370462,-2.4742874799893,-6.22449798548733,6760061.97650027,1.41709358669851,0.0017365462897288,-0.131104544346796,-0.0040874299418781,-2.45403395220119,-0.211161416903965,-1.57000340830572,0.0,-0.0011222299538715,0.0,438283.933654486,1.435E-12,965.649169921875,5.3936371370462,-2.4742874799893,-6.22449798548733
5460.0,856163.930954252,4486480.16796665,5042253.10681614,-4302531.96571401,1522012.77425413,5045545.87398018,-306.355478160634,-7377.50247573134,1920.24418002197,5.43253854924441,-1.92174413282283,-6.38874844803092,6759534.19299906,1.42146885611132,0.0014679689284241,-0.131171469912116,-0.0042462459412982,-2.46199770309831,-0.158947985353202,-1.52674349181485,0.0,-0.0011222299538715,0.0,437003.321806667,1.5048E-12,971.078735351562,5.43253854924441,-1.92174413282283,-6.38874844803092
5520.0,433531.031354941,4426088.55782813,5145858.39791835,-4311122.20298483,1076239.35454295,5149174.8786554,20.1626041422007,-7475.99283016118,1532.69557920865,5.4473733037292,-1.3599149220231,-6.52477726245051,6759090.63207551,1.42584412552413,0.0011866157128891,-0.131202212243599,-0.0043872594910739,-2.46762879369136,-0.106446989062053,-1.48420411561213,0.0,-0.0011222299538715,0.0,435456.888157748,1.5906E-12,977.22705078125,5.4473733037292,-1.3599149220231,-6.52477726245051
5580.0,8335.37252297689,4349364.91116226,5225998.23463948,-4300109.15510802,625572.321352458,5229323.34841263,346.845431785266,-7540.55359645542,1137.84842206484,5.43801672167202,-0.791153489766238,-6.63193389202193,6758739.37836492,1.43021939493695,8.935921476029E-4,-0.131192969996793,-0.0045094187089199,-2.47099623295147,-0.053756982603807,-1.44214049466965,0.0,-0.0011222299538715,0.0,433645.762093834,1.6944E-12,984.11279296875,5.43801672167202,-0.791153489766238,-6.63193389202193
5640.0,-417639.216445001,4256654.67774678,5282287.06880202,-4269526.51629783,172058.498194926,5285605.68315099,672.240023351781,-7570.8404200767,737.451942549458,5.40443379526137,-0.217851703134669,-6.70967258012952,6758486.92482717,1.43459466434975,5.900865611635E-4,-0.131140101004391,-0.0046117504527198,-2.47214119926722,-9.725956556991E-4,-1.40031507895491,0.0,-0.0011222299538715,0.0,431573.40827777,1.8185E-12,991.729431152343,5.40443379526137,-0.217851703134669,-6.70967258012952
5700.0,-842598.652882804,4148358.72518018,5314445.15733477,-4219495.16837884,-282238.955933679,5317742.15515555,994.8940142651,-7566.65346577936,333.284912731217,5.34668028717878,0.357565940041117,-6.7575549238173,6758338.05778831,1.43896993376255,2.77366472084E-4,-0.131040140936195,-0.0046933665983114,-2.47107767691597,0.0518134922937564,-1.35849396028509,0.0,-0.0011222299538715,0.0,429245.701624158,1.9653E-12,1000.03656005859,5.34668028717878,0.357565940041117,-6.7575549238173
5760.0,-1264745.66047524,4024931.85150412,5322300.13951914,-4150222.9796744,-735249.273012109,5325560.48652031,1313.36113902106,-7527.93920313998,-72.8508802577996,5.26490394951583,0.932648096306252,-6.7752526328781,6758295.76904171,1.44334520317537,-4.32255496542E-5,-0.130889821563511,-0.0047534699865033,-2.46779267664362,0.1045086368432,-1.31644329628624,0.0,-0.0011222299538715,0.0,426670.972417771,2.1372E-12,1008.95739746093,5.26490394951583,0.932648096306252,-6.7752526328781
5820.0,-1682286.91984981,3886881.1612875,5305788.21802784,-4062004.27270264,-1184902.89900477,5308997.03010918,1626.20678970929,-7454.79183638997,-479.137328433745,5.15934584339151,1.50492266728709,-6.76255047469674,6758361.19626017,1.44772047258818,-3.702765351972E-4,-0.130686088509075,-0.0047913599978969,-2.46224603070652,0.157018314652931,-1.27392573469995,0.0,-0.0011222299538715,0.0,423860.019992055,2.3367E-12,1018.38067626953,5.15934584339151,1.50492266728709,-6.76255047469674
5880.0,-2093440.29466847,3734764.3053255,5264954.93316467,-3955218.95593991,-1629140.39146437,5268097.5434594,1932.01365591238,-7347.45435677153,-883.746879002066,5.0303417249236,2.07190331031925,-6.71934938550855,6758533.59262095,1.45209574200099,-7.023082902606E-4,-0.130426118360243,-0.0048064377154644,-2.45436977131968,0.209244151977237,-1.23069682105811,0.0,-0.0011222299538715,0.0,420826.093728395,2.566E-12,1028.17053222656,5.0303417249236,2.07190331031925,-6.71934938550855
5940.0,-2496442.11655976,3569187.58340992,5199955.51912171,-3830331.314677,-2065921.36825492,5203017.54443877,2229.38744855391,-7206.3191889023,-1284.84960113519,4.87832344809438,2.6310964784756,-6.64566970883627,6758810.32621506,1.4564710114138,-0.0010377830923646,-0.130107335020923,-0.0047982106368026,-2.44406712279736,0.261081836692788,-1.18650138495072,0.0,-0.0011222299538715,0.0,417584.840511205,2.8274E-12,1038.18054199218,4.87832344809438,2.6310964784756,-6.64566970883627
6000.0,-2889554.51038818,3390803.90909123,5111054.83061774,-3687888.45593675,-2493233.48202123,5114022.23701566,2516.96270686875,-7031.9283963231,-1680.62044944844,4.70382032092032,3.18000909009725,-6.54165450225436,6759186.90949027,1.46084628082662,-0.0013751099105962,-0.129727425176461,-0.0047662969003123,-2.43121116790036,0.312418854110462,-1.14106992709533,0.0,-0.0011222299538715,0.0,414154.218181095,3.1231E-12,1048.2666015625,4.70382032092032,3.18000909009725,-6.54165450225436
6060.0,-3271072.73918839,3200310.63501027,4998626.82804207,-3528518.40259393,-2909101.39276821,5001485.99526113,2793.40868346435,-6824.97340578776,-2069.2467260367,4.50746033863149,3.71615691423844,-6.40757283489498,6759657.05867036,1.46522155023942,-0.0017126511418118,-0.129284352745563,-0.0047104289926426,-2.41564329545477,0.363131987122878,-1.09411507617394,0.0,-0.0011222299538715,0.0,410554.374972096,3.4552E-12,1058.29931640625,4.50746033863149,3.71615691423844,-6.40757283489498
6120.0,-3639332.54564518,2998447.23725235,4863153.60926554,-3352927.8322841,-3311595.70834197,4865891.39374038,3057.43529752764,-6586.29420518122,-2448.93573775226,4.28997120668987,4.23707374072685,-6.24382298082161,6760212.78278825,1.46959681965224,-0.002048729852002,-0.12877637219422,-0.0046304569079949,-2.39717160879575,0.413084524277712,-1.04532825899717,0.0,-0.0011222299538715,0.0,406807.495398115,3.826E-12,1068.16833496093,4.28997120668987,4.23707374072685,-6.24382298082161
6180.0,-3992717.46432722,2785992.85728954,4705223.97665986,-3161899.45744726,-3698841.85978625,4707827.77283053,3307.7991407295,-6316.87796645291,-2817.92263924063,4.05218105777386,4.7403213821907,-6.05093539806362,6760844.50166418,1.47397208906505,-0.0023816375059282,-0.12820204058847,-0.0045263507336778,-2.37556958556256,0.46212312829388,-0.994376841567843,0.0,-0.0011222299538715,0.0,402937.613569277,4.2374E-12,1077.7841796875,4.05218105777386,4.7403213821907,-6.05093539806362
6240.0,-4329666.07605073,2563763.7004446,4525531.52864107,-2956289.04395602,-4069028.87555978,4527989.32827724,3543.30951442592,-6017.85704283363,-3174.47844523835,3.795018760629,5.22350053085509,-5.82957537020008,6761541.1918417,1.47834735847786,-0.0027096421622346,-0.12756022826591,-0.0043982026403266,-2.35057544454295,0.510074337348274,-0.940902167174585,0.0,-0.0011222299538715,0.0,398970.395466112,4.6913E-12,1087.07580566406,3.795018760629,5.22350053085509,-5.82957537020008
6300.0,-4648679.17283901,2332610.29043563,4324872.26626988,-2737022.06724794,-4420418.01553163,4327172.71552049,3762.83447051064,-5690.50628904107,-3516.91818793338,3.51951371518976,5.68426246565556,-5.58054517732841,6762290.55915582,1.48272262789067,-0.0030309971050183,-0.1268501280099,-0.0042462282592844,-2.32189291236697,0.556740709823375,-0.884519158138705,0.0,-0.0011222299538715,0.0,394932.892272984,5.189E-12,1095.98718261718,3.51951371518976,5.68426246565556,-5.58054517732841
6360.0,-4948326.79903485,2093414.58044877,4104141.70713626,-2505090.00673164,-4751351.22261909,4106274.16101587,3965.30682190624,-5336.23965431942,-3843.60918697732,3.22679502783571,6.12032157579562,-5.30478565644431,6763079.23623742,1.48709789730349,-0.003343949876613,-0.12607126261573,-0.0040707674340651,-2.28919440730456,0.601896691292881,-0.824818475496736,0.0,-0.0011222299538715,0.0,390853.267462668,5.7315E-12,1104.4736328125,3.22679502783571,6.12032157579562,-5.30478565644431
6420.0,-5227255.1313089,1847086.92233191,3864331.50095342,-2261546.28146682,-5060259.34700246,3866286.07497731,4149.73008237448,-4956.60600111485,-4152.97939122518,2.91808996324596,6.52946863587738,-5.00337700805513,6763893.00285275,1.49147316671629,-0.0036467516698612,-0.125223490744582,-0.0038722843369139,-2.2521280717281,0.645284395424961,-0.7613726481314,0.0,-0.0011222299538715,0.0,386760.500919189,6.3186E-12,1112.49816894531,2.91808996324596,6.52946863587738,-5.00337700805513
6480.0,-5484193.15768703,1594562.89688849,3606525.54399764,-2007501.83272083,-5345670.09515559,3608293.16268008,4315.18428927485,-4553.2841070351,-4443.52574268949,2.59472157521461,6.90958473581304,-4.67753870658283,6764717.02653018,1.4958484361291,-0.0039376670319571,-0.124307010969012,-0.0036513669457503,-2.21033055692826,0.686609666159147,-0.693748057596247,0.0,-0.0011222299538715,0.0,382684.073971111,6.9494E-12,1120.02954101562,2.59472157521461,6.90958473581304,-4.67753870658283
6540.0,-5717959.11338903,1336800.00986113,3331895.59275306,-1744120.36195743,-5606215.65358308,3333468.03468791,4460.83165730422,-4128.07681451406,-4713.82250477618,2.2581054281101,7.25865573661038,-4.32862837709353,6765536.12043938,1.50022370554192,-0.0042149838256509,-0.123322363923235,-0.0034087258806524,-2.16344788965789,0.725539043201668,-0.621525092848706,0.0,-0.0011222299538715,0.0,378653.639763769,7.6214E-12,1127.04028320312,2.2581054281101,7.25865573661038,-4.32862837709353
6600.0,-5927466.62933331,1074774.26000377,3041696.38083631,-1472613.23608319,-5840639.9352714,3043066.32008649,4585.92200631794,-3682.90430128603,-4962.52948888355,1.90974533346996,7.574787091647,-3.95813951037668,6766335.01496671,1.50459897495472,-0.0044770233878106,-0.122270432482525,-0.0031451926027712,-2.11116689819668,0.761698589646601,-0.544328939499053,0.0,-0.0011222299538715,0.0,374698.683907116,8.3309E-12,1133.50598144531,1.90974533346996,7.574787091647,-3.95813951037668
6660.0,-6111730.54771692,809476.587608484,2737260.24745116,-1194234.07531762,-6047805.39555452,2738421.29098332,4689.7979022744,-3219.79645530484,-5188.4001061687,1.5512280425216,7.85621884314041,-3.56769790258915,6767098.63888748,1.50897424436754,-0.0047221508197347,-0.121152439909017,-0.0028617169819232,-2.05325913522139,0.794675927080567,-0.461872929366581,0.0,-0.0011222299538715,0.0,370848.18077365,9.0723E-12,1139.40454101562,1.5512280425216,7.85621884314041,-3.56769790258915
6720.0,-6269872.35822043,541909.213943066,2419991.29020608,-910273.0428058,-6226699.36347206,2420938.01111966,4771.89944736616,-2740.88434999573,-5390.28916500491,1.1842168551118,8.10134057623921,-3.1590567246748,6767812.4054891,1.51334951378035,-0.0049487853385676,-0.119969945915959,-0.0025593642421048,-1.98963741496092,0.824027158581466,-0.374014557762799,0.0,-0.0011222299538715,0.0,367130.25116675,9.8379E-12,1144.71618652343,1.1842168551118,8.10134057623921,-3.1590567246748
6780.0,-6401125.20820141,273081.884219314,2091359.0600502,-622050.858986439,-6376439.83485767,2092087.02636601,4831.768653701,-2248.39082950852,-5567.16032965464,0.810444128387506,8.30870608965482,-2.7340901505298,6768462.49847384,1.51772478319316,-0.0051554106148039,-0.118724840619098,-0.0022393112967822,-1.92042138806344,0.849290439187856,-0.280820583075229,0.0,-0.0011222299538715,0.0,363571.827312123,1.06186E-11,1149.42309570312,0.810444128387506,8.30870608965482,-2.7340901505298
6840.0,-6504838.44080533,4008.02888983747,1752891.82126033,-330912.567681517,-6496280.67442129,1753397.62005269,4869.0533346531,-1744.62022868946,-5718.09315224945,0.431702694216239,8.47704752325042,-2.29478550118467,6769036.15199883,1.52210005260597,-0.0053405850169528,-0.117419336362607,-0.0019028424880964,-1.84600289925013,0.870007470147857,-0.182631945873953,0.0,-0.0011222299538715,0.0,360198.331224967,1.14031E-11,1153.5087890625,0.431702694216239,8.47704752325042,-2.29478550118467
6900.0,-6580481.61629733,-264299.13979148,1406169.40474093,-38221.0847936132,-6585616.17604768,1406450.66141954,4883.51044937053,-1231.94726846562,-5842.28958855599,0.0498362222001089,8.60528867074444,-1.84323389466582,6769521.9188267,1.52647532201879,-0.0055029516816047,-0.116055957427238,-0.0015513447459173,-1.76709538879791,0.885752837695958,-0.0801127615523937,0.0,-0.0011222299538715,0.0,357033.372457016,1.21784E-11,1156.95837402343,0.0498362222001089,8.60528867074444,-1.84323389466582
6960.0,-6627647.97414749,-530830.576977505,1052815.68826477,254649.435715644,-6643984.93346858,1052871.08083766,4875.00883901134,-712.805183831405,-5939.07990844621,-0.333271405541892,8.6925572008538,-1.38161942697096,6769909.92030274,1.53085059143159,-0.0056412483249661,-0.114637527650496,-0.0011863021843014,-1.68474741844251,0.896168822968616,0.0257365392774622,0.0,-0.0011222299538715,0.0,354098.471020155,1.29304E-11,1159.76025390625,-0.333271405541892,8.6925572008538,-1.38161942697096
7020.0,-6646057.29650181,-794585.379380442,694490.742555664,546320.380344089,-6671072.97739445,694320.010732704,4843.53129814511,-189.673158162898,-6007.92791465155,-0.715707611833053,8.73819551382946,-0.912206947755141,6770192.07177919,1.53522586084441,-0.0057543167108571,-0.113167156011905,-8.092901541654E-4,-1.60030294005446,0.901000579330456,0.133619310137989,0.0,-0.0011222299538715,0.0,351412.810911295,1.36437E-11,1161.904296875,-0.715707611833053,8.73819551382946,-0.912206947755141
7080.0,-6635558.13763711,-1054574.76192604,332882.687159012,835415.557639194,-6666716.14010044,332486.636186218,4789.17593139839,334.936846369595,-6048.43538837344,-1.0955434089788,8.74176997319427,-0.437328533608789,6770362.27721011,1.53960113025722,-0.0058411116899752,-0.111648220260725,-4.219687720851E-4,-1.51530307369418,0.900124592739456,0.242041266651795,0.0,-0.0011222299538715,0.0,348993.029129216,1.43029E-11,1163.38464355468,-1.0955434089788,8.74176997319427,-0.437328533608789
7140.0,-6596129.38879163,-1309826.01314787,-30300.695279098,1120568.13868136,-6630901.61430384,-30920.196131149,4712.15675376205,858.493757535482,-6060.34568766786,-1.47084629797252,8.70307827499104,0.0406311992927413,6770416.58696548,1.54397639967003,-0.0059007097262786,-0.110084348688056,-2.60759461776E-5,-1.43134340741132,0.893563513791324,0.349453535963122,0.0,-0.0011222299538715,0.0,346853.044386728,1.48926E-11,1164.19848632812,-1.47084629797252,8.70307827499104,0.0406311992927413
7200.0,-6527881.15331909,-1559386.40460579,-393340.533538777,1400427.61007615,-6563768.67986549,-394180.557873906,4612.80350286318,1378.4614428229,-6043.5464341481,-1.83969360595794,8.62215474893202,0.519250764572998,6770353.31348093,1.54835166908284,-0.0059323168283304,-0.108479400169795,3.765800790057E-4,-1.34991828559356,0.881483386518003,0.454408715869206,0.0,-0.0011222299538715,0.0,345003.928897287,1.53989E-11,1164.34619140625,-1.83969360595794,8.62215474893202,0.519250764572998
7260.0,-6431054.91333571,-1802327.02906525,-754515.574849435,1673666.69149947,-6465608.57928059,-755572.151437111,4491.56064269723,1892.31301101469,-5998.07123527792,-2.20018606612989,8.49927342691878,0.99608824553032,6770173.10017514,1.55272693849566,-0.005935275806654,-0.106837442630462,7.841286354935E-4,-1.272289036079,0.864174035056154,0.555692998468531,0.0,-0.0011222299538715,0.0,343453.825678248,1.5809E-11,1163.83166503906,-2.20018606612989,8.49927342691878,0.99608824553032
