time,gePosition_m_X,gePosition_m_Y,gePosition_m_Z,eiPosition_m_X,eiPosition_m_Y,eiPosition_m_Z,eiVelocity_m_s_X,eiVelocity_m_s_Y,eiVelocity_m_s_Z,eiAccel_m_s2_X,eiAccel_m_s2_Y,eiAccel_m_s2_Z,semiMajorAxis_m,gast_rad,eulerAngle_rad_Roll,eulerAngle_rad_Pitch,eulerAngle_rad_Yaw,eulerAngleWrtEi_rad_Roll,eulerAngleWrtEi_rad_Pitch,eulerAngleWrtEi_rad_Yaw,bodyAngularRateWrtEi_rad_s_Roll,bodyAngularRateWrtEi_rad_s_Pitch,bodyAngularRateWrtEi_rad_s_Yaw,altitudeMsl_m,airDensity_kg_m3,ambientTemperature_dgK,eiGravitation_m_s2_X,eiGravitation_m_s2_Y,eiGravitation_m_s2_Z
0.0,-1436381.4663574744,4185811.709981752,5163944.671561651,-4315967.74,960356.1999999998,5167269.529999999,129.09103699999832,-7491.513854999997,1452.5156539999987,5.454625154633913,-1.2138152715151973,-6.54922145033744,6759053.075789562,1.0233194459853856,5.666859310090004E-17,-0.20245819323134254,-4.604323189448128E-17,-2.471593905564226,-0.03718896475784017,-1.428993135204368,4.658681209898652E-20,-0.0011222300308759384,4.0657581468206416E-20,434989.54081172694,1.6159166507157113E-12,978.0522572877376,5.454625154633913,-1.2138152715151973,-6.54922145033744
60.0,-1794959.8521226475,3943151.6966190017,5239238.324912538,-4298410.793899835,509021.63434391737,5242566.739791588,455.9658076375196,-7547.272695361455,1056.3789017634972,5.437155884693783,-0.6439581633505083,-6.650456419657735,6758724.5941050965,1.027694715234372,-3.157465875655266E-6,-0.20243702489888854,-9.141341343632721E-5,-2.472045194408246,0.015605902028426027,-1.3871941836888853,4.658681209898652E-20,-0.0011222300308759384,4.0657581468206416E-20,433110.2772626853,1.7263657461258732E-12,985.1057192464823,5.437155884693783,-0.6439581633505083,-6.650456419657735
120.0,-2147589.7867244314,3685729.3683832963,5290614.345749314,-4261287.363931547,55369.99587271829,5293931.165968159,781.0646192340785,-7568.710406779378,655.0514805573179,5.395433470501887,-0.07018069853200032,-6.722165156787887,6758494.049137598,1.0320699844833425,-1.2685353518111011E-5,-0.20237116392986457,-1.8242778548088103E-4,-2.4702868220479717,0.06837346634951039,-1.3453262663514858,4.658681209898652E-20,-0.0011222300308759384,4.0657581468206416E-20,430971.34542010236,1.857359146408792E-12,992.8757170110534,5.395433470501887,-0.07018069853200032,-6.722165156787887
180.0,-2492787.676061733,3414636.826567279,5317814.669584123,-4204747.624493751,-398533.846466633,5321104.782171978,1102.9344533862775,-7555.664611106057,250.3180186737246,5.329545612064195,0.5050843345076641,-6.763930813586261,6758365.961535851,1.0364452537322815,-2.8624011758847455E-5,-0.20225721705227834,-2.721932720234655E-4,-2.4662973075153496,0.12102070149999372,-1.3031548243083342,4.658681209898652E-20,-0.0011222300308759384,4.0657581468206416E-20,428579.18439918425,2.0112183974574793E-12,1001.3136541376066,5.329545612064195,0.5050843345076641,-6.763930813586261
240.0,-2829089.647564801,3131016.0859057102,5320688.926129452,-4129028.7177604157,-850619.6759969561,5323937.323777567,1420.130330152358,-7508.119679245599,-156.01516639334272,5.239672760047097,1.0793791113056759,-6.775447739875511,6758343.11283887,1.0408205229812044,-5.095587942174418E-5,-0.20209199268621902,-3.5986622652475823E-4,-2.460027840101518,0.17345209177142892,-1.2604406632143343,4.658681209898652E-20,-0.0011222300308759384,4.0657581468206416E-20,425942.6989768831,2.1902504902600692E-12,1010.3345573460867,5.239672760047097,1.0793791113056759,-6.775447739875511
300.0,-3155057.476955297,2836054.7036534594,5299195.538929375,-4034454.1036847043,-1298820.7745879462,5302387.387354477,1731.220910093633,-7426.208045867192,-562.1268268478922,5.1260893589884065,1.6502270798504175,-6.756524408586948,6758426.480054703,1.0451957922300796,-7.960487646430404E-5,-0.20187251811748874,-4.446150736102721E-4,-2.451401532058155,0.22556763079897746,-1.21693635378477,4.658681209898652E-20,-0.0011222300308759384,4.0657581468206416E-20,423073.26538259495,2.396683356114455E-12,1019.8214658248453,5.1260893589884065,1.6502270798504175,-6.756524408586948
360.0,-3469284.525958552,2530981.25440467,5253402.414367606,-3921432.571613021,-1741082.8362295849,5256523.119245833,2034.7941723235851,-7310.2111338238155,-966.1877231607646,4.989165131327764,2.215139678614127,-6.707086475273454,6758615.197217157,1.049571061478955,-1.1443616641884711E-4,-0.20159605601816857,-5.256261091641919E-4,-2.440312300130583,0.2772606847082967,-1.1723826141699925,4.658681209898652E-20,-0.0011222300308759384,4.0657581468206416E-20,419984.70391070686,2.6326393599352142E-12,1029.6360648324378,4.989165131327764,2.215139678614127,-6.707086475273454
420.0,-3770401.674928939,2217060.6571725896,5183487.20905498,-3790456.9088992965,-2175372.9236861686,5186522.482260805,2329.463169731488,-7160.559860642506,-1366.3677494309595,4.829366357208868,2.7716235660256636,-6.6271799377892116,6758906.545298193,1.0539463307277828,-1.5525630234874486E-4,-0.20126012019941264,-6.021091860293973E-4,-2.4266234488935607,0.3284156602672077,-1.1265047086281983,4.658681209898652E-20,-0.0011222300308759384,4.0657581468206416E-20,416693.2176617269,2.9001467930081138E-12,1039.6327130787472,4.829366357208868,2.7716235660256636,-6.6271799377892116
480.0,-4057083.2325131586,1895589.3615015924,5089737.164237703,-3642102.2219303413,-2599688.4421763495,5092673.089117803,2613.8718594338598,-6977.834693493751,-1760.8432500644608,4.647257091380417,3.3171884568726315,-6.516974343553573,6759295.971570225,1.0583215999766105,-2.0181376649321584E-4,-0.2008624904767054,-6.733032458990021E-4,-2.410166082393471,0.37890541913182324,-1.079008951413574,4.658681209898652E-20,-0.0011222300308759384,4.0657581468206416E-20,413217.29713837174,3.201169882862006E-12,1049.6718503659768,4.647257091380417,3.3171884568726315,-6.516974343553573
540.0,-4328052.802427917,1567890.3999092085,4972548.4957107585,-3477023.9052027995,-3012066.101842503,4975371.591118245,2886.7010025937743,-6762.765213612341,-2147.804528587574,4.4435002456113155,3.8493556505426043,-6.376765973438174,6759777.139233134,1.0626968692254064,-2.5379991096371394E-4,-0.20040122652782077,-7.384816616859471E-4,-2.390737553668885,0.4285883837546494,-1.0295794903450843,4.658681209898652E-20,-0.0011222300308759384,4.0657581468206416E-20,409577.5908829223,3.5376280455590186E-12,1059.629561542552,4.4435002456113155,3.8493556505426043,-6.376765973438174
600.0,-4582089.085197262,1235308.3147884638,4832425.327801355,-3295955.2545798086,-3410590.838286708,4835122.610611644,3146.6741230955213,-6516.229146472893,-2525.463544616182,4.218858453341379,4.365667321202573,-6.206980913510461,6760342.007772429,1.0670721384741706,-3.108503070479264E-4,-0.19987468062024355,-7.969573553952562E-4,-2.3681002878841557,0.47730529221938167,-0.9778756738827268,4.658681209898652E-20,-0.0011222300308759384,4.0657581468206416E-20,405796.7428189026,3.9113789493418805E-12,1069.4020719553519,4.218858453341379,4.365667321202573,-6.206980913510461
660.0,-4818031.59034638,899203.9690268562,4669978.160402277,-3099704.7216433063,-3793404.6577130766,4672537.206228163,3392.563509253537,-6239.250810365544,-2892.0617891683264,3.9741946232259764,4.8636966209767065,-6.008177909193777,6760980.94412516,1.0714474077229348,-3.725465048776551E-4,-0.19928150908744127,-8.480876623216757E-4,-2.3419815006359914,0.5248755839273315,-0.9235304947795272,4.658681209898652E-20,-0.0011222300308759384,4.0657581468206416E-20,401899.1974782474,4.324152202816218E-12,1078.9058435052475,3.9741946232259764,4.8636966209767065,-6.008177909193777
720.0,-5034786.232133683,560949.251029353,4485921.858817397,-2889152.80717873,-4158715.370297005,4488330.86063803,3623.196236885742,-5932.998933628302,-3245.878321724692,3.710472080328986,5.34105862408765,-5.7810508815304695,6761682.864265582,1.075822676973096,-4.384182073237925E-4,-0.19862068243124323,-8.912789143037645E-4,-2.3120745961866445,0.5710934443673489,-0.8661508699167281,4.658681209898652E-20,-0.0011222300308759384,4.0657581468206416E-20,397910.9748295458,4.777432981372464E-12,1088.0749043760165,3.710472080328986,5.34105862408765,-5.7810508815304695
780.0,-5231330.779506852,221921.68649008806,4281073.157403323,-2665248.5933164703,-4504805.172381613,4283320.981819838,3837.460185833367,-5598.783789901662,-3585.237944835933,3.428754188435327,5.795422113044013,-5.52643097281279,6762435.404300044,1.0801979462217968,-5.079458532221615E-4,-0.19789149393494063,-9.25990718860841E-4,-2.2780433838384093,0.615723617559181,-0.8053208725177817,4.658681209898652E-20,-0.0011222300308759384,4.0657581468206416E-20,393859.41698391247,5.272302888683176E-12,1096.8570680236257,3.428754188435327,5.795422113044013,-5.52643097281279
840.0,-5406720.128637937,-116501.02864012214,4056347.669686267,-2429005.9157222817,-4830039.0350800995,4058423.910516338,4034.3100155349284,-5238.0536015989965,-3908.519483816547,3.1302033447789954,6.2245221777592095,-5.24528797958256,6763225.119574337,1.0845732154704657,-5.805636076188205E-4,-0.19709356667146366,-9.517399130853575E-4,-2.2395306890722204,0.6584972253796945,-0.740609474167974,4.658681209898652E-20,-0.0011222300308759384,4.0657581468206416E-20,389772.9096248236,5.809248662487029E-12,1105.2102124343699,3.1302033447789954,6.2245221777592095,-5.24528797958256
900.0,-5560091.364292181,-452946.5576161056,3812756.399838183,-2181499.1794877355,-5132872.853945589,3814651.428762866,4212.773058764166,-4852.390164505613,-4214.16413036027,2.81607923984981,6.626173565609504,-4.938731025577793,6764037.709647931,1.0889484847191346,-6.556627510912672E-4,-0.19622685880092677,-9.68104176154966E-4,-2.196173409612028,0.6991080320292795,-0.6715848301085134,4.658681209898652E-20,-0.0011222300308759384,4.0657581468206416E-20,385680.5815785936,6.387950154421283E-12,1113.0992243449516,2.81607923984981,6.626173565609504,-4.938731025577793
960.0,-5690668.574381324,-786053.4958342293,3551401.753130792,-1923858.825016099,-5411861.311677242,3553106.767110102,4371.955086337207,-4443.503651175747,-4500.683800017621,2.4877362802227037,6.99828468572169,-4.608008326270782,6764858.266303404,1.0933237539677718,-7.325954566391342E-4,-0.19529166705767723,-9.747252864791118E-4,-2.1476264376971796,0.7372098731360949,-0.5978375145808231,4.658681209898652E-20,-0.0011222300308759384,4.0657581468206416E-20,381611.9864994525,7.0070594638371E-12,1120.4937862114525,2.4877362802227037,6.99828468572169,-4.608008326270782
1020.0,-5797767.380571966,-1114476.965985608,3273473.0462539224,-1657266.4532096556,-5665665.403487281,3274980.111432878,4511.04588973489,-4013.2265576621007,-4766.669444667411,2.146620081823824,7.338872135263231,-4.254505900771226,6765671.541037787,1.0976990232163775,-8.106789413174786E-4,-0.19428862833988617,-9.713120110648408E-4,-2.0935978557393606,0.7724163273709495,-0.5190151007713463,4.658681209898652E-20,-0.0011222300308759384,4.0657581468206416E-20,377596.7711710001,7.663984252734262E-12,1127.3669393633318,2.146620081823824,7.338872135263231,-4.254505900771226
1080.0,-5880799.14675732,-1436894.2116458307,2980241.5221675173,-1382949.6226059068,-5893059.572883214,2981543.6140023083,4629.3246234236485,-3563.5067671049537,-5010.79925272669,1.7942629548536426,7.6460755804327905,-3.879745096513008,6766462.227760514,1.1020742924649671,-8.891999723576068E-4,-0.1932187193262502,-9.576426188322577E-4,-2.033896939957247,0.8043040940336778,-0.4348696089350727,4.658681209898652E-20,-0.0011222300308759384,4.0657581468206416E-20,373664.33540035586,8.354690186107995E-12,1133.6942528886884,1.7942629548536426,7.6460755804327905,-3.879745096513008
1140.0,-5939274.826694931,-1752010.1630898735,2673054.878423321,-1102176.3347354545,-6092938.404356302,2674145.9177678046,4726.16484445257,-3096.3997147564123,-5231.846662198304,1.4322783196969766,7.918172791596966,-3.4853788075631646,6767215.255724118,1.1064495617135248,-9.674197090249211E-4,-0.19208325405817903,-9.335670091863409E-4,-1.9684941526999837,0.8324218222327848,-0.3453169937497679,4.658681209898652E-20,-0.0011222300308759384,4.0657581468206416E-20,369843.4888917785,9.073539593074243E-12,1139.4534058011022,1.4322783196969766,7.918172791596966,-3.4853788075631646
1200.0,-5972808.412217524,-2058562.9468100937,2353331.3225868307,-816249.2278159787,-6264322.818916203,2354206.2074932423,4801.039183911428,-2614.05965196532,-5428.6881051160635,1.0623540153527664,8.153594602125297,-3.0731862886669665,6767916.087061815,1.110824830962067,-0.0010445788540925634,-0.1908838794446871,-8.990084494274922E-4,-1.8975879558911621,0.8563060762491734,-0.2505034948146101,4.658681209898652E-20,-0.0011222300308759384,4.0657581468206416E-20,366162.110798722,9.813184996525772E-12,1144.6240035898238,1.0623540153527664,8.153594602125297,-3.0731862886669665
1260.0,-5981119.944222763,-2355329.3081294266,2022553.1734334442,-526499.502875519,-6406365.718698798,2023207.806437871,4853.523583285003,-2118.7300212541536,-5600.310396854207,0.6862444877541873,8.35093953548864,-2.645066494027812,6768551.012759703,1.115200100210593,-0.001119903085908591,-0.18962256866437738,-8.539649144020569E-4,-1.8216671353379268,0.875505392693743,-0.1508675324626657,4.658681209898652E-20,-0.0011222300308759384,4.0657581468206416E-20,362646.81786110194,1.0564536090399401E-11,1149.187467315848,0.6862444877541873,8.35093953548864,-2.645066494027812
1320.0,-5964038.050176493,-2641129.914515219,1682260.031890371,-234280.61042252908,-6518357.028071138,1682691.342573439,4883.301028831658,-1612.7329705368504,-5745.817680443403,0.3057618741595922,8.508987826659572,-2.2030299018317394,6769107.440457191,1.1195753694590873,-0.0011926087394317259,-0.18830161246223942,-7.985100218746261E-4,-1.741551137545755,0.8896117212821428,-0.04717964371912847,4.658681209898652E-20,-0.0011222300308759384,4.0657581468206416E-20,359322.6471069578,1.1316815025149508E-11,1153.1268012082608,0.3057618741595922,8.508987826659572,-2.2030299018317394
1380.0,-5921501.974159011,-2914834.505813503,1334041.5511349041,59038.27025533082,-6599728.080841296,1334247.5137712117,4890.1647190047015,-1098.4580513260594,-5864.437834767249,-0.07723396934076807,8.626714553184884,-1.7491888218232303,6769574.167208153,1.123950638707566,-0.0012619086994882028,-0.18692360835824365,-7.3279355746525E-4,-1.6583883691202068,0.8982960218289323,0.05945959770671923,4.658681209898652E-20,-0.0011222300308759384,4.0657581468206416E-20,356212.75902750186,1.2057729473350177E-11,1156.4267081708413,-0.07723396934076807,8.626714553184884,-1.7491888218232303
1440.0,-5853563.0685522035,-3175366.8567150026,979529.8407038624,352078.92328631075,-6650055.306389571,979509.486839805,4874.020603709185,-578.350162954316,-5955.52825652156,-0.46084641834710843,8.703301589664218,-1.2857462226806633,6769941.630269916,1.1283259079560126,-0.00132701846662656,-0.18549144780979532,-6.57041581709681E-4,-1.5735978370238188,0.9013421412667296,0.167678304848736,4.658681209898652E-20,-0.0011222300308759384,4.0657581468206416E-20,353338.1669108075,1.2773789769812955E-11,1159.07447264754,-0.46084641834710843,8.703301589664218,-1.2857462226806633
1500.0,-5760385.720276778,-3421709.516396128,620391.5447834248,643460.9205148332,-6669063.171765421,620144.9706121332,4834.889239868267,-54.896821811042834,-6018.580929253922,-0.8431538983743445,8.738148107624864,-0.81498315712172,6770202.129128041,1.1327011772044275,-0.0013871623525146906,-0.18400830139373978,-5.715561108713453E-4,-1.4887544881284087,0.8986716537957294,0.2759482912658581,4.658681209898652E-20,-0.0011222300308759384,4.0657581468206416E-20,350717.4976275948,1.3450741725838422E-11,1161.0605722755024,-0.8431538983743445,8.738148107624864,-0.81498315712172
1560.0,-5642247.689010749,-3652908.2905221274,258319.63988174338,931808.5354033535,-6656626.3420307925,257848.00831547735,4772.906915296555,469.3851492245757,-6053.2266987202565,-1.2222224307091922,8.73087936129372,-0.339244903917586,6770350.012368773,1.1370764464528427,-0.0014415797583643122,-0.1824776020971074,-4.767143622613388E-4,-1.405438464485857,0.8903533889484055,0.3827361639045078,4.658681209898652E-20,-0.0011222300308759384,4.0657581468206416E-20,348366.7886224617,1.4074097996600422E-11,1162.378982785765,-1.2222224307091922,8.73087936129372,-0.339244903917586
1620.0,-5499539.839962193,-3868076.431677932,-104974.99830876777,1215757.7014208634,-6612771.027289941,-105669.46093445488,4688.326002100018,991.9634012169022,-6059.238682143258,-1.5961187392377274,8.681353528473634,0.13907401446950793,6770381.823638861,1.1414517157012258,-0.001489531487360172,-0.1809030268308769,-3.7296755531345644E-4,-1.3250831126112976,0.876595054568748,0.4866556617840166,4.658681209898652E-20,-0.0011222300308759384,4.0657581468206416E-20,346299.3251659436,1.4629742809914072E-11,1163.0272768753655,-1.5961187392377274,8.681353528473634,0.13907401446950793
1680.0,-5332765.259441412,-4066398.505827294,-467772.2050171345,1493962.9677900837,-6537675.491836137,-468686.217637401,4581.514511508563,1510.304186789128,-6036.534749582393,-1.962923729504124,8.589666413949764,0.6175457439505111,6770296.401807764,1.1458269849495775,-0.0015303060387727983,-0.17928847630127326,-2.6083925760261097E-4,-1.248857112718567,0.8577192397597972,0.586585879596162,4.658681209898652E-20,-0.0011222300308759384,4.0657581468206416E-20,344525.5210946277,1.5104573146449295E-11,1163.0065819502317,-1.962923729504124,8.589666413949764,0.6175457439505111
1740.0,-5142537.747547871,-4247133.904592379,-828351.2562888421,1765104.404130412,-6431669.708526817,-829480.4971945608,4452.9548338948925,2021.8867020397925,-5985.179028254512,-2.320746134914736,8.456153869371237,1.0937257152968054,6770094.931544721,1.1502022541979289,-0.0015632258302206929,-0.17763805339628716,-1.4092326604814916E-4,-1.1776021910183951,0.8341299041581928,0.6817339182474753,4.658681209898652E-20,-0.0011222300308759384,4.0657581468206416E-20,343052.8453280541,1.548713137069133E-11,1162.321454956461,-2.320746134914736,8.456153869371237,1.0937257152968054
1800.0,-4929579.688619731,-4409619.975952561,-1184999.6589635378,2027894.4049348012,-6295234.149704328,-1186338.7852322492,4303.241660362478,2524.217502681414,-5905.382394909961,-2.667736115357481,8.28139183663074,1.5651697161207163,6769780.94181024,1.154577523446217,-0.001587653292105321,-0.17595604026223036,-1.3881014050935792E-5,-1.1118280220767305,0.8062766880116068,0.7716403607034311,4.658681209898652E-20,-0.0011222300308759384,4.0657581468206416E-20,341885.79543169355,1.5768180785576032E-11,1160.9797289761084,-2.667736115357481,8.28139183663074,1.5651697161207163
1860.0,-4694719.306529373,-4553274.74933139,-1536021.939393766,2281084.3449907447,-6128997.714515954,-1537564.611583456,4133.079095275519,3014.8448504506714,-5797.501936808384,-3.002098591218807,8.066193979214148,2.0294511540142333,6769360.251184049,1.1589527926945367,-0.0016029967780914187,-0.1742468742621125,1.1956150288397291E-4,-1.0517504053459263,0.7746230677634026,0.8561414947168459,4.658681209898652E-20,-0.0011222300308759384,4.0657581468206416E-20,341025.918425763,1.5941177498760043E-11,1158.9923808783176,-3.002098591218807,8.066193979214148,2.0294511540142333
1920.0,-4438887.318279401,-4677599.234911333,-1879748.3688764987,2523471.0378066823,-5933734.801154009,-1881487.2808614173,3943.2769820034046,3491.372845485007,-5662.039377936139,-3.322106101111967,7.811606925282367,2.484178240233659,6768840.860478694,1.163328061942793,-0.001608716234176245,-0.1725151230193309,2.5861728830213997E-4,-0.9973527367978705,0.7396217670936759,0.9353082676694179,4.658681209898652E-20,-0.0011222300308759384,4.0657581468206416E-20,340471.8779609805,1.6002599488741595E-11,1156.3734608262037,-3.322106101111967,7.811606925282367,2.484178240233659
1980.0,-4163113.005518903,-4782179.281258163,-2214543.564053091,2753902.9508153526,-5710361.541114555,-2216470.477844163,3734.746476505625,3951.4752035491692,-5499.63848329439,-3.6261109844329744,7.5189032046994635,2.927010826567234,6768232.794631707,1.1677033311910492,-0.0016043285705032342,-0.17076545876072396,4.024423934628461E-4,-0.9484529480630111,0.7016982752092156,1.0093798078855842,4.658681209898652E-20,-0.0011222300308759384,4.0657581468206416E-20,340219.56592502113,1.595210609919872E-11,1153.1401130339293,-3.6261109844329744,7.5189032046994635,2.927010826567234
2040.0,-3868519.7293851464,-4866686.979883965,-2538814.9017766654,2971286.1335512847,-5459931.220863316,-2540920.687133967,3508.4949147575926,4392.908543601201,-5311.081469792431,-3.912556709546029,7.189572017114234,3.355676640657006,6767547.8973888485,1.1720786004407024,-0.001589412680763567,-0.16900263217833678,5.501404531682115E-4,-0.9047641662901265,0.6612415958616468,1.0787032667242924,4.658681209898652E-20,-0.0011222300308759384,4.0657581468206416E-20,340262.255553129,1.579251679837973E-11,1149.3127038243113,-3.912556709546029,7.189572017114234,3.355676640657006
2100.0,-3556319.919310644,-4930881.610100136,-2851020.6901028925,3174589.8180668172,-5183628.924084179,-2853295.368714662,3265.6200300280566,4813.525060913782,-5097.284466969224,-4.179988194012823,6.825308017060546,3.767986686411711,6766799.583696427,1.176453869688895,-0.0015636140546345166,-0.16723144602944853,7.007676981865919E-4,-0.8659435687353036,0.618600566253703,1.1436855158892063,4.658681209898652E-20,-0.0011222300308759384,4.0657581468206416E-20,340590.7922084205,1.5529614792872253E-11,1144.915059009114,-4.179988194012823,6.825308017060546,3.767986686411711
2160.0,-3227809.5712361587,-4974610.12213586,-3149678.040054476,3362851.654470851,-4882765.434818259,-3152110.83402669,3007.3035843469897,5211.284473390696,-4859.292083930661,-4.427060993481952,6.4279983426542175,4.161849605057245,6766002.5559789175,1.180829138937088,-0.0015266489356693979,-0.16545672869347916,8.533384312885691E-4,-0.8316283911062119,0.5740839904233815,1.2047577505096667,4.658681209898652E-20,-0.0011222300308759384,4.0657581468206416E-20,341193.81722120714,1.517179667700605E-11,1139.9747989802595,-4.427060993481952,6.4279983426542175,4.161849605057245
2220.0,-2884362.2943747053,-4997807.161337804,-3433370.38653807,3535182.5485372427,-4558770.44811211,-3435949.770911089,2734.804484919834,5584.265143285151,-4598.271150138763,-4.652549269111744,5.9997081452145915,4.535284827259475,6765172.4915107135,1.1852044081852489,-0.0014783079753801333,-0.1636833079000958,0.001006830946340138,-0.8014605219080256,0.5279630998703915,1.2623515766642455,4.658681209898652E-20,-0.0011222300308759384,4.0657581468206416E-20,342058.0195339585,1.4729601690099385E-11,1134.5237470496465,-4.652549269111744,5.9997081452145915,4.535284827259475
2280.0,-2527422.9490943085,-5000494.64050451,-3700754.611129446,3690771.072717554,-4213185.140185014,-3703468.3701139176,2449.451460615032,5930.674292621753,-4315.503706707991,-4.855352477998179,5.542664896952412,4.886434385715641,6764325.708876795,1.1895796774333782,-0.0014184593416848952,-0.1619159848307456,0.001160193859351119,-0.7751020651879247,0.48047523808041687,1.3168842134597762,4.658681209898652E-20,-0.0011222300308759384,4.0657581468206416E-20,343168.4094161636,1.4215161901730052E-11,1128.5983738924701,-4.855352477998179,5.542664896952412,4.886434385715641
2340.0,-2158500.9207272343,-4982780.871662373,-3950567.724249627,3828887.426477733,-3847654.1545216017,-3953403.0108529273,2152.6353759515505,6248.857247557542,-4012.3793314757527,-5.034500765302869,5.0592417623803705,5.213573298587924,6763478.82200583,1.1939549466814758,-0.0013470512480961172,-0.16015950878600413,0.001312352819612935,-0.752244307993298,0.4318280279871511,1.3687503877295812,4.658681209898652E-20,-0.0011222300308759384,4.0657581468206416E-20,344508.60819266253,1.3641617126997693E-11,1122.2402266009306,-5.034500765302869,5.0592417623803705,5.213573298587924
2400.0,-1779163.0757636607,-4944859.272284704,-4181633.0693831244,3948886.9265447687,-3463917.063668299,-4184576.468080222,1845.8012603101913,6537.305664043632,-3690.386885259918,-5.189159069005678,4.551940316613267,5.5151184750481015,6762648.390472313,1.1983302159295892,-0.0012641138688132215,-0.15841855259579643,0.001462217552204578,-0.7326121724846089,0.38220356820713147,1.418318857943312,4.658681209898652E-20,-0.0011222300308759384,4.0657581468206416E-20,346061.1477749479,1.30225358139758E-11,1115.4962721415955,-5.189159069005678,4.551940316613267,5.5151184750481015
2460.0,-1391026.4477250776,-4887006.664234681,-4392866.017295659,4050213.0122738974,-3063799.368866122,-4395903.609384378,1530.4401285529545,6794.664703800289,-3351.1057684588427,-5.318629977026736,4.023372881172874,5.789636133058548,6761850.574655312,1.2027054851776549,-0.0011697606187316008,-0.1566976889332589,0.0016086891841470086,-0.7159657603502887,0.33176240803136536,1.4659319787053153,4.658681209898652E-20,-0.0011222300308759384,4.0657581468206416E-20,347807.7737872094,1.2371376506220106E-11,1108.419059401232,-5.318629977026736,4.023372881172874,5.789636133058548
2520.0,-995750.7001714116,-4809581.186479322,-4583279.123549764,4132399.7558312174,-2649203.1010355013,-4586396.554820001,1208.0806660954931,7019.739145268124,-2996.1967766674757,-5.422355400755881,3.47624472676143,6.035847754605965,6761100.803979568,1.207080754425705,-0.0010641887798632545,-0.15500136767573144,0.0017506677938460983,-0.7021001542334692,0.28064718572357594,1.5119071629553567,4.658681209898652E-20,-0.0011222300308759384,4.0657581468206416E-20,349729.746229319,1.1701015257285927E-11,1101.0665715704165,-5.422355400755881,3.47624472676143,6.035847754605965
2580.0,-595030.41383223,-4713019.844866193,-4751986.727870316,4195073.871142323,-2222097.0871171337,-4755169.2782095615,880.2808470383015,7211.498428352243,-2627.39264154177,-5.499917148024204,2.9133363645823196,6.252634633568181,6760413.465837281,1.211456023673723,-9.476794651626655E-4,-0.1533338944358446,0.0018870601207139682,-0.6908442813416954,0.2289858978076191,1.5565394616316075,4.658681209898652E-20,-0.0011222300308759384,4.0657581468206416E-20,351808.1319037632,1.1023354359300482E-11,1093.501608095497,-5.499917148024204,2.9133363645823196,6.252634633568181
2640.0,-190587.24388304865,-4597835.723966035,-4898208.978967179,4237956.219515047,-1784506.9454635289,-4901441.633520699,548.6195485515965,7369.08064411365,-2246.4883390843875,-5.551036491877815,2.337486115278859,6.4390410952991,6759801.621955264,1.2158312929217412,-8.205969182095809E-4,-0.15169941036885667,0.0020167873648808117,-0.6820593755682828,0.1768948151490494,1.6001047527347216,4.658681209898652E-20,-0.0011222300308759384,4.0657581468206416E-20,354024.0832307115,1.0349018817280277E-11,1085.7905215012074,-5.551036491877815,2.337486115278859,6.4390410952991
2700.0,215838.00801019592,-4464614.887194442,-5021275.273197886,4260862.81345728,-1338504.8729860226,-5024542.7947006365,214.68821867006096,7491.795490868732,-1855.3312422258837,-5.575572839153202,1.7515731096002538,6.594276484371905,6759276.757987824,1.2202065621697118,-6.833871545128648E-4,-0.15010187334209527,0.0021387930049548212,-0.6756373840650823,0.12448108741901312,1.642863225539049,4.658681209898652E-20,-0.0011222300308759384,4.0657581468206416E-20,356359.09857065836,9.687140803468695E-12,1078.0011723539287,-5.575572839153202,1.7515731096002538,6.594276484371905
2760.0,622493.3639528377,-4314012.992165615,-5120627.099879307,4263705.323451906,-886199.2852201818,-5123914.101778104,-119.91735168043482,7579.1262263358885,-1455.8111884330176,-5.573521605152902,1.1585008395925875,6.717716027686344,6758848.570999442,1.2245818314176822,-5.365759577878156E-4,-0.14854504053439432,0.00225205055802978,-0.6714995346552755,0.07184508987452876,1.6850629784726325,4.658681209898652E-20,-0.0011222300308759384,4.0657581468206416E-20,358795.2597438445,9.04522980400629E-12,1070.2000957951618,-5.573521605152902,1.1585008395925875,6.717716027686344
2820.0,1027623.6413850844,-4146751.648549109,-5195820.290105299,4246491.095307469,-429724.36849912,-5199111.310093352,-453.60510792907303,7630.730651575377,-1049.8505264781577,-5.545011398287457,0.5611813453071252,6.808900684690265,6758524.798344713,1.228957100665621,-3.807662526268692E-4,-0.1470324525154516,0.0023555712070029568,-0.6695951950211226,0.019082571211794665,1.7269436371919207,4.658681209898652E-20,-0.0011222300308759384,4.0657581468206416E-20,361315.4430633569,8.429126840146738E-12,1062.4491148226307,-5.545011398287457,0.5611813453071252,6.808900684690265
2880.0,1429478.3869726819,-3963614.5456621386,-5246526.669569578,4209322.688191753,28770.39885318668,-5249806.243161295,-784.794623943193,7646.441166623087,-639.3941998029477,-5.490300612222413,-0.03747990873030264,6.867536095464856,6758311.090268797,1.2333323699135281,-2.1663488140831482E-4,-0.14556741883909263,0.002448411220329038,-0.6699010994764639,-0.03371333770906496,1.7687399555752512,4.658681209898652E-20,-0.0011222300308759384,4.0657581468206416E-20,363903.50086593215,7.843042546393317E-12,1054.8019418861697,-5.490300612222413,-0.03747990873030264,6.867536095464856
2940.0,1826319.7359308444,-3765443.3766906452,-5272535.119141886,4152396.945589321,487130.7018722982,-5275787.852923236,-1111.924774098586,7626.2639401572615,-226.399917412298,-5.409773513786219,-0.6345984395946914,6.893490731818705,6758210.92740999,1.2377076391614352,-4.492881850408927E-5,-0.14415300516936766,0.0025296790919906286,-0.672420983679099,-0.08645019493101144,1.8106853961101195,4.658681209898652E-20,-0.0011222300308759384,4.0657581468206416E-20,366544.4112144185,7.289677151038528E-12,1047.301539915668,-5.409773513786219,-0.6345984395946914,6.893490731818705
3000.0,2216430.161939019,-3553133.5858627623,-5273752.049815815,4076003.6132438136,943207.7689872305,-5276962.694014524,-1433.46115745243,7570.377236521157,187.17154281468547,-5.30393590364967,-1.227324428505141,6.886793347384176,6758225.583302671,1.2420829084093103,1.335391365556949E-4,-0.14279202194437346,0.002598542333955531,-0.6771856436975451,-0.13903433958580858,1.8530157035551638,4.658681209898652E-20,-0.0011222300308759384,4.0657581468206416E-20,369224.39414631395,6.770412737136175E-12,1039.978980587196,-5.30393590364967,-1.227324428505141,6.886793347384176
3060.0,2598120.084784267,-3327629.964157645,-5250201.301172394,3980523.5196866,1394868.627477596,-5253354.82120255,-1747.9032503903572,7479.128943275525,599.3658589316559,-5.173410414536006,-1.8128556901179071,6.847629811135421,6758354.131000574,1.246458177657154,3.1789514307360174E-4,-0.1414870145697478,0.002654233858473428,-0.6842534168851083,-0.1913689467470913,1.8959724901330555,4.658681209898652E-20,-0.0011222300308759384,4.0657581468206416E-20,371930.9935394704,6.285556070518043E-12,1032.8541547690231,-5.173410414536006,-1.8128556901179071,6.847629811135421
3120.0,2969735.304750773,-3089922.118279135,-5202023.474726082,3866426.336263337,1840006.1876580568,-5205105.121373084,-2053.791267631412,7353.033341474615,1008.2444830662868,-5.018931499323301,-2.388449949986395,6.7763393958205205,6758593.492066601,1.2508334469049975,5.072095320133873E-4,-0.1402402551236022,0.00269605789439798,-0.6937110622685335,-0.2433519861205107,1.939806842710843,4.658681209898652E-20,-0.0011222300308759384,4.0657581468206416E-20,374653.12435121316,5.8346000822954045E-12,1025.9380974122325,-5.018931499323301,-2.388449949986395,6.7763393958205205
3180.0,3329664.2345264517,-2841039.83670521,-5129474.715484004,3734267.934688488,2276549.1115828254,-5132470.093408153,-2349.7127142576915,7192.767159366572,1411.8937220027951,-4.841340149589961,-2.9514364578494043,6.673410579508898,6758938.525433688,1.2552087161527934,7.005023953823557E-4,-0.1390537355439352,0.002723395388218213,-0.7056749917328229,-0.2948740250441486,1.9847829409303654,4.658681209898652E-20,-0.0011222300308759384,4.0657581468206416E-20,377381.08564817876,5.4164705951452905E-12,1019.2361972677777,-4.841340149589961,-2.9514364578494043,6.673410579508898
3240.0,3676344.9010265237,-2582048.375687272,-5032924.95680736,3584687.3611322455,2702471.424453314,-5035820.091057598,-2634.308613541521,6999.164948482527,1808.4335524153594,-4.641578374490743,-3.499226966308547,6.5394764056140815,6759382.153029891,1.2595839854005895,8.967494989661454E-4,-0.1379291622628675,0.0027357088494143794,-0.720292763286296,-0.3458158160639617,2.031181636021894,4.658681209898652E-20,-0.0011222300308759384,4.0657581468206416E-20,380106.5404799762,5.029733631507482E-12,1012.7514185001576,-4.641578374490743,-3.499226966308547,6.5394764056140815
3300.0,4008271.6910493984,-2314043.6871419405,-4912855.645254515,3418403.4467097553,3115801.8291976354,-4915637.045497781,-2906.279396854702,6773.21381933676,2196.026145325081,-4.420683460757933,-4.029326102706651,6.375309435034453,6759915.518559919,1.2639592546483536,0.0010948884630996125,-0.13686795224202297,0.0027325466085669652,-0.7377446853523599,-0.39604561115662457,2.079303876106844,4.658681209898652E-20,-0.0011222300308759384,4.0657581468206416E-20,382822.46424648626,4.6727527807671204E-12,1006.4868700180327,-4.420683460757933,-4.029326102706651,6.375309435034453
3360.0,4324001.816086641,-2038147.6094883534,-4769856.963555479,3236211.075032509,3514632.686875974,-4772511.68574182,-3164.3904429649324,6516.04757242474,2572.884076059596,-4.1797820273444,-4.539341157379711,6.181816313937787,6760528.175469995,1.268334523896086,0.0012938251566231866,-0.13587123035975193,0.002713546462938498,-0.7582452848773432,-0.44541615112965127,2.1294737648377815,4.658681209898652E-20,-0.0011222300308759384,4.0657581468206416E-20,385523.06376408675,4.343798780347211E-12,1000.4474259303078,-4.1797820273444,-4.539341157379711,6.181816313937787
3420.0,4622161.472943088,-1755503.041644246,-4604624.5712552825,3038977.1282233107,3897128.627669175,-4607140.2764542,-3407.477254664544,6228.940259005537,2937.2781971492864,-3.9200838828813613,-5.026991304692893,5.9600319725180455,6761208.299847134,1.2727097931452471,0.0014924402494656205,-0.13493982809364555,0.0026784386934859935,-0.7820442474068606,-0.4937612940929427,2.1820408922704075,4.658681209898652E-20,-0.0011222300308759384,4.0657581468206416E-20,388203.66974643065,4.0411206971495676E-12,994.6404217399777,-3.9200838828813613,-5.026991304692893,5.9600319725180455
3480.0,4901451.678122817,-1467269.1195613148,-4417955.883890958,2827636.133505298,4261534.759252237,-4420320.894050354,-3634.450261056068,5913.299205408546,3287.545152321093,-3.6428756907333484,-5.490116265133574,5.711113463961522,6761942.923815534,1.2770850623929477,0.001689595872742512,-0.13407428343978153,0.002627048449713019,-0.8094262268502738,-0.5408922778272944,2.237381363017668,4.658681209898652E-20,-0.0011222300308759384,4.0657581468206416E-20,390860.6058674357,3.762989882418898E-12,989.0756303837893,-3.6428756907333484,-5.490116265133574,5.711113463961522
3540.0,5160653.755147013,-1174616.4140924918,-4210745.912864109,2603185.6331714173,4606184.441369902,-4212949.263259886,-3844.2992340516435,5570.657534376511,3622.094510174851,-3.3495144449103225,-5.926684407881944,5.436333448915955,6762718.184899241,1.2814603316406326,0.0018841423331989737,-0.13327484200467477,0.002559297494930459,-0.840708629415457,-0.5865936672686118,2.295896650203597,4.658681209898652E-20,-0.0011222300308759384,4.0657581468206416E-20,393491.0379726919,3.5077263351520926E-12,983.7647699201909,-3.3495144449103225,-5.926684407881944,5.436333448915955
3600.0,5398634.455338525,-878722.168078306,-3983982.6894468735,2366681.3014186826,4929506.597447023,-3986014.1776082953,-4036.09730783652,5202.66621725485,3939.415496382174,-3.0414207603145926,-6.334800284328354,5.137073328951678,6763519.586763984,1.2858356008883016,0.0020749248360131347,-0.1325414592071001,0.0024752053250774006,-0.8762360914514021,-0.6306191339218377,2.3580090159774167,4.658681209898652E-20,-0.0011222300308759384,4.0657581468206416E-20,396092.80733357446,3.273714416025824E-12,978.720763908565,-3.0414207603145926,-6.334800284328354,5.137073328951678
3660.0,5614350.6938301725,-580765.590135639,-3738742.297621706,2119231.832202047,5230032.536119501,-3740592.52853549,-4209.0045903022565,4811.085691674153,4238.083303450644,-2.7200719825768696,-6.712711574469891,4.814816032712199,6764332.266771875,1.2902108701359387,0.002260790171709564,-0.1318738035222998,0.0023748896683459795,-0.9163699115272735,-0.6726873660975076,2.4241517772131123,4.658681209898652E-20,-0.0011222300308759384,4.0657581468206416E-20,398664.25210070465,3.059412320447564E-12,973.9569157490826,-2.7200719825768696,-6.712711574469891,4.814816032712199
3720.0,5806853.883995455,-281923.22189610783,-3476183.54170504,1861993.6229087487,5506402.257685568,-3477843.9691194906,-4362.271355857661,4397.777080687677,4516.764957375465,-2.3869951258675557,-7.058815420459322,4.471138460545738,6765141.265829138,1.29458613938356,0.002440593325623213,-0.13127126070404815,0.0022585663844692885,-0.9614702371105424,-0.7124786350961471,2.4947522326655,4.658681209898652E-20,-0.0011222300308759384,4.0657581468206416E-20,401204.0212957232,2.863357845183442E-12,969.4860990472025,-2.3869951258675557,-7.058815420459322,4.471138460545738
3780.0,5975293.854959166,16635.60510013378,-3197542.2759322054,1596165.2792741605,5757370.222687142,-3199005.239601608,-4495.240809651705,3964.693051071433,4774.2247209496545,-2.043759651330099,-7.371664115179108,4.107703597174524,6765931.796105988,1.2989614086311496,0.002613203974351342,-0.1307329389188842,0.00212654878330925,-1.011868526296583,-0.7496328523296835,2.5702047858644868,4.658681209898652E-20,-0.0011222300308759384,4.0657581468206416E-20,403710.8857863667,2.6841717912350792E-12,965.320019645241,-2.043759651330099,-7.371664115179108,4.107703597174524
3840.0,6118922.338431931,313753.2072421844,-2904125.4243740295,1322981.9675308298,5981810.562152127,-2905384.1831030133,-4607.351414151676,3513.868350572635,5009.329014230892,-1.6919701039305817,-7.649970108917021,3.726252307190183,6766689.502333448,1.3033366778787392,0.0027775128351577327,-0.1302576747320787,0.001979246387134599,-1.06782805043393,-0.7837503289759215,2.6508320416349607,4.658681209898652E-20,-0.0011222300308759384,4.0657581468206416E-20,406183.5507075114,2.520559676172183E-12,961.4685733230458,-1.6919701039305817,-7.649970108917021,3.726252307190183
3900.0,6237096.01282777,608287.8664161115,-2597304.7206953354,1043709.6402914801,6178721.711488435,-2598353.481062858,-4698.138770259252,3047.4100662069054,5221.050833734698,-1.3332586312881862,-7.892610294291953,3.3285948345791154,6767400.712557646,1.307711947126297,0.0029324378405921002,-0.12984403988444806,0.0018171631618622227,-1.1294915110986394,-0.814396819757678,2.736832960219874,4.658681209898652E-20,-0.0011222300308759384,4.0657581468206416E-20,408620.4737289338,2.3713120964585744E-12,957.9393038510252,-1.3332586312881862,-7.892610294291953,3.3285948345791154
3960.0,6329279.094457693,899118.0129411817,-2278510.198327951,759639.163088999,6347230.452612238,-2279344.138990919,-4767.237046742179,2567.4876481303872,5408.47365341482,-0.9692774141793494,-8.09862952877715,2.916602034819432,6768052.674425334,1.312087216373823,0.0030769301136169495,-0.1294903488054914,0.0016408952447869436,-1.1968178447601836,-0.8411146295543159,2.8282201515922627,4.658681209898652E-20,-0.0011222300308759384,4.0657581468206416E-20,411019.6934111085,2.2353039390676844E-12,954.7369555226436,-0.9692774141793494,-8.09862952877715,2.916602034819432
4020.0,6395045.467572411,1185146.2602190634,-1949223.4625906656,472080.36881283054,6486595.351644939,-1949838.7540879874,-4814.379953728285,2076.3227460198023,5570.7947924364225,-0.6016910445825701,-8.26724335561942,2.4921963759794825,6768633.773332948,1.3164624856213492,0.0032099797228461765,-0.1291946668119279,0.0014511281959070708,-1.2695153354017101,-0.8634413095790334,2.9247534383934064,4.658681209898652E-20,-0.0011222300308759384,4.0657581468206416E-20,413378.67165844544,2.111492593216459E-12,951.8631092520922,-0.6016910445825701,-8.26724335561942,2.4921963759794825
4080.0,6434080.347117533,1465303.2782058613,-1610970.7771185776,182356.0674683213,6596209.582391179,-1611364.5971173728,-4839.401258339043,1576.178907142827,5707.328237179562,-0.23216889306516184,-8.397839887797442,2.0573427533725877,6769133.72905252,1.3208377548688435,0.0033306211998840873,-0.12895481894664396,0.0012486338013644894,-1.3469846107882495,-0.8809364400313974,3.02588327048368,4.658681209898652E-20,-0.0011222300308759384,4.0657581468206416E-20,415694.15395342186,1.9989153020273763E-12,949.315889373649,-0.23216889306516184,-8.397839887797442,2.0573427533725877
4140.0,6446181.4702784605,1738551.4936668617,-1265315.997631648,-108203.96127771056,6675603.128826838,-1265486.5415785103,-4842.23484321363,1069.3511872477293,5817.50690782097,0.1376224873253416,-8.489980825878341,1.6140391702500037,6769543.767790085,1.325213024116306,0.003437938806069345,-0.12876839942021567,0.0010342664549743146,-1.4282905363548632,-0.8932150022245605,3.1307230116596725,4.658681209898652E-20,-0.0011222300308759384,4.0657581468206416E-20,417962.0506624754,1.8966857898602303E-12,947.0897277485857,0.1376224873253416,-8.489980825878341,1.6140391702500037
4200.0,6431259.815186401,2003888.606117341,-913853.3865527823,-398268.9654347017,6724444.362937649,-913799.8737141268,-4822.914311643363,558.1557269043881,5900.884363217627,0.5060268690161688,-8.543401589168523,1.164307344365994,6769856.767010679,1.3295882933637686,0.0035310715370750765,-0.12863278162069575,8.089591454522405E-4,-1.5121822731259915,-0.8999831605438784,-3.0451159362149447,4.658681209898652E-20,-0.0011222300308759384,4.0657581468206416E-20,420177.34223683795,1.8039902914543652E-12,945.1751715702657,0.5060268690161688,-8.543401589168523,1.164307344365994
4260.0,6389339.84751914,2260350.90938773,-558200.3422514013,-686513.1808973142,6742540.997439038,-557923.017147951,-4781.5721462410975,44.91934685597744,5957.135941601568,0.8714057147586594,-8.558010550206594,0.710183306588952,6770067.370795456,1.3339635626111994,0.0036092178571822814,-0.12854512866620188,5.737190739046565E-4,-1.5971719738144268,-0.9010698719712734,-2.93670384884992,4.658681209898652E-20,-0.0011222300308759384,4.0657581468206416E-20,422334.0106104775,1.7200830882601637E-12,943.5587205812026,0.8714057147586594,-8.558010550206594,0.710183306588952
4320.0,6320559.298122123,2507016.4098821515,-199990.0767149086,-971621.7280291948,6729840.416133359,-199490.20597611179,-4718.438431431109,-468.03078382862435,5986.059338719753,1.2321453425670688,-8.533887375125316,0.2537080626632677,6770172.073968693,1.3383388318585985,0.0036716401571592608,-0.1285024044798574,3.296229257183416E-4,-1.681665056096015,-0.8964470430168959,-2.828773898353105,4.658681209898652E-20,-0.0011222300308759384,4.0657581468206416E-20,424424.99853114894,1.6442816848043538E-12,942.2226851421057,1.2321453425670688,-8.533887375125316,0.2537080626632677
4380.0,6225168.477152991,2743007.7338270918,159135.72477663652,-1252296.4188448626,6686429.387873416,159855.860092155,-4633.839153466515,-978.3773535746997,5987.574629426291,1.5866638337682744,-8.471280486319584,-0.20308160761926286,6770169.273743266,1.3427141011059978,0.003717668931205127,-0.12850138537296996,7.781181866974577E-5,-1.764115671211135,-0.8862329656686865,-2.722825108398981,4.658681209898652E-20,-0.0011222300308759384,4.0657581468206416E-20,426442.19796074496,1.5760082030115467E-12,941.1509745705328,1.5866638337682744,-8.471280486319584,-0.20308160761926286
4440.0,6103529.132581928,2967494.817112544,517534.2288920413,-1527261.4499373713,6612533.173257391,518471.3454441915,-4528.194095060759,-1483.8229362945349,5961.723743231529,1.9334176288553209,-8.370603678682674,-0.6581621385260972,6770059.288177566,1.347089370353365,0.003746706670195611,-0.12853867212786688,-1.8051404952299278E-4,-1.8431705215560032,-0.8706780890864685,-2.620163494749016,4.658681209898652E-20,-0.0011222300308759384,4.0657581468206416E-20,428376.46806762094,1.5148572589111072E-12,940.3395513709625,1.9334176288553209,-8.370603678682674,-0.6581621385260972
4500.0,5956112.8631128725,3179697.3727022954,873568.732090769,-1795268.957422377,6508514.036223765,874718.5607891129,-4402.0143449377,-1982.0997920841396,5908.669408803418,2.270907759443586,-8.232431935831233,-1.109531879738008,6769844.341298105,1.3514646396007006,0.0037582314684663377,-0.12861070257555463,-4.4410103570546297E-4,-1.9177690958418172,-0.8501369484569624,-2.5218014744132558,4.658681209898652E-20,-0.0011222300308759384,4.0657581468206416E-20,430217.6827193628,1.460472881542523E-12,939.7826902911186,2.270907759443586,-8.232431935831233,-1.109531879738008
4560.0,5783499.09767603,3378887.1320179496,1225615.8597791842,-2055104.411476984,6374869.175588052,1226973.1665946771,-4255.899445552876,-2470.9793943893005,5828.693586761324,2.597685670176162,-8.05749650759023,-1.5552194406843658,6769528.515319763,1.3558399088480522,0.0037518003427659,-0.12871376466816348,-7.116479477785626E-4,-1.9871855662819926,-0.8250331024568904,-2.4284156009713205,4.658681209898652E-20,-0.0011222300308759384,4.0657581468206416E-20,431954.8067815436,1.4125268903964877E-12,939.4703242980731,2.597685670176162,-8.05749650759023,-1.5552194406843658
4620.0,5586372.655546416,3564389.8581532766,1572072.6567779162,-2305591.82952684,6212228.094220195,1573631.2677154818,-4090.534204791103,-2948.281641503842,5722.195414137735,2.9123585918238395,-7.846679323851516,-1.9932916138759489,6769117.67096141,1.360215178095356,0.003727052261274943,-0.12884401004747145,-9.818121845671908E-4,-2.0510169605348225,-0.7958242030497785,-2.340358007866869,4.658681209898652E-20,-0.0011222300308759384,4.0657581468206416E-20,433575.99995796464,1.37071940116399E-12,939.3880804787966,2.9123585918238395,-7.846679323851516,-1.9932916138759489
4680.0,5365520.902823749,3735587.1302220603,1911363.5406089195,-2545598.7887464636,6021349.4259476755,1913116.370705259,-3906.6851995103366,-3411.883715145868,5589.688687479617,3.2135944358868813,-7.601006832088596,-2.4218608219642195,6768619.337426577,1.3645904473426438,0.003683710881102885,-0.12899746811330703,-0.0012532161007221458,-2.109134718164929,-0.7629723965717383,-2.257704444072794,4.658681209898652E-20,-0.0011222300308759384,4.0657581468206416E-20,435068.7463782372,1.3347745585925498E-12,939.5166842306149,3.2135944358868813,-7.601006832088596,-2.4218608219642195
4740.0,5121830.522423986,3891917.899565101,2241947.0908202454,-2774041.2202588683,5803117.242338344,2243886.1770167076,-3705.197000272777,-3859.7285544024794,5431.798914551392,3.5001261914653976,-7.321643355662594,-2.8390920441942415,6768042.57412824,1.3689657165913447,0.00362158699110628,-0.12917006059379715,-0.001524453577788434,-2.1616196039030005,-0.7269225276843889,-2.1803189234989433,4.658681209898652E-20,-0.0011222300308759384,4.0657581468206416E-20,436420.0076582928,1.3044179418574615E-12,939.8286195790429,3.5001261914653976,-7.321643355662594,-2.8390920441942415
4800.0,4856283.915830702,4032879.819946547,2562322.649436729,-2989887.9692073683,5558536.8632430695,2564439.187163826,-3486.988147419633,-4289.832919386578,5249.259966891929,3.7707558166443027,-7.0098840769994775,-3.2432091907509197,6767397.806741495,1.373340985838585,0.003540580657045782,-0.12935761662103643,-0.0017940967829861909,-2.208695936693314,-0.688088294296269,-2.1079190221478163,4.658681209898652E-20,-0.0011222300308759384,4.0657581468206416E-20,437616.3967454858,1.2794179959774304E-12,940.294230138305,3.7707558166443027,-7.0098840769994775,-3.2432091907509197
4860.0,4569955.255791191,4158030.354986384,2871036.709605391,-3192165.1066896114,5288730.196326106,2873321.09290368,-3253.0469087493975,-4700.295025318837,5042.910366941822,4.024357628725095,-6.667147753309089,-3.6325009077871657,6766696.640592928,1.3777162550858253,0.003440683064251663,-0.129555888309684,-0.002060703097137415,-2.2506746269016698,-0.6468451100679354,-2.040132322827171,4.658681209898652E-20,-0.0011222300308759384,4.0657581468206416E-20,438644.36950861587,1.2601557649045605E-12,940.9696887461141,4.024357628725095,-6.667147753309089,-3.6325009077871657
4920.0,4264006.209461903,4266987.667483979,3166689.071548645,-3379959.9813442375,4994930.631773688,3169130.936540177,-3004.426848433684,-5089.301734224254,4813.689244036102,4.259881209837881,-6.294969272403043,-4.005325811140824,6765951.654767957,1.3820915243330338,0.0033219780511952123,-0.12976056683371312,-0.0023228221892402662,-2.287908774468102,-0.6035279206482173,-1.9765402458222783,4.658681209898652E-20,-0.0011222300308759384,4.0657581468206416E-20,439490.43075369904,1.2470689311763719E-12,941.9158531958535,4.259881209837881,-6.294969272403043,-4.005325811140824
4980.0,3939681.351906275,4359431.29601585,3447938.7469896185,-3552425.0001206542,4678477.518949697,3450527.0185049847,-2742.242235455033,-5455.135297786382,4562.631993215022,4.476353856271843,-5.894992152176244,-4.360117162289534,6765176.180624418,1.3864667935802266,0.003184643328164671,-0.12996729899027498,-0.0025790032170920955,-2.3207618103773924,-0.5584322841620808,-1.9167092731424884,4.658681209898652E-20,-0.0011222300308759384,4.0657581468206416E-20,440141.35113847035,1.2405629911022573E-12,943.1818893965884,4.476353856271843,-5.894992152176244,-4.360117162289534
5040.0,3598303.2896401864,4435102.625176045,3713509.5952144805,-3708781.1294037555,4340810.251970633,3716232.5363725703,-2467.6633178172356,-5796.179650898109,4290.86566952602,4.672882610765284,-5.46896107944205,-4.695387015319149,6764384.068612523,1.3908420628273876,0.0030289513691715074,-0.1301717042356747,-0.0028278021300793504,-2.3495862844949564,-0.5118173564256316,-1.860211451859788,4.658681209898652E-20,-0.0011222300308759384,4.0657581468206416E-20,440584.3913177497,1.2410782863859616E-12,944.8124182705583,4.672882610765284,-5.46896107944205,-4.695387015319149
5100.0,3241267.5136088147,4493805.156394759,3962195.6758371056,-3848321.109161531,3983461.9910356672,3965040.940367977,-2181.911486132373,-6110.926260859892,3999.604148335784,4.848655926484889,-5.018714572219032,-5.009729877936356,6763589.447454337,1.3952173320745327,0.0028552699691398644,-0.13036939216681814,-0.003067789048211751,-2.37471082650672,-0.46390980836002876,-1.8066366366813176,4.658681209898652E-20,-0.0011222300308759384,4.0657581468206416E-20,440807.5295780697,1.2491271015221223E-12,946.8502559454332,4.848655926484889,-5.018714572219032,-5.009729877936356
5160.0,2870037.0003876793,4535404.586700382,4192866.3050755146,-3970412.3741091825,3608053.0459060716,4195820.992171064,-1886.2543470248922,-6397.97954179007,3690.1430791965286,5.002945019063498,-4.546177834606141,-5.301825942201841,6762806.479793258,1.399592601321678,0.002664062452834081,-0.13055598041668004,-0.003297555689941446,-2.3964329382776426,-0.41490804255330865,-1.7555987983597992,4.658681209898652E-20,-0.0011222300308759384,4.0657581468206416E-20,440799.68920517585,1.2653255094739777E-12,949.338129651426,5.002945019063498,-4.546177834606141,-5.301825942201841
5220.0,2486136.579642515,4559828.702989336,4404470.803893746,-4074499.677003107,3216283.9472411163,4407521.515366099,-1582.0007232370604,-6656.061847435605,3363.854657145613,5.135104968462081,-4.05335585556349,-5.570443951112719,6762049.118403788,1.4039678705687753,0.0024558875217396813,-0.13072711292184452,-0.003515722818438801,-2.4150156964757974,-0.36498633371242606,-1.7067383017420825,4.658681209898652E-20,-0.0011222300308759384,4.0657581468206416E-20,440550.9618663302,1.2904246861131157E-12,952.3198726871171,5.135104968462081,-4.05335585556349,-5.570443951112719
5280.0,2091147.085000848,4567067.099354998,4596042.927671746,-4160107.4100789824,2809928.230625989,4599175.827195232,-1270.4955935151295,-6884.018058062689,3022.1822311020965,5.244575635282374,-3.5423267828815486,-5.814443774913485,6761330.866966818,1.4083431398158728,0.002231398724799496,-0.13087847851187104,-0.003720947675088266,-2.4306869171708305,-0.31429869608224187,-1.6597215817989592,4.658681209898652E-20,-0.0011222300308759384,4.0657581468206416E-20,440052.8233763241,1.3253427033136125E-12,955.8410733885606,5.244575635282374,-3.5423267828815486,-5.814443774913485
5340.0,1686699.3045395282,4557170.724806508,4766704.968108403,-4226841.621316263,2390824.957141614,4769905.842317458,-953.1149814601602,-7080.819778340751,2666.634764436047,5.330882456293931,-3.0152355821429238,-6.032778775667623,6760664.549249675,1.4127184090629386,0.00199134353539329,-0.1310058297602277,-0.00391193136427501,-2.4436397514284307,-0.2629823957937972,-1.6142392257575313,4.658681209898652E-20,-0.0011222300308759384,4.0657581468206416E-20,439298.33834087034,1.3711957370843997E-12,959.9488943199862,5.330882456293931,-3.0152355821429238,-6.032778775667623
5400.0,1274467.7461628567,4530251.26828615,4915671.518824406,-4274391.722645266,1960870.993308859,4918925.840036693,-631.2607987073732,-7245.569163062157,2298.7811580179923,5.393637181267535,-2.4742879683992216,-6.224498039899282,6760062.090311547,1.4170936783099726,0.0017365620194929356,-0.131105002026251,-0.004087426154841257,-2.4540340087705137,-0.21116109555377027,-1.5700031384100477,4.658681209898652E-20,-0.0011222300308759384,4.0657581468206416E-20,438282.35032994376,1.4293254967973885E-12,964.6905942044957,5.393637181267535,-2.4742879683992216,-6.224498039899282
5460.0,856164.2322749754,4486480.387308542,5042252.89660673,-4302531.887428446,1522013.0722621786,5045545.886937768,-306.35564422198416,-7377.502386145274,1920.2444413174771,5.432538607773783,-1.9217445764749848,-6.38874855687921,6759534.3130857665,1.4214689475570224,0.0014679850763559274,-0.13117193261126928,-0.004246242657932703,-2.4619977454556436,-0.15894765831782084,-1.5267432242044991,4.658681209898652E-20,-0.0011222300308759384,4.0657581468206416E-20,437001.6544211113,1.5013172910126396E-12,970.1102032902536,5.432538607773783,-1.9217445764749848,-6.38874855687921
5520.0,433531.33742991165,4426088.7858053725,5145858.210434381,-4311122.1345553575,1076239.6571570344,5149174.907067164,20.162441671069484,-7475.992765694754,1532.6958326193526,5.447373362556287,-1.3599153151634924,-6.524777414392645,6759090.753377641,1.4258442168040246,0.00118663223486844,-0.13120267994024287,-0.0043872568425150525,-2.4676288220360627,-0.10644665693396521,-1.4842038488275404,4.658681209898652E-20,-0.0011222300308759384,4.0657581468206416E-20,435455.14916401106,1.5890011138166104E-12,976.2429449433116,5.447373362556287,-1.3599153151634924,-6.524777414392645
5580.0,8335.682121218244,4349365.145909598,5225998.070365235,-4300109.09632673,625572.6271573671,5229323.391735334,346.84527252171824,-7540.553554037557,1137.848665372894,5.43801676769434,-0.7911538319244581,-6.631934074740147,6758739.495978059,1.430219486051027,8.936089888246656E-4,-0.13119344267437774,-0.004509416846715006,-2.4709962473196057,-0.053756645964594486,-1.4421402272575161,4.658681209898652E-20,-0.0011222300308759384,4.0657581468206416E-20,433643.9652491595,1.6944279562828446E-12,983.1075189722219,5.43801676769434,-0.7911538319244581,-6.631934074740147
5640.0,-417638.90439702733,4256654.917489115,5282286.9280768,-4269526.46700234,172058.80595752384,5285605.740730219,672.2398661822015,-7570.840396759934,737.4521742742033,5.404433817385521,-0.21785199880048134,-6.709672781569671,6758487.034238337,1.4345947552979816,5.901036548647609E-4,-0.13114057865116083,-0.0046117495433088095,-2.4721411995291023,-9.722550879028907E-4,-1.4003148094474709,4.658681209898652E-20,-0.0011222300308759384,4.0657581468206416E-20,431571.5684155049,1.8198172226010472E-12,990.6973222658046,5.404433817385521,-0.21785199880048134,-6.709672781569671
5700.0,-842598.339321031,4148358.968274347,5314445.040391763,-4219495.128491883,-282238.6472804142,5317742.226269336,994.8938574937771,-7566.653459015427,333.28513207853183,5.346680277224601,0.3575656822173924,-6.757555133323747,6758338.155081355,1.4389700245449362,2.7738373893783813E-4,-0.13104062354398816,-0.004693366816643704,-2.471077662771196,0.051813836194886755,-1.3584936871782474,4.658681209898652E-20,-0.0011222300308759384,4.0657581468206416E-20,429243.834405113,1.9674797166989653E-12,998.9728286283917,5.346680277224601,0.3575656822173924,-6.757555133323747
5760.0,-1264745.346230981,4024932.0964690354,5322300.046518663,-4150222.9492331333,-735248.9643998585,5325560.570416948,1313.3609805653782,-7527.939210995693,-72.85067350831535,5.26490390284592,0.9326478646975657,-6.7752528421123355,6758295.85106009,1.443345293791875,-4.320820244105007E-5,-0.13089030912573368,-0.004753471509193248,-2.4677926476141483,0.10450898345709932,-1.3164430180165996,4.658681209898652E-20,-0.0011222300308759384,4.0657581468206416E-20,426669.0940629862,2.139731983096957E-12,1007.8580172781147,5.26490390284592,0.9326478646975657,-6.7752528421123355
5820.0,-1682286.605690695,3886881.4068210907,5305788.149082536,-4062004.2518753014,-1184902.5912712917,5308997.126036899,1626.2066273230307,-7454.791857683378,-479.13713408790403,5.159345759211448,1.504922448728726,-6.762550678251094,6758361.260718298,1.447720563038782,-3.702592138329732E-4,-0.13068658101897368,-0.004791362995714776,-2.462245986126408,0.15701866332095402,-1.2739254496204302,4.658681209898652E-20,-0.0011222300308759384,4.0657581468206416E-20,423858.14700086403,2.33882545464871E-12,1017.2431410747145,5.159345759211448,1.504922448728726,-6.762550678251094
5880.0,-2093439.9813428675,3734764.550308077,5264954.888354984,-3955218.945028567,-1629140.0854004086,5268097.650686102,1932.0134874166085,-7347.454391118272,-883.7466966364248,5.030341606231666,2.071903091648996,-6.719349581160545,6758533.638160387,1.4520958322856732,-7.022911137316998E-4,-0.1304266158086801,-0.004806442345978795,-2.4543697103219726,0.20924450198826042,-1.2306965274122534,4.658681209898652E-20,-0.0011222300308759384,4.0657581468206416E-20,420824.24258589046,2.5669105926177704E-12,1026.9940699283065,5.030341606231666,2.071903091648996,-6.719349581160545
5940.0,-2496441.8048399705,3569187.8268951587,5199955.498499566,-3830331.314106981,-2065921.0646512336,5203017.662259748,2229.387272054479,-7206.319236670141,-1284.8494302864776,4.878323301297104,2.631096248013417,-6.64566989742971,6758810.352401358,1.4564711015325642,-0.0010377661914148465,-0.13010783739408277,-0.004798217037174237,-2.4440670442983072,0.2610821872671011,-1.1865010808457017,4.658681209898652E-20,-0.0011222300308759384,4.0657581468206416E-20,417583.0273888823,2.8260405754861963E-12,1036.9658566316384,4.878323301297104,2.631096248013417,-6.64566989742971
6000.0,-2889554.2011070205,3390804.1502862033,5111054.834200023,-3687888.4662337257,-2493233.1817101445,5114022.364750915,2516.962520941983,-7031.928458503953,-1680.620289785089,4.703820155159194,3.1800088389107444,-6.5416546872330255,6759186.916755326,1.4608463707794237,-0.0013750934260617787,-0.12972793245381173,-0.0047663051806973574,-2.43121107058118,0.3124192043814793,-1.141069610473814,4.658681209898652E-20,-0.0011222300308759384,4.0657581468206416E-20,414152.45863617485,3.118199046219266E-12,1047.0166072973418,4.703820155159194,3.1800088389107444,-6.5416546872330255
6060.0,-3271072.4332654607,3200310.8732475983,4998626.855794661,-3528518.424351218,-2909101.0966555486,5001486.132243005,2793.4084872953053,-6824.973483802892,-2069.246577493609,4.50746016489696,3.7161566370671415,-6.407573021553746,6759657.048203342,1.4652216400262512,-0.001712635222726375,-0.12928486489814023,-0.004710439229871542,-2.4156431777421714,0.36313233611652485,-1.0941147447858857,4.658681209898652E-20,-0.0011222300308759384,4.0657581468206416E-20,410552.68365050823,3.4453238589298795E-12,1057.0181094055106,4.50746016489696,3.7161566370671415,-6.407573021553746
6120.0,-3639332.2440959685,2998447.471962823,4863153.661081335,-3352927.866123536,-3311595.4174258574,4865891.539294927,3057.4350909912787,-6586.294300643758,-2448.935600614431,4.289971036816253,4.23707343647543,-6.243823175368645,6760212.756386977,1.4695969092745076,-0.0020487146532001065,-0.12877688918344035,-0.004630469141197458,-2.39717146884231,0.4130848708881216,-1.0453279103719386,4.658681209898652E-20,-0.0011222300308759384,4.0657581468206416E-20,406805.88574774534,3.8092997331955E-12,1066.8615055255236,4.289971036816253,4.23707343647543,-6.243823175368645
