time,gePosition_m_X,gePosition_m_Y,gePosition_m_Z,eiPosition_m_X,eiPosition_m_Y,eiPosition_m_Z,eiVelocity_m_s_X,eiVelocity_m_s_Y,eiVelocity_m_s_Z,eiAccel_m_s2_X,eiAccel_m_s2_Y,eiAccel_m_s2_Z,semiMajorAxis_m,gast_rad,eulerAngle_rad_Roll,eulerAngle_rad_Pitch,eulerAngle_rad_Yaw,eulerAngleWrtEi_rad_Roll,eulerAngleWrtEi_rad_Pitch,eulerAngleWrtEi_rad_Yaw,bodyAngularRateWrtEi_rad_s_Roll,bodyAngularRateWrtEi_rad_s_Pitch,bodyAngularRateWrtEi_rad_s_Yaw,altitudeMsl_m,airDensity_kg_m3,ambientTemperature_dgK,eiGravitation_m_s2_X,eiGravitation_m_s2_Y,eiGravitation_m_s2_Z
0.0,-1436381.46529,4185811.71036,5163944.67155,-4315967.74,960356.2,5167269.53,129.091037,-7491.513855,1452.515654,5.45462515459,-1.21381527151,-6.54922145035,6759053.07579,1.02334780893,3.400115586061947E-16,-0.2024581932313422,-1.522968439585956E-16,-2.4715939055627265,-0.03718896475792745,-1.428993135204757,0.0,-0.0011222300308754611,0.0,434989.540812,1.61790350067E-12,978.31253865,5.45462515459,-1.21381527151,-6.54922145035
60.0,-1794959.85112,3943151.69665,5239238.32523,-4298410.7939,509021.634346,5242566.73979,455.965807636,-7547.27269534,1056.37890176,5.43715588465,-0.643958163351,-6.65045641967,6758724.59407,1.02772307802,-3.157465692280057E-6,-0.20243702489904428,-9.141341389821042E-5,-2.4720451944049366,0.015605902028365605,-1.3871941836894333,0.0,-0.0011222300308754611,0.0,433110.277264,1.72881623337E-12,985.412390529,5.43715588465,-0.643958163351,-6.65045641967
120.0,-2147589.7858,3685729.36806,5290614.34635,-4261287.36393,55369.9958766,5293931.16597,781.064619229,-7568.71040676,655.051480551,5.39543347046,-0.0701806985371,-6.7221651568,6758494.0491,1.03209834711,-1.2685353343976165E-5,-0.20237116393106258,-1.8242778638893323E-4,-2.470286822045643,0.06837346634939342,-1.3453262663509098,0.0,-0.0011222300308754611,0.0,430971.345423,1.86035432583E-12,993.232081735,5.39543347046,-0.0701806985371,-6.7221651568
180.0,-2492787.67522,3414636.82589,5317814.67041,-4204747.62449,-398533.846461,5321104.78217,1102.93445338,-7555.66461109,250.318018668,5.32954561202,0.505084334498,-6.76393081359,6758365.9615,1.0364736162,-2.8624011676384142E-5,-0.20225721705302926,-2.721932733690983E-4,-2.466297307513463,0.12102070149978093,-1.303154824308686,0.0,-0.0011222300308754611,0.0,428579.184403,2.01483793015E-12,1001.72129127,5.32954561202,0.505084334498,-6.76393081359
240.0,-2829089.64682,3131016.08488,5320688.92713,-4129028.71776,-850619.67599,5323937.32378,1420.13033014,-7508.11967923,-156.015166398,5.23967276001,1.07937911129,-6.77544773988,6758343.1128,1.04084888529,-5.095587944978353E-5,-0.20209199268780637,-3.598662283003255E-4,-2.4600278400927786,0.1734520917711023,-1.2604406632134308,0.0,-0.0011222300308754611,0.0,425942.698981,2.19456744276E-12,1010.79299559,5.23967276001,1.07937911129,-6.77544773988
300.0,-3155057.47631,2836054.70228,5299195.54005,-4034454.10369,-1298820.77458,5302387.38735,1731.22091008,-7426.20804585,-562.126826852,5.12608935895,1.65022707983,-6.75652440859,6758426.48002,1.04522415437,-7.960487657609375E-5,-0.20187251811905338,-4.4461507579599994E-4,-2.4514015320610127,0.22556763079816464,-1.216936353784656,0.0,-0.0011222300308754611,0.0,423073.265387,2.40175867372E-12,1020.32804492,5.12608935895,1.65022707983,-6.75652440859
360.0,-3469284.52542,2530981.25269,5253402.41555,-3921432.57162,-1741082.83622,5256523.11924,2034.79417231,-7310.21113381,-966.187723165,4.98916513129,2.21513967859,-6.70708647528,6758615.19718,1.04959942346,-1.1443616666028442E-4,-0.20159605601949535,-5.256261117823448E-4,-2.4403123001245675,0.2772606847084223,-1.1723826141690332,0.0,-0.0011222300308754611,0.0,419984.703916,2.6385166383E-12,1030.18600465,4.98916513129,2.21513967859,-6.70708647528
420.0,-3770401.6745,2217060.65514,5183487.21023,-3790456.9089,-2175372.92368,5186522.48226,2329.46316971,-7160.55986063,-1366.36774943,4.82936635718,2.771623566,-6.6271799378,6758906.54526,1.05397469255,-1.5525630280724056E-4,-0.2012601202007741,-6.021091891004469E-4,-2.4266234488921494,0.32841566026697583,-1.1265047086280184,0.0,-0.0011222300308754611,0.0,416693.217666,2.90684781308E-12,1040.21936132,4.82936635718,2.771623566,-6.6271799378
480.0,-4057083.2322,1895589.35918,5089737.16535,-3642102.22194,-2599688.44216,5092673.08912,2613.87185941,-6977.83469348,-1760.84325007,4.64725709136,3.31718845684,-6.51697434357,6759295.97154,1.05834996164,-2.0181376711455345E-4,-0.20086249047841734,-6.733032495507217E-4,-2.410166082398258,0.37890541913027004,-1.0790089514129753,0.0,-0.0011222300308754611,0.0,413217.297142,3.20869107574E-12,1050.28704451,4.64725709136,3.31718845684,-6.51697434357
540.0,-4328052.80223,1567890.39732,4972548.49669,-3477023.90521,-3012066.10183,4975371.59112,2886.70100257,-6762.7652136,-2147.80452859,4.4435002456,3.84935565051,-6.37676597345,6759777.1392,1.06272523073,-2.537999117557988E-4,-0.20040122652975312,-7.384816658169201E-4,-2.390737553674849,0.4285883837533455,-1.0295794903432756,0.0,-0.0011222300308754611,0.0,409577.590886,3.54593779225E-12,1060.26403408,4.4435002456,3.84935565051,-6.37676597345
600.0,-4582089.08512,1235308.31197,4832425.32859,-3295955.25459,-3410590.83827,4835122.61061,3146.67412307,-6516.22914646,-2525.46354462,4.21885845334,4.36566732117,-6.20698091353,6760342.00774,1.06710049981,-3.108503078893159E-4,-0.19987468062259584,-7.969573597680775E-4,-2.368100287875824,0.47730529221887513,-0.9778756738811295,0.0,-0.0011222300308754611,0.0,405796.74282,3.92041552644E-12,1070.04584541,4.21885845334,4.36566732117,-6.20698091353
660.0,-4818031.59039,899203.966023,4669978.16093,-3099704.72166,-3793404.6577,4672537.20623,3392.56350923,-6239.25081036,-2892.06178917,3.97419462323,4.86369662095,-6.00817790922,6760980.94409,1.0714757689,-3.725465059747765E-4,-0.19928150909078624,-8.480876666893944E-4,-2.3419815006332434,0.5248755839273189,-0.9235304947778583,0.0,-0.0011222300308754611,0.0,401899.197478,4.33382226801E-12,1079.54858806,3.97419462323,4.86369662095,-6.00817790922
720.0,-5034786.2323,560949.247872,4485921.85902,-2889152.80719,-4158715.37028,4488330.86064,3623.19623686,-5932.99893362,-3245.87832173,3.71047208034,5.34105862407,-5.78105088156,6761682.86424,1.07585103799,-4.384182086756402E-4,-0.19862068243441175,-8.912789186058634E-4,-2.3120745961882356,0.5710934443666792,-0.8661508699147504,0.0,-0.0011222300308754611,0.0,397910.974827,4.78761066949E-12,1088.70625298,3.71047208034,5.34105862407,-5.78105088156
780.0,-5231330.77979,221921.683234,4281073.15721,-2665248.59333,-4504805.17237,4283320.98182,3837.46018581,-5598.7837899,-3585.23794484,3.42875418846,5.79542211303,-5.52643097285,6762435.40427,1.08022630708,-5.079458547266101E-4,-0.19789149393824232,-9.259907230145264E-4,-2.278043383844667,0.6157236175579897,-0.8053208725167013,0.0,-0.0011222300308754611,0.0,393859.416979,5.28282976273E-12,1097.46689542,3.42875418846,5.79542211303,-5.52643097285
840.0,-5406720.12904,-116501.031943,4056347.66905,-2429005.91574,-4830039.03506,4058423.91052,4034.31001551,-5238.0536016,-3908.51948382,3.13020334481,6.22452217776,-5.24528797962,6763225.11955,1.08460157617,-5.805636092551088E-4,-0.1970935666757367,-9.517399170326154E-4,-2.2395306890746065,0.6584972253791455,-0.7406094741657385,0.0,-0.0011222300308754611,0.0,389772.909617,5.81993469634E-12,1105.78887742,3.13020334481,6.22452217776,-5.24528797962
900.0,-5560091.36481,-452946.560911,3812756.39869,-2181499.17951,-5132872.85393,3814651.42876,4212.77305874,-4852.3901645,-4214.16413037,2.81607923989,6.62617356562,-4.93873102562,6764037.70962,1.08897684525,-6.556627528912911E-4,-0.19622685880437135,-9.68104179906217E-4,-2.196173409618573,0.6991080320279793,-0.6715848301062751,0.0,-0.0011222300308754611,0.0,385680.581569,6.3985770059E-12,1113.63782963,2.81607923989,6.62617356562,-4.93873102562
960.0,-5690668.575,-786053.499063,3551401.75141,-1923858.82504,-5411861.31166,3553106.76711,4371.95508632,-4443.50365117,-4500.68380003,2.48773628027,6.99828468574,-4.60800832631,6764858.26628,1.09335211434,-7.325954588926736E-4,-0.19529166706153514,-9.747252899098497E-4,-2.1476264377012977,0.7372098731348192,-0.5978375145795667,0.0,-0.0011222300308754611,0.0,381611.986487,7.0173845467E-12,1120.9843574,2.48773628027,6.99828468574,-4.60800832631
1020.0,-5797767.38129,-1114476.96909,3273473.04391,-1657266.45323,-5665665.40347,3274980.11143,4511.04588972,-4013.22655766,-4766.66944468,2.14662008187,7.33887213529,-4.25450590081,6765671.54101,1.09772738343,-8.106789440310247E-4,-0.19428862834230662,-9.713120140950866E-4,-2.093597855730558,0.7724163273700638,-0.5190151007703818,0.0,-0.0011222300308754611,0.0,377596.771155,7.67374758722E-12,1127.80262184,2.14662008187,7.33887213529,-4.25450590081
1080.0,-5880799.14756,-1436894.21456,2980241.51915,-1382949.62263,-5893059.57287,2981543.614,4629.32462341,-3563.5067671,-5010.79925274,1.7942629549,7.64607558048,-3.87974509655,6766462.22774,1.10210265252,-8.8919997549675E-4,-0.19321871932944465,-9.576426214110902E-4,-2.0338969399550955,0.8043040940332757,-0.4348696089353474,0.0,-0.0011222300308754611,0.0,373664.335382,8.36362308555E-12,1134.06946846,1.7942629549,7.64607558048,-3.87974509655
1140.0,-5939274.82758,-1752010.16575,2673054.87469,-1102176.33476,-6092938.40434,2674145.91777,4726.16484444,-3096.39971475,-5231.84666221,1.43227831975,7.91817279165,-3.4853788076,6767215.2557,1.10647792161,-9.674197125661568E-4,-0.19208325406214438,-9.335670113570367E-4,-1.968494152701902,0.8324218222322988,-0.3453169937496435,0.0,-0.0011222300308754611,0.0,369843.488871,9.0813751064E-12,1139.76397252,1.43227831975,7.91817279165,-3.4853788076
1200.0,-5972808.41316,-2058562.94915,2353331.3181,-816249.227842,-6264322.8189,2354206.20749,4801.0391839,-2614.05965196,-5428.68810513,1.06235401541,8.1535946022,-3.07318628869,6767916.08704,1.11085319069,-0.0010445788579110697,-0.19088387944705063,-8.990084512671456E-4,-1.8975879558838207,0.8563060762494299,-0.2505034948136596,0.0,-0.0011222300308754611,0.0,366162.110776,9.81966958558E-12,1144.86721123,1.06235401541,8.1535946022,-3.07318628869
1260.0,-5981119.94522,-2355329.31008,2022553.16816,-526499.502902,-6406365.71868,2023207.80643,4853.52358328,-2118.73002124,-5600.31039687,0.686244487806,8.35093953557,-2.64506649405,6768551.01274,1.11522845978,-0.001119903089957072,-0.18962256866789454,-8.539649158840426E-4,-1.8216671353457778,0.8755053926938258,-0.15086753246242685,0.0,-0.0011222300308754611,0.0,362646.817836,1.05694417282E-11,1149.36210029,0.686244487806,8.35093953557,-2.64506649405
1320.0,-5964038.05121,-2641129.91602,1682260.0258,-234280.61045,-6518357.02805,1682691.34257,4883.30102883,-1612.73297052,-5745.81768046,0.305761874209,8.50898782675,-2.20302990184,6769107.44043,1.11960372887,-0.0011926087436998373,-0.18830161246408342,-7.985100229477395E-4,-1.7415511375461163,0.8896117212815267,-0.04717964371900692,0.0,-0.0011222300308754611,0.0,359322.64708,1.13199508846E-11,1153.23310924,0.305761874209,8.50898782675,-2.20302990184
1380.0,-5921501.97521,-2914834.50681,1334041.5442,59038.2702276,-6599728.08082,1334247.51377,4890.164719,-1098.4580513,-5864.43783478,-0.0772339692957,8.62671455329,-1.74918882182,6769574.16718,1.12397899796,-0.0012619087039524666,-0.1869236083602738,-7.327935581103902E-4,-1.658388369120703,0.8982960218291156,0.05945959770688049,0.0,-0.0011222300308754611,0.0,356212.758999,1.20589542535E-11,1156.46639032,-0.0772339692957,8.62671455329,-1.74918882182
1440.0,-5853563.0696,-3175366.85713,979529.832917,352078.923258,-6650055.30637,979509.486835,4874.02060371,-578.350162928,-5955.52825654,-0.460846418307,8.70330158977,-1.28574622267,6769941.63024,1.12835426705,-0.0013270184712442826,-0.18549144781202148,-6.570415818603945E-4,-1.5735978370241681,0.9013421412672873,0.16767830484890037,0.0,-0.0011222300308754611,0.0,353338.166882,1.2773021999E-11,1159.05060878,-0.460846418307,8.70330158977,-1.28574622267
1500.0,-5760385.72131,-3421709.51617,620391.536134,643460.920487,-6669063.17174,620144.970606,4834.88923987,-54.8968217789,-6018.58092927,-0.84315389834,8.73814810774,-0.814983157094,6770202.1291,1.13272953613,-0.0013871623572038615,-0.18400830139491764,-5.715561103121516E-4,-1.4887544881298564,0.898671653796826,0.2759482912661997,0.0,-0.0011222300308754611,0.0,350717.497598,1.34479661936E-11,1160.97748012,-0.84315389834,8.73814810774,-0.814983157094
1560.0,-5642247.69001,-3652908.2896,258319.63037,931808.535375,-6656626.34201,257848.008309,4772.9069153,469.385149262,-6053.22669873,-1.22222243068,8.73087936141,-0.339244903876,6770350.01234,1.13710480522,-0.0014415797630947804,-0.18247760209829708,-4.7671436086952035E-4,-1.40543846448609,0.8903533889481704,0.38273616390528237,0.0,-0.0011222300308754611,0.0,348366.788593,1.40693676884E-11,1162.24201642,-1.22222243068,8.73087936141,-0.339244903876
1620.0,-5499539.8409,-3868076.43001,-104975.008676,1215757.70139,-6612771.02726,-105669.460941,4688.32600211,991.96340126,-6059.23868215,-1.59611873922,8.68135352859,0.139074014525,6770381.82361,1.14148007431,-0.0014895314920763659,-0.18090302683172965,-3.7296755306070523E-4,-1.3250831126115463,0.8765950545699809,0.48665566178453706,0.0,-0.0011222300308754611,0.0,346299.325137,1.46231760012E-11,1162.84258028,-1.59611873922,8.68135352859,0.139074014525
1680.0,-5332765.2603,-4066398.50335,-467772.216225,1493962.96776,-6537675.49181,-468686.217644,4581.51451152,1510.30418684,-6036.53474959,-1.96292372949,8.58966641406,0.617545744019,6770296.40177,1.1458553434,-0.0015303060434247175,-0.17928847630311914,-2.608392545141587E-4,-1.2488571127191321,0.8577192397614389,0.5865858795973985,0.0,-0.0011222300308754611,0.0,344525.521067,1.50963457583E-11,1162.78081181,-1.96292372949,8.58966641406,0.617545744019
1740.0,-5142537.74831,-4247133.90126,-828351.268314,1765104.4041,-6431669.7085,-829480.497201,4452.9548339,2021.88670209,-5985.17902825,-2.32074613491,8.45615386947,1.09372571538,6770094.93151,1.15023061249,-0.001563225834737956,-0.17763805339756447,-1.409232621330581E-4,-1.1776021910181746,0.8341299041596535,0.6817339182492723,0.0,-0.0011222300308754611,0.0,343052.845302,1.5477465171E-11,1162.06148782,-2.32074613491,8.45615386947,1.09372571538
1800.0,-4929579.68926,-4409619.97173,-1184999.67178,2027894.40491,-6295234.14967,-1186338.78524,4303.24166037,2524.21750274,-5905.3823949,-2.66773611535,8.28139183672,1.56516971621,6769780.94177,1.15460588158,-0.0015876532964182778,-0.17595604026293218,-1.3881009306477872E-5,-1.1118280220754253,0.8062766880124569,0.7716403607058901,0.0,-0.0011222300308754611,0.0,341885.795407,1.57573284561E-11,1160.69236805,-2.66773611535,8.28139183672,1.56516971621
1860.0,-4694719.30703,-4553274.74418,-1536021.95296,2281084.34496,-6128997.71448,-1537564.61159,4133.07909528,3014.84485051,-5797.5019368,-3.00209859122,8.06619397929,2.02945115412,6769360.25114,1.15898115066,-0.0016029967820479529,-0.1742468742623607,1.1956150842132895E-4,-1.0517504053442654,0.7746230677648103,0.8561414947203864,0.0,-0.0011222300308754611,0.0,341025.918404,1.59294059258E-11,1158.68407736,-3.00209859122,8.06619397929,2.02945115412
1920.0,-4438887.31862,-4677599.22879,-1879748.38314,2523471.03778,-5933734.80111,-1881487.28087,3943.27698201,3491.37284555,-5662.03937792,-3.32210610112,7.81160692535,2.48417824034,6768840.86043,1.16335641975,-0.001608716237665538,-0.17251512301901925,2.5861729434218945E-4,-0.997352736797172,0.739621767094102,0.9353082676720366,0.0,-0.0011222300308754611,0.0,340471.877942,1.59901728165E-11,1156.05006363,-3.32210610112,7.81160692535,2.48417824034
1980.0,-4163113.00568,-4782179.27415,-2214543.57897,2753902.95079,-5710361.54107,-2216470.47785,3734.74647652,3951.47520362,-5499.63848327,-3.62611098444,7.51890320475,2.92701082668,6768232.79458,1.16773168884,-0.0016043285735227958,-0.17076545875976765,4.024423999735463E-4,-0.9484529480621173,0.7016982752110066,1.009379807887856,0.0,-0.0011222300308754611,0.0,340219.565909,1.59392700942E-11,1152.80665909,-3.62611098444,7.51890320475,2.92701082668
2040.0,-3868519.72933,-4866686.97177,-2538814.91728,2971286.13353,-5459931.22082,-2540920.68714,3508.49491477,4392.90854367,-5311.08146976,-3.91255670955,7.18957201715,3.35567664077,6767547.89733,1.17210695793,-0.0015894126831821319,-0.16900263217675662,5.501404600997336E-4,-0.9047641662884363,0.6612415958622121,1.0787032667264445,0.0,-0.0011222300308754611,0.0,340262.255541,1.5779485903E-11,1148.97325902,-3.91255670955,7.18957201715,3.35567664077
2100.0,-3556319.91903,-4930881.60097,-2851020.70612,3174589.81804,-5183628.92403,-2853295.36871,3265.62003004,4813.52506098,-5097.28446693,-4.17998819402,6.82530801708,3.76798668653,6766799.58363,1.17648222702,-0.0015636140566766229,-0.16723144602705375,7.007677054997101E-4,-0.8659435687347867,0.6186005662547494,1.1436855158910602,0.0,-0.0011222300308754611,0.0,340590.7922,1.55165629211E-11,1144.57261722,-4.17998819402,6.82530801708,3.76798668653
2160.0,-3227809.57072,-4974610.11197,-3149678.05652,3362851.65445,-4882765.43476,-3152110.83402,3007.30358436,5211.28447346,-4859.29208389,-4.42706099349,6.42799834266,4.16184960517,6766002.55591,1.1808574961,-0.0015266489374776353,-0.16545672869003278,8.53338439098055E-4,-0.8316283911054979,0.5740839904235816,1.20475775051178,0.0,-0.0011222300308754611,0.0,341193.817216,1.51588523712E-11,1139.63124376,-4.42706099349,6.42799834266,4.16184960517
2220.0,-2884362.2936,-4997807.15015,-3433370.40336,3535182.54851,-4558770.44805,-3435949.7709,2734.80448493,5584.26514335,-4598.27115009,-4.65254926912,5.9997081452,4.53528482737,6765172.49144,1.18523276519,-0.0014783079767290762,-0.1636833078958048,0.0010068309544078776,-0.8014605219065922,0.5279630998718329,1.26235157666518,0.0,-0.0011222300308754611,0.0,342058.019533,1.47168477694E-11,1134.17987726,-4.65254926912,5.9997081452,4.53528482737
2280.0,-2527422.94805,-5000494.6283,-3700754.62823,3690771.07269,-4213185.14012,-3703468.3701,2449.45146062,5930.67429269,-4315.50370665,-4.855352478,5.54266489693,4.88643438582,6764325.7088,1.18960803428,-0.0014184593426666487,-0.16191598482557973,0.0011601938678244522,-0.7751020651871899,0.48047523808126674,1.3168842134606455,0.0,-0.0011222300308754611,0.0,343168.409419,1.42026392493E-11,1128.25399118,-4.855352478,5.54266489693,4.88643438582
2340.0,-2158500.9194,-4982780.85846,-3950567.74152,3828887.42646,-3847654.15446,-3953403.01084,2152.63537596,6248.85724762,-4012.37933142,-5.0345007653,5.05924176234,5.21357329868,6763478.82193,1.19398330337,-0.001347051248631279,-0.16015950877978263,0.0013123528284056485,-0.7522443079923347,0.4318280279885307,1.368750387731326,0.0,-0.0011222300308754611,0.0,344508.608199,1.3629331852E-11,1121.89427906,-5.0345007653,5.05924176234,5.21357329868
2400.0,-1779163.07414,-4944859.25811,-4181633.08674,3948886.92652,-3463917.0636,-4184576.46806,1845.80126032,6537.3056641,-3690.38688519,-5.189159069,4.55194031656,5.51511847513,6762648.39039,1.19835857246,-0.0012641138689013288,-0.15841855258880835,0.0014622175613156776,-0.7326121724849861,0.3822035682087175,1.4183188579438926,0.0,-0.0011222300308754611,0.0,346061.147785,1.30104687174E-11,1115.14704509,-5.189159069,4.55194031656,5.51511847513
2460.0,-1391026.44579,-4887006.64912,-4392866.03463,4050213.01225,-3063799.36879,-4395903.60936,1530.44012856,6794.66470386,-3351.10576839,-5.31862997702,4.02337288112,5.78963613313,6761850.57457,1.20273384154,-0.0011697606183034268,-0.15669768892541255,0.001608689193518252,-0.7159657603494773,0.33176240803320906,1.4659319787074752,0.0,-0.0011222300308754611,0.0,347807.7738,1.23594936229E-11,1108.06440088,-5.31862997702,4.02337288112,5.78963613313
2520.0,-995750.697929,-4809581.17047,-4583279.14075,4132399.75581,-2649203.10096,-4586396.55479,1208.08066611,7019.73914532,-2996.19677659,-5.42235540075,3.4762447267,6.03584775466,6761100.8039,1.20710911063,-0.0010641887787909044,-0.15500136766709355,0.0017506678034653004,-0.7021001542341334,0.2806471857255818,1.5119071629564047,0.0,-0.0011222300308754611,0.0,349729.746245,1.16892782348E-11,1100.70413734,-5.42235540075,3.4762447267,6.03584775466
2580.0,-595030.411274,-4713019.82801,-4751986.74483,4195073.87112,-2222097.08704,-4755169.27818,880.280847052,7211.4984284,-2627.39264147,-5.49991714802,2.91333636451,6.25263463361,6760413.46575,1.21148437972,-9.47679463373077E-4,-0.15333389442644788,0.001887060130499016,-0.6908442813412137,0.22898589780952944,1.5565394616323676,0.0,-0.0011222300308754611,0.0,351808.131922,1.10117295766E-11,1093.12910898,-5.49991714802,2.91333636451,6.25263463361
2640.0,-190587.241006,-4597835.70631,-4898208.99557,4237956.2195,-1784506.94538,-4901441.63349,548.619548567,7369.08064416,-2246.48833901,-5.55103649187,2.33748611521,6.43904109533,6759801.62187,1.21585964881,-8.205969157233419E-4,-0.1516994103589326,0.002016787374794608,-0.6820593755684409,0.1768948151510148,1.6001047527360528,0.0,-0.0011222300308754611,0.0,354024.08325,1.03374844071E-11,1085.40595519,-5.55103649187,2.33748611521,6.43904109533
2700.0,215838.011204,-4464614.86881,-5021275.28933,4260862.81344,-1338504.8729,-5024542.79466,214.688218687,7491.79549091,-1855.33124215,-5.57557283914,1.75157310953,6.59427648439,6759276.75791,1.2202349179,-6.833871513286542E-4,-0.15010187333146097,0.0021387930149029495,-0.6756373840652798,0.12448108742026098,1.6428632255401556,0.0,-0.0011222300308754611,0.0,356359.098591,9.67569109519E-12,1077.60302301,-5.57557283914,1.75157310953,6.59427648439
2760.0,622493.367459,-4314012.97312,-5120627.11542,4263705.32344,-886199.285136,-5123914.10173,-119.917351663,7579.12622637,-1455.81118836,-5.57352160514,1.15850083952,6.71771602769,6758848.57092,1.22461018698,-5.365759539824454E-4,-0.14854504052321488,0.002252050567957417,-0.6714995346544718,0.07184508987560068,1.6850629784739284,0.0,-0.0011222300308754611,0.0,358795.259765,9.03387709813E-12,1069.78748822,-5.57352160514,1.15850083952,6.71771602769
2820.0,1027623.6452,-4146751.62893,-5195820.30494,4246491.09529,-429724.368414,-5199111.31005,-453.60510791,7630.7306516,-1049.8505264,-5.54501139828,0.561181345236,6.80890068469,6758524.79827,1.22898545607,-3.8076624833455127E-4,-0.14703245250370445,0.0023555712169023484,-0.6695951950202569,0.019082571212952176,1.7269436371942117,0.0,-0.0011222300308754611,0.0,361315.443085,8.41790079894E-12,1062.02191558,-5.54501139828,0.561181345236,6.80890068469
2880.0,1429478.39108,-3963614.52554,-5246526.68359,4209322.68818,28770.3989396,-5249806.24311,-784.794623923,7646.44116665,-639.394199728,-5.49030061222,-0.0374799087992,6.86753609545,6758311.0902,1.23336072516,-2.1663487647403265E-4,-0.14556741882664567,0.002448411230166946,-0.6699010994769019,-0.03371333770769191,1.7687399555819074,0.0,-0.0011222300308754611,0.0,363903.500887,7.8319877686E-12,1054.36080696,-5.49030061222,-0.0374799087992,6.86753609545
2940.0,1826319.74032,-3765443.35617,-5272535.13222,4152396.94558,487130.70196,-5275787.85287,-1111.92477408,7626.26394018,-226.399917339,-5.40977351379,-0.634598439662,6.8934907318,6758210.92735,1.23773599425,-4.492881281163521E-5,-0.14415300515641197,0.002529679101685071,-0.6724209836782684,-0.08645019492961135,1.8106853961086613,0.0,-0.0011222300308754611,0.0,366544.411235,7.27884963273E-12,1046.84791464,-5.40977351379,-0.634598439662,6.8934907318
3000.0,2216430.1666,-3553133.56503,-5273752.06184,4076003.61323,943207.769075,-5276962.69395,-1433.46115743,7570.37723654,187.171542885,-5.30393590366,-1.22732442857,6.88679334735,6758225.58324,1.24211126334,1.3353914299504377E-4,-0.1427920219308989,0.00259854234341999,-0.6771856436972087,-0.13903433958431627,1.8530157035520955,0.0,-0.0011222300308754611,0.0,369224.394165,6.75987588455E-12,1039.51506159,-5.30393590366,-1.22732442857,6.88679334735
3060.0,2598120.08969,-3327629.94312,-5250201.31203,3980523.51968,1394868.62757,-5253354.82114,-1747.90325037,7479.12894329,599.365858999,-5.17341041455,-1.81285569018,6.8476298111,6758354.13095,1.24648653242,3.17895150229018E-4,-0.1414870145557409,0.0026542338676843807,-0.6842534168847179,-0.19136894674583227,1.8959724901412025,0.0,-0.0011222300308754611,0.0,371930.993556,6.27537676549E-12,1032.38282367,-5.17341041455,-1.81285569018,6.8476298111
3120.0,2969735.30988,-3089922.09714,-5202023.48432,3866426.33626,1840006.18775,-5205105.12131,-2053.79126761,7353.03334148,1008.24448313,-5.01893149934,-2.38844995005,6.77633939578,6758593.49202,1.25086180151,5.07209539829448E-4,-0.1402402551092848,0.0026960579032828985,-0.6937110622681143,-0.24335198611821643,1.939806842712085,0.0,-0.0011222300308754611,0.0,374653.124366,5.82484509234E-12,1025.4628338,-5.01893149934,-2.38844995005,6.77633939578
3180.0,3329664.23985,-2841039.81557,-5129474.7237,3734267.93468,2276549.11167,-5132470.09334,-2349.71271424,7192.76715937,1411.89372206,-4.84134014961,-2.95143645791,6.67341057946,6758938.5254,1.2552370706,7.005024038731474E-4,-0.13905373552934824,0.002723395396695347,-0.7056749917324735,-0.2948740250430202,1.9847829409325761,0.0,-0.0011222300308754611,0.0,377381.08566,5.40720344927E-12,1018.76097499,-4.84134014961,-2.95143645791,6.67341057946
3240.0,3676344.90652,-2582048.35467,-5032924.96354,3584687.36113,2702471.42454,-5035820.09098,-2634.30861352,6999.16494848,1808.43355247,-4.64157837452,-3.49922696637,6.53947640556,6759382.153,1.25961233969,8.967495081111241E-4,-0.13792916224807739,0.002735708857581919,-0.7202927632859396,-0.34581581606156386,2.031181636030057,0.0,-0.0011222300308754611,0.0,380106.54049,5.02101198571E-12,1012.28058721,-4.64157837452,-3.49922696637,6.53947640556
3300.0,4008271.69668,-2314043.66637,-4912855.65042,3418403.44671,3115801.82929,-4915637.04542,-2906.27939684,6773.21381933,2196.02614538,-4.42068346079,-4.02932610277,6.37530943497,6759915.51854,1.26398760878,0.0010948884727936428,-0.13686795222725695,0.0027325466164266413,-0.7377446853524102,-0.3960456111556838,2.0793038761048335,0.0,-0.0011222300308754611,0.0,382822.464253,4.66462626084E-12,1006.02502313,-4.42068346079,-4.02932610277,6.37530943497
3360.0,4324001.82182,-2038147.58907,-4769856.96706,3236211.07503,3514632.68696,-4772511.68566,-3164.39044295,6516.04757242,2572.88407611,-4.17978202739,-4.53934115745,6.18181631387,6760528.17545,1.26836287786,0.0012938251666717224,-0.13587123034502896,0.002713546470076395,-0.7582452848779269,-0.44541615112807603,2.1294737648371034,0.0,-0.0011222300308754611,0.0,385523.063768,4.33630728588E-12,999.999256373,-4.17978202739,-4.53934115745,6.18181631387
3420.0,4622161.47875,-1755503.0217,-4604624.57302,3038977.12822,3897128.62776,-4607140.27637,-3407.47725465,6228.940259,2937.27819719,-3.92008388293,-5.02699130476,5.96003197244,6761208.29984,1.27273814695,0.0014924402600173265,-0.13493982807904153,0.0026784387000609667,-0.7820442474068974,-0.49376129409043906,2.1820408922694527,0.0,-0.0011222300308754611,0.0,388203.669748,4.03429315741E-12,994.210568191,-3.92008388293,-5.02699130476,5.96003197244
3480.0,4901451.68395,-1467269.10021,-4417955.88385,2827636.13351,4261534.75934,-4420320.89397,-3634.45026104,5913.2992054,3287.54515236,-3.64287569078,-5.49011626521,5.71111346388,6761942.92381,1.27711341604,0.0016895958837630641,-0.13407428342529132,0.0026270484552990865,-0.8094262268499344,-0.5408922778251732,2.2373813630152255,0.0,-0.0011222300308754611,0.0,390860.605867,3.75684346062E-12,988.668517979,-3.64287569078,-5.49011626521,5.71111346388
3540.0,5160653.76096,-1174616.39546,-4210745.91094,2603185.63317,4606184.44146,-4212949.26317,-3844.29923404,5570.65753436,3622.0945102,-3.34951444496,-5.92668440796,5.43633344882,6762718.1849,1.28148868513,0.0018841423445220959,-0.1332748419901758,0.002559297499434813,-0.8407086294148695,-0.5865936672669928,2.295896650205524,0.0,-0.0011222300308754611,0.0,393491.037971,3.50226607971E-12,983.38445107,-3.34951444496,-5.92668440796,5.43633344882
3600.0,5398634.46109,-878722.150287,-3983982.6856,2366681.30142,4929506.59753,-3986014.17752,-4036.09730783,5202.66621723,3939.41549641,-3.04142076036,-6.33480028441,5.13707332885,6763519.58677,1.28586395422,0.002074924847524854,-0.13254145919292448,0.002475205328441662,-0.8762360914513222,-0.6306191339198035,2.3580090159721405,0.0,-0.0011222300308754611,0.0,396092.80733,3.26893335014E-12,978.370765912,-3.04142076036,-6.33480028441,5.13707332885
3660.0,5614350.69947,-580765.573303,-3738742.29179,2119231.83221,5230032.5362,-3740592.52845,-4209.0045903,4811.08569165,4238.08330347,-2.72007198262,-6.71271157455,4.8148160326,6764332.26679,1.2902392233,0.002260790183322728,-0.13187380350842043,0.0023748896705547205,-0.9163699115274581,-0.6726873660964797,2.4241517772227263,0.0,-0.0011222300308754611,0.0,398664.252097,3.05529195193E-12,973.640102722,-2.72007198262,-6.71271157455,4.8148160326
3720.0,5806853.88948,-281923.206139,-3476183.53386,1861993.62291,5506402.25777,-3477843.96903,-4362.27135585,4397.77708066,4516.76495738,-2.38699512591,-7.05881542053,4.47113846042,6765141.26585,1.29461449239,0.0024405933374564066,-0.13127126069037365,0.002258566385460428,-0.961470237109205,-0.7124786350952624,2.4947522326729636,0.0,-0.0011222300308754611,0.0,401204.021292,2.85986906075E-12,969.204555483,-2.38699512591,-7.05881542053,4.47113846042
3780.0,5975293.86024,16635.6196666,-3197542.26605,1596165.27928,5757370.22277,-3199005.23951,-4495.24080965,3964.69305104,4774.22472095,-2.04375965137,-7.37166411525,4.10770359704,6765931.79613,1.29898976148,0.002613203986461397,-0.13073293890538148,0.0021265487830073033,-1.0118685262962939,-0.749632852328906,2.570204785858193,0.0,-0.0011222300308754611,0.0,403710.885784,2.68127608352E-12,965.07496224,-2.04375965137,-7.37166411525,4.10770359704
3840.0,6118922.34345,313753.220508,-2904125.41243,1322981.96754,5981810.56223,-2905384.18302,-4607.35141415,3513.86835054,5009.32901422,-1.69197010397,-7.64997010898,3.72625230704,6766689.50236,1.30336503057,0.0027775128474980195,-0.13025767471888441,0.001979246385470798,-1.0678280504331095,-0.7837503289757446,2.650832041639663,0.0,-0.0011222300308754611,0.0,406183.550707,2.51821063696E-12,961.260296353,-1.69197010397,-7.64997010898,3.72625230704
3900.0,6237096.01754,608287.878275,-2597304.70669,1043709.6403,6178721.71156,-2598353.48098,-4698.13877026,3047.41006617,5221.05083372,-1.33325863133,-7.89261029434,3.32859483442,6767400.71258,1.30774029966,0.002932437853047045,-0.1298440398719305,0.0018171631588540875,-1.1294915110967922,-0.8143968197560832,2.7368329602217183,0.0,-0.0011222300308754611,0.0,408620.473731,2.36945709973E-12,957.767161625,-1.33325863133,-7.89261029434,3.32859483442
3960.0,6329279.09881,899118.023291,-2278510.18227,759639.163094,6347230.45269,-2279344.13891,-4767.23704675,2567.48764809,5408.47365339,-0.969277414213,-8.09862952882,2.91660203465,6768052.67445,1.31211556874,0.003076930126114203,-0.12949034879359594,0.0016408952404641474,-1.1968178447584055,-0.8411146295530593,2.828220151590752,0.0,-0.0011222300308754611,0.0,411019.693418,2.23388593208E-12,954.59938344,-0.969277414213,-8.09862952882,2.91660203465
4020.0,6395045.47151,1185146.26897,-1949223.4445,472080.368817,6486595.35172,-1949838.75401,-4814.37995374,2076.32274598,5570.7947924,-0.601691044614,-8.26724335564,2.4921963758,6768633.77336,1.31649083783,0.003209979735191594,-0.12919466680071667,0.0014511281903969186,-1.2695153353990374,-0.8634413095785558,2.9247534383878553,0.0,-0.0011222300308754611,0.0,413378.67167,2.1104519148E-12,951.757682888,-0.601691044614,-8.26724335564,2.4921963758
4080.0,6434080.35059,1465303.28526,-1610970.75702,182356.067473,6596209.58246,-1611364.59704,-4839.40125835,1576.1789071,5707.32823713,-0.232168893096,-8.3978398878,2.05734275319,6769133.72908,1.32086610692,0.00333062121197649,-0.12895481893623545,0.0012486337946473868,-1.3469846107858312,-0.8809364400317705,3.0258832704844236,0.0,-0.0011222300308754611,0.0,415694.153971,1.99819145218E-12,949.239419006,-0.232168893096,-8.3978398878,2.05734275319
4140.0,6446181.47324,1738551.49894,-1265315.97557,-108203.961274,6675603.12889,-1265486.5415,-4842.23484322,1069.35118721,5817.50690776,0.137622487295,-8.48998082586,1.61403917006,6769543.76781,1.32524137601,0.0034379388178325376,-0.12876839941073512,0.0010342664470368082,-1.428290536351192,-0.8932150022239363,3.130723011666904,0.0,-0.0011222300308754611,0.0,417962.050688,1.89621908428E-12,947.038383874,0.137622487295,-8.48998082586,1.61403917006
4200.0,6431259.81758,2003888.60954,-913853.362588,-398268.965431,6724444.363,-913799.873643,-4822.91431166,558.155726869,5900.88436314,0.506026868984,-8.54340158912,1.16430734418,6769856.76703,1.3296166451,0.0035310715484515812,-0.12863278161225092,8.089591362993312E-4,-1.5121822731221788,-0.8999831605437207,-3.0451159362124183,0.0,-0.0011222300308754611,0.0,420177.342271,1.80372334658E-12,945.144635432,0.506026868984,-8.54340158912,1.16430734418
4260.0,6389339.8493,2260350.9109,-558200.316445,-686513.180894,6742540.9975,-557923.017082,-4781.57214626,44.9193468249,5957.13594151,0.871405714722,-8.55801055013,0.710183306402,6770067.3708,1.33399191418,0.003609217868076706,-0.1285451286588802,5.737190635288315E-4,-1.5971719738118804,-0.9010698719721913,-2.936703848851224,0.0,-0.0011222300308754611,0.0,422334.010654,1.71996209629E-12,943.544352562,0.871405714722,-8.55801055013,0.710183306402
4320.0,6320559.29924,2507016.40942,-199990.049144,-971621.728027,6729840.41619,-199490.205916,-4718.43843145,-468.030783853,5986.05933862,1.23214534252,-8.53388737503,0.253708062483,6770172.07397,1.33836718327,0.0036716401674222166,-0.12850240447376912,3.2962291391790496E-4,-1.6816650560937023,-0.8964470430177564,-2.8287738983460913,0.0,-0.0011222300308754611,0.0,424424.998585,1.64425774957E-12,942.219739675,1.23214534252,-8.53388737503,0.253708062483
4380.0,6225168.47757,2743007.73134,159135.754022,-1252296.41884,6686429.38793,159855.860145,-4633.83915349,-978.377353592,5987.57462932,1.58666383372,-8.47128048619,-0.203081607789,6770169.27374,1.34274245236,0.003717668940735229,-0.12850138536816488,7.781180545649161E-5,-1.7641156712061359,-0.8862329656690683,-2.722825108390036,0.0,-0.0011222300308754611,0.0,426442.198025,1.57605023432E-12,941.156326276,1.58666383372,-8.47128048619,-0.203081607789
4440.0,6103529.13225,2967494.81257,517534.259712,-1527261.44994,6612533.17332,518471.34549,-4528.19409508,-1483.8229363,5961.72374311,1.93341762879,-8.37060367853,-0.65816213868,6770059.28816,1.34711772145,0.0037467066788921923,-0.12853867212450465,-1.8051406407060846E-4,-1.8431705215545071,-0.8706780890887347,-2.620163494742613,0.0,-0.0011222300308754611,0.0,428376.468144,1.51494545735E-12,940.351145432,1.93341762879,-8.37060367853,-0.65816213868
4500.0,5956112.86199,3179697.36607,873568.764374,-1795268.95742,6508514.03628,874718.560828,-4402.01434497,-1982.09979208,5908.66940868,2.27090775937,-8.23243193565,-1.10953187987,6769844.34128,1.35149299054,0.0037582314762439626,-0.12861070257378157,-4.4410105149525237E-4,-1.9177690958356035,-0.8501369484584502,-2.5218014744176567,0.0,-0.0011222300308754611,0.0,430217.682808,1.46059235161E-12,939.798870037,2.27090775937,-8.23243193565,-1.10953187987
4560.0,5783499.09573,3378887.12328,1225615.8934,-2055104.41148,6374869.17565,1226973.16662,-4255.89944559,-2470.97939437,5828.69358663,2.59768567009,-8.05749650738,-1.55521944079,6769528.51529,1.35586825962,0.0037518003495164544,-0.12871376466806117,-7.116479647456404E-4,-1.987185566277233,-0.8250331024592595,-2.4284156009646516,0.0,-0.0011222300308754611,0.0,431954.806883,1.41266831728E-12,939.49001157,2.59768567009,-8.05749650738,-1.55521944079
4620.0,5586372.65275,3564389.8473,1572072.69161,-2305591.82953,6212228.09428,1573631.26774,-4090.53420483,-2948.28164147,5722.195414,2.91235859172,-7.84667932363,-1.99329161395,6769117.67092,1.36024352871,0.0037270522668993705,-0.12884401004901977,-9.818122026571889E-4,-2.05101696052792,-0.7958242030512696,-2.340358007859596,0.0,-0.0011222300308754611,0.0,433576.000073,1.37087970525E-12,939.410961351,2.91235859172,-7.84667932363,-1.99329161395
4680.0,5365520.89914,3735587.11726,1911363.57651,-2545598.78875,6021349.42601,1913116.37072,-3906.68519956,-3411.8837151,5589.68868734,3.21359443576,-7.60100683185,-2.42186082201,6768619.33737,1.3646187978,0.0036837108854380534,-0.12899746811652005,-0.0012532161197319081,-2.109134718158562,-0.7629723965744901,-2.2577044440675422,0.0,-0.0011222300308754611,0.0,435068.746506,1.33495783334E-12,939.543437298,3.21359443576,-7.60100683185,-2.42186082201
4740.0,5121830.51783,3891917.88451,2241947.12764,-2774041.22027,5803117.24241,2243886.17702,-3705.19700033,-3859.72855434,5431.79891441,3.50012619132,-7.32164335541,-2.8390920442,6768042.57407,1.36899406689,0.0036215869940406553,-0.12917006059861974,-0.0015244535974182287,-2.161619603896322,-0.7269225276861826,-2.180318923499005,0.0,-0.0011222300308754611,0.0,436420.007799,1.30463839373E-12,939.861439747,3.50012619132,-7.32164335541,-2.8390920442
4800.0,4856283.91031,4032879.80282,2562322.68701,-2989887.96922,5558536.86332,2564439.18716,-3486.98814748,-4289.83291931,5249.25996675,3.77075581648,-7.00988407674,-3.24320919071,6767397.80667,1.37336933598,0.0035405806585401454,-0.12935761662755108,-0.0017940968031603275,-2.208695936689457,-0.6880882942992024,-2.1079190221406012,0.0,-0.0011222300308754611,0.0,437616.396899,1.27968562271E-12,940.334750679,3.77075581648,-7.00988407674,-3.24320919071
4860.0,4569955.24934,4158030.33583,2871036.74777,-3192165.10671,5288730.19641,2873321.09289,-3253.04690882,-4700.29502522,5042.9103668,4.02435762854,-6.66714775305,-3.63250090771,6766696.64051,1.37774460506,0.0034406830642733093,-0.12955588831783163,-0.002060703117723378,-2.2506746269078324,-0.646845110070241,-2.0401323228233648,0.0,-0.0011222300308754611,0.0,438644.369674,1.26046020055E-12,941.016415316,4.02435762854,-6.66714775305,-3.63250090771
4920.0,4264006.20206,4266987.64635,3166689.11014,-3379959.98137,4994930.63186,3169130.93652,-3004.42684852,-5089.30173411,4813.6892439,4.25988120963,-6.29496927216,-4.00532581101,6765951.65468,1.38211987415,0.0033219780499808152,-0.12976056684336462,-0.002322822210065439,-2.2879087744686117,-0.6035279206508474,-1.9765402458158763,0.0,-0.0011222300308754611,0.0,439490.430931,1.24740691433E-12,941.968252191,4.25988120963,-6.29496927216,-4.00532581101
4980.0,3939681.34355,4359431.27296,3447938.78582,-3552425.00015,4678477.51904,3450527.01848,-2742.24223556,-5455.13529766,4562.63199309,4.47635385605,-5.89499215195,-4.36011716212,6765176.18053,1.38649514324,0.0031846433256805147,-0.12996729900148624,-0.0025790032380702778,-2.3207618103814966,-0.5584322841649166,-1.9167092731311035,0.0,-0.0011222300308754611,0.0,440141.351326,1.24723274996E-12,943.240115413,4.47635385605,-5.89499215195,-4.36011716212
5040.0,3598303.28034,4435102.60027,3713509.63409,-3708781.12944,4340810.25207,3716232.53634,-2467.66331793,-5796.17965076,4290.86566941,4.67288261052,-5.46896107924,-4.6953870151,6764384.06851,1.39087041233,0.0030289513654033497,-0.13017170424860092,-0.0028278021511690186,-2.3495862844882307,-0.5118173564285697,-1.8602114518515993,0.0,-0.0011222300308754611,0.0,440584.391515,1.24843951187E-12,944.877380753,4.67288261052,-5.46896107924,-4.6953870151
5100.0,3241267.50337,4493805.12972,3962195.71458,-3848321.1092,3983461.99115,3965040.94032,-2181.91148626,-6110.92626071,3999.60414824,4.84865592623,-5.01871457204,-5.00972987767,6763589.44734,1.39524568142,0.0028552699641104704,-0.13036939218139906,-0.0030677890693653303,-2.374710826509189,-0.46390980836260337,-1.8066366366717288,0.0,-0.0011222300308754611,0.0,440807.529783,1.25718825399E-12,946.923697905,4.84865592623,-5.01871457204,-5.00972987767
5160.0,2870036.98922,4535404.55835,4192866.34349,-3970412.37416,3608053.04603,4195820.99212,-1886.25434717,-6397.97954163,3690.14307912,5.0029450188,-4.54617783447,-5.30182594189,6762806.47968,1.3996209505,0.0026640624464869677,-0.13055598043293962,-0.003297555710990201,-2.396432938269896,-0.4149080425561194,-1.7555987983553427,0.0,-0.0011222300308754611,0.0,440799.689417,1.27409768111E-12,949.422676082,5.0029450188,-4.54617783447,-5.30182594189
5220.0,2486136.56757,4559828.67307,4404470.84178,-4074499.67706,3216283.94737,4407521.51531,-1582.0007234,-6656.06184727,3363.85465709,5.1351049682,-4.05335585547,-5.57044395077,6762049.11828,1.40399621959,0.0024558875141208487,-0.1307271129399642,-0.0035157228393411797,-2.4150156964773637,-0.3649863337145999,-1.706738301739518,0.0,-0.0011222300308754611,0.0,440550.962084,1.29992199971E-12,952.419031997,5.1351049682,-4.05335585547,-5.57044395077
5280.0,2091147.07205,4567067.06798,4596042.96484,-4160107.41015,2809928.23077,4599175.82714,-1270.4955937,-6884.01805789,3022.18223107,5.24457563502,-3.54232678284,-5.81444377453,6761330.86684,1.40837148868,0.0022313987157606976,-0.1308784785318752,-0.0037209476956382337,-2.4306869171786194,-0.3142986960843816,-1.6597215817962119,0.0,-0.0011222300308754611,0.0,440052.823598,1.33558269172E-12,955.959179867,5.24457563502,-3.54232678284,-5.81444377453
5340.0,1686699.29074,4557170.6921,4766705.00436,-4226841.6214,2390824.95729,4769905.84226,-953.114981657,-7080.81977816,2666.63476442,5.33088245603,-3.01523558216,-6.03277877526,6760664.54913,1.41274675777,0.0019913435249091704,-0.13100582978221176,-0.003911931384436839,-2.4436397514241253,-0.26298239579687677,-1.614239225754525,0.0,-0.0011222300308754611,0.0,439298.338565,1.37216436019E-12,960.090980288,5.33088245603,-3.01523558216,-6.03277877526
5400.0,1274467.73156,4530251.23438,4915671.55395,-4274391.72274,1960870.99347,4918925.83998,-631.26079892,-7245.56916289,2298.78115803,5.39363718102,-2.47428796847,-6.22449803947,6760062.09019,1.41712202686,0.0017365620075643045,-0.13110500205019188,-0.004087426174462412,-2.454034008768404,-0.21116109555569482,-1.5700031384067425,0.0,-0.0011222300308754611,0.0,438282.350554,1.43052894404E-12,964.862180835,5.39363718102,-2.47428796847,-6.22449803947
5460.0,856164.216908,4486480.35234,5042252.93042,-4302531.88754,1522013.07244,5045545.88688,-306.355644449,-7377.50238598,1920.24444136,5.43253860754,-1.92174457661,-6.38874855643,6759534.31297,1.42149729594,0.0014679850630218815,-0.13117193263727156,-0.0042462426768702785,-2.461997745449843,-0.1589476583202886,-1.5267432242007744,0.0,-0.0011222300308754611,0.0,437001.654644,1.50281764136E-12,970.317001798,5.43253860754,-1.92174457661,-6.38874855643
5520.0,433531.321354,4426088.74993,5145858.24274,-4311122.13468,1076239.65734,5149174.90702,20.1624414297,-7475.99276554,1532.69583269,5.44737336235,-1.35991531536,-6.52477741393,6759090.75326,1.42587256503,0.0011866322202331863,-0.13120267996831358,-0.004387256860631497,-2.4676288220446962,-0.10644665693635304,-1.4842038488242082,0.0,-0.0011222300308754611,0.0,435455.149384,1.59086876492E-12,976.4904678,5.44737336235,-1.35991531536,-6.52477741393
5580.0,8335.66539344,4349365.10928,5225998.10097,-4300109.09646,625572.627352,5229323.39169,346.845272268,-7540.55355389,1137.84866547,5.43801676752,-0.791153832186,-6.63193407428,6758739.49587,1.43024783412,8.936089730380493E-4,-0.1311934427045134,-0.004509416863889709,-2.4709962473182445,-0.053756645966859355,-1.4421402272541461,0.0,-0.0011222300308754611,0.0,433643.965465,1.69673995968E-12,983.400616667,5.43801676752,-0.791153832186,-6.63193407428
5640.0,-417638.921712,4256654.88026,5282286.95679,-4269526.46715,172058.806161,5285605.74069,672.239865918,-7570.84039663,737.4521744,5.40443381724,-0.217851999122,-6.70967278112,6758487.03414,1.43462310321,5.901036380695383E-4,-0.13114057868336315,-0.004611749559470913,-2.4721411995216616,-9.722550902807883E-4,-1.4003148094438722,0.0,-0.0011222300308754611,0.0,431571.568625,1.82265444823E-12,991.039684604,5.40443381724,-0.217851999122,-6.70967278112
5700.0,-842598.357153,4148358.93063,5314445.06704,-4219495.12866,-282238.64707,5317742.22624,994.893857222,-7566.65345891,333.285132232,5.34668027712,0.35756568184,-6.75755513289,6758338.15499,1.4389983723,2.7738372098020194E-4,-0.13104062357796672,-0.0046933668317506675,-2.4710776627739666,0.05181383619228279,-1.3584936871751216,0.0,-0.0011222300308754611,0.0,429243.834607,1.97092280777E-12,999.366514688,5.34668027712,0.35756568184,-6.75755513289
5760.0,-1264745.3645,4024932.05857,5322300.07093,-4150222.94942,-735248.964183,5325560.5704,1313.36098029,-7527.93921091,-72.8506733282,5.26490390279,0.932647864268,-6.7752528417,6758295.85098,1.44337364138,-4.320822157493705E-5,-0.13089030916173588,-0.004753471523078127,-2.467792647619281,0.10450898345458026,-1.316443018012834,0.0,-0.0011222300308754611,0.0,426669.094256,2.14385633617E-12,1008.30309239,5.26490390279,0.932647864268,-6.7752528417
5820.0,-1682286.62433,3886881.36886,5305788.17108,-4062004.25208,-1184902.59105,5308997.12603,1626.20662704,-7454.79185763,-479.137133883,5.1593457592,1.50492244825,-6.76255067786,6758361.26064,1.44774891047,-3.7025923403583586E-4,-0.13068658105699243,-0.004791363008252952,-2.462245986125175,0.15701866331840078,-1.2739254496177,0.0,-0.0011222300308754611,0.0,423858.147184,2.3436957275E-12,1017.73748958,5.1593457592,1.50492244825,-6.76255067786
5880.0,-2093440.00025,3734764.51245,5264954.90779,-3955218.94525,-1629140.08518,5268097.65069,1932.01348714,-7347.45439109,-883.746696408,5.03034160627,2.07190309114,-6.71934958081,6758533.6381,1.45212417956,-7.02291134906584E-4,-0.13042661584861964,-0.0048064423570870615,-2.4543697103185607,0.20924450198574565,-1.2306965274082642,0.0,-0.0011222300308754611,0.0,420824.242758,2.57257536386E-12,1027.53341565,5.03034160627,2.07190309114,-6.71934958081
5940.0,-2496441.82393,3569187.78933,5199955.51522,-3830331.31434,-2065921.06443,5203017.66228,2229.38727178,-7206.31923668,-1284.84943004,4.87832330139,2.63109624747,-6.64566989712,6758810.35235,1.45649944865,-0.0010377662134350332,-0.13010783743587756,-0.0047982170467936154,-2.4440670442929555,0.2610821872644989,-1.1865010808427487,0.0,-0.0011222300308754611,0.0,417583.027548,2.83252767172E-12,1037.54397289,4.87832330139,2.63109624747,-6.64566989712
6000.0,-2889554.22028,3390804.11321,5111054.84807,-3687888.46649,-2493233.18149,5114022.36479,2516.96252067,-7031.92845854,-1680.62028952,4.70382015531,3.18000883835,-6.54165468696,6759186.91672,1.46087471774,-0.0013750934488867643,-0.12972793249759096,-0.004766305188703221,-2.4312110705849475,0.3124192043780961,-1.1410696104705609,0.0,-0.0011222300308754611,0.0,414152.458783,3.12551177489E-12,1047.62565803,4.70382015531,3.18000883835,-6.54165468696
6060.0,-3271072.45243,3200310.83683,4998626.86668,-3528518.42462,-2909101.09643,5001486.13229,2793.40848703,-6824.97348388,-2069.24657721,4.5074601651,3.71615663649,-6.40757302133,6759657.04818,1.46524998683,-0.001712635246255699,-0.12928486494382457,-0.004710439236425373,-2.415643177738733,0.3631323361129834,-1.0941147447812702,0.0,-0.0011222300308754611,0.0,410552.683784,3.45343810334E-12,1057.64904957,4.5074601651,3.71615663649,-6.40757302133
6120.0,-3639332.26315,2998447.4364,4863153.66887,-3352927.86641,-3311595.41721,4865891.53936,3057.43509074,-6586.29430075,-2448.93560032,4.28997103707,4.2370734359,-6.24382317519,6760212.75638,1.46962525591,-0.002048714677251193,-0.1287768892311745,-0.00463046914620339,-2.3971714688450905,0.4130848708847026,-1.0453279103677204,0.0,-0.0011222300308754611,0.0,406805.885868,3.81816173075E-12,1067.50448199,4.28997103707,4.2370734359,-6.24382317519
6180.0,-3992717.1871,2785993.05342,4705224.05693,-3161899.50428,-3698841.57495,4707827.92634,3307.79892418,-6316.87808106,-2817.92251386,4.05218090372,4.74032105338,-6.05093560648,6760844.46156,1.474000525,-0.0023816232095916034,-0.1282025624153139,-0.004526364963649453,-2.3755694212332346,0.46212347125243924,-0.9943764729859594,0.0,-0.0011222300308754611,0.0,402936.097676,4.22142836644E-12,1077.10303159,4.05218090372,4.74032105338,-6.05093560648
6240.00000001,-4329665.80519,2563763.89326,4525531.62916,-2956289.10404,-4069028.59821,4527989.48893,3543.30928937,-6017.85717772,-3174.47833292,3.79501863269,5.22350018492,-5.82957559772,6761541.14051,1.47837579409,-0.0027096289018382538,-0.12756075482315776,-0.004398218815304905,-2.3505752533875377,0.5100746752040791,-0.9409017756637871,0.0,-0.0011222300308754611,0.0,398968.983471,4.66476993425E-12,1086.37433306,3.79501863269,5.22350018492,-5.82957559772
6300.00000001,-4648678.90949,2332610.47961,4324872.38649,-2737022.14105,-4420417.7469,4327172.88249,3762.83423878,-5690.50644496,-3516.91808992,3.51951362205,5.68426211236,-5.58054542713,6762290.49911,1.48275106318,-0.003030985034776386,-0.12685065922805883,-0.004246246287607436,-2.3218926916532174,0.5567410408949324,-0.8845187404619992,0.0,-0.0011222300308754611,0.0,394931.592503,5.14935574831E-12,1095.26294185,3.51951362205,5.68426211236,-5.58054542713
6360.00000001,-4948326.54437,2093414.76565,4104141.84638,-2505090.09458,-4751350.96398,4106274.3334,3965.3065858,-5336.23983137,-3843.60910465,3.2267949758,6.12032122671,-5.3047859293,6763079.16986,1.48712633227,-0.0033439391441956643,-0.12607179841668245,-0.004070787179808674,-2.289194154031049,0.6018970136347614,-0.8248180281727289,0.0,-0.0011222300308754611,0.0,390852.086122,5.67580942919E-12,1103.72453971,3.2267949758,6.12032122671,-5.3047859293
6420.00000001,-5227254.88647,1847087.10318,3864331.65839,-2261546.38355,-5060259.0996,3866286.2518,4149.72984447,-4956.60619868,-4152.97932592,2.91808995602,6.52946830311,-5.00337730212,6763892.93223,1.49150160135,-0.003646742413187556,-0.12522403104266655,-0.0038723056221504275,-2.252127782667429,0.6452847067916787,-0.7613721674969005,0.0,-0.0011222300308754611,0.0,386759.441948,6.24400281078E-12,1111.72270482,2.91808995602,6.52946830311,-5.00337730212
6480.00000001,-5484192.92376,1594563.07294,3606525.71866,-2007501.94906,-5345669.8602,3608293.34288,4315.18405232,-4553.28432379,-4443.52569556,2.59472161393,6.90958443072,-4.67753901747,6764716.95334,1.49587687044,-0.003937659376141069,-0.12430755567281823,-0.0036513895543253986,-2.210330228757665,0.6866099639663257,-0.6937475399130256,0.0,-0.0011222300308754611,0.0,382683.138943,6.85283843534E-12,1119.22650188,2.59472161393,6.90958443072,-4.67753901747
6540.00000001,-5717958.89135,1336800.18065,3331895.78355,-1744120.49242,-5606215.43216,3333468.21715,4460.83142403,-4128.0770485,-4713.82247665,2.25810551167,7.2586554687,-4.32862869836,6765536.04592,1.50025213953,-0.004214977880226907,-0.12332291293858126,-0.0034087495633496985,-2.1634475191789138,0.7255393244978586,-0.6215245344985492,0.0,-0.0011222300308754611,0.0,378652.827835,7.50003313855E-12,1126.20886551,2.25810551167,7.2586554687,-4.32862869836
6600.00000001,-5927466.42003,1074774.42499,3041696.58657,-1472613.38036,-5840639.72834,3043066.50365,4585.92177933,-3682.90455005,-4962.52948015,1.90974545901,7.57478686777,-3.9581398342,6766334.93985,1.50462740862,-0.004477019244383091,-0.12227098571371056,-0.003145217083657152,-2.1111664825570795,0.7616988511070907,-0.544328337263985,0.0,-0.0011222300308754611,0.0,374697.991815,8.18191695261E-12,1132.64562113,1.90974545901,7.57478686777,-3.9581398342
6660.00000001,-6111730.35184,809476.746253,2737260.46686,-1194234.23297,-6047805.20393,2738421.47449,4689.79768398,-3219.79671608,-5188.40011673,1.55122820605,7.85621866701,-3.56769822066,6767098.56345,1.50900267771,-0.004722148549985664,-0.1211529972614307,-0.0028617419657334755,-2.0532586723973028,0.7946761650237044,-0.4618722808292997,0.0,-0.0011222300308754611,0.0,370847.602885,8.89326368013E-12,1138.51495277,1.55122820605,7.85621866701,-3.56769822066
6720.00000001,-6269872.1763,541909.365674,2419991.52198,-910273.21324,-6226699.18778,2420938.19343,4771.89923991,-2740.88461989,-5390.28919428,1.18421705215,8.10134044841,-3.15905702913,6767812.32965,1.51337794679,-0.004948784992850274,-0.11997050729819474,-0.002559389422366044,-1.9896369042150988,0.8240273690371872,-0.37401386181170687,0.0,-0.0011222300308754611,0.0,367129.779576,9.62717124145E-12,1143.7971361,1.18421705215,8.10134044841,-3.15905702913
6780.00000001,-6401125.0406,273082.028466,2091359.30286,-622051.041495,-6376439.67556,2092087.20638,4831.76845896,-2248.39110567,-5567.16037662,0.810444354535,8.30870600793,-2.73409043486,6768462.42189,1.51775321588,-0.0051554122213409315,-0.11872540594402411,-0.002239336364377489,-1.9204208305059611,0.849290618026923,-0.2808198404670666,0.0,-0.0011222300308754611,0.0,363571.451989,1.03750103364E-11,1148.4743758,0.810444354535,8.30870600793,-2.73409043486
6840.00000001,-6504838.28774,4008.16509499,1752892.07379,-330912.761451,-6496280.53181,1753397.79675,4869.05315426,-1744.62050847,-5718.09321555,0.431702945577,8.47704748339,-2.29478576089,6769036.07421,1.52212848497,-0.005340588581592343,-0.11741990554860805,-0.0019028671399279255,-1.846002298404021,0.8700076132783615,-0.18263115978046443,0.0,-0.0011222300308754611,0.0,360198.040207,1.11264569579E-11,1152.5305567,0.431702945577,8.47704748339,-2.29478576089
6900.00000001,-6580481.47783,-264299.012165,1406169.6657,-38221.2889211,-6585616.05028,1406450.83387,4883.51028473,-1231.94754952,-5842.28966664,0.0498364956047,8.60528866744,-1.84323412771,6769521.83941,1.52650375406,-0.005502957188234231,-0.11605653039874796,-0.0015513686933625623,-1.7670947509821782,0.8857529413263726,-0.0801119379063854,0.0,-0.0011222300308754611,0.0,357033.152083,1.18696315315E-11,1155.95112396,0.0498364956047,8.60528866744,-1.84323412771
6960.00000001,-6627647.85024,-530830.458436,1052815.9564,254649.222214,-6643984.82455,1052871.2482,4875.00869138,-712.805464119,-5939.07999972,-0.333271112541,8.69255722884,-1.38161963388,6769909.83903,1.53087902315,-0.005641255736510212,-0.1146381043378643,-0.001186325161197608,-1.6847467526951019,0.8961688839083868,0.02573739177391408,0.0,-0.0011222300308754611,0.0,354098.306198,1.25913810393E-11,1158.72384392,-0.333271112541,8.69255722884,-1.38161963388
7020.00000001,-6646057.18701,-794585.270397,694491.016643,546320.158523,-6671072.88522,694320.172261,4843.53116863,-189.673435942,-6007.92801763,-0.715707301189,8.73819556886,-0.912207131335,6770191.98876,1.53525429223,-0.005754325970793712,-0.11316773635097332,-8.093119238776098E-4,-1.6003022577459534,0.9010005952779264,0.13362018048767338,0.0,-0.0011222300308754611,0.0,351412.685416,1.3277681046E-11,1160.83944304,-0.715707301189,8.73819556886,-0.912207131335
7080.00000001,-6635558.04234,-1054574.66294,332882.966008,835415.328616,-6666716.06448,332486.791218,4789.175821,334.936572638,-6048.43550177,-1.09554308256,8.74177005288,-0.437328698374,6770362.19298,1.53962956132,-0.005841122724451014,-0.11164880419140424,-4.2198913352211914E-4,-1.51530238754979,0.9001245624998307,0.24204214250254724,0.0,-0.0011222300308754611,0.0,348992.925921,1.39141388612E-11,1162.29190961,-1.09554308256,8.74177005288,-0.437328698374
7140.00000001,-6596129.30739,-1309825.92455,-30300.412848,1120567.90363,-6630901.55495,-30920.0481911,4712.15666337,858.493489317,-6060.34581052,-1.47084595807,8.70307837929,0.0406310479569,6770416.50256,1.54400483041,-0.005900722446525137,-0.11008493615327866,-2.6094738411554732E-5,-1.4313427302856523,0.8935634373664488,0.3494544048436992,0.0,-0.0011222300308754611,0.0,346852.945949,1.44865766747E-11,1163.07858961,-1.47084595807,8.70307837929,0.0406310479569
7200.00000001,-6527881.08545,-1559386.32675,-393340.248707,1400427.37022,-6563768.6364,-394180.417572,4612.80343319,1378.46118165,-6043.54656581,-1.83969325583,8.62215488023,0.519250621395,6770353.23042,1.5483800995,-0.0059323311334369975,-0.10847999111401964,3.765629736231039E-4,-1.3499176292320088,0.8814832650486611,0.45440956642810426,0.0,-0.0011222300308754611,0.0,345003.817577,1.49816606916E-11,1163.20014094,-1.83969325583,8.62215488023,0.519250621395
7260.00000001,-6431054.85855,-1802326.96225,-754515.288816,1673666.4481,-6465608.55124,-755572.01929,4491.56059423,1892.31275864,-5998.0713754,-2.20018571046,8.49927358965,0.996088106351,6770173.02046,1.55275536859,-0.005935291586588024,-0.10683803699768689,7.84113289887992E-4,-1.2722884101621394,0.8641738706425068,0.5556938214381083,0.0,-0.0011222300308754611,0.0,343453.684033,1.53875335532E-11,1162.6604063,-2.20018571046,8.49927358965,0.996088106351
7320.00000001,-6306022.93355,-2037746.48653,-1112110.67933,1938987.9233,-6336863.51773,-1113378.97227,4348.98552339,2397.54498635,-5924.10055148,-2.55046107583,8.33494896322,1.46869812931,6769878.86608,1.55713063767,-0.005909089921024555,-0.1051633278327982,0.0011946314210800018,-1.1994025350018849,0.8420175459081493,0.6524081647875125,0.0,-0.0011222300308754611,0.0,342207.723924,1.56944026244E-11,1161.46626055,-2.55046107583,8.33494896322,1.46869812931
7380.00000001,-6153287.16269,-2264774.73782,-1464426.75819,2195131.34825,-6178124.87852,-1465900.61017,4185.74588523,2891.69267467,-5821.96080158,-2.88870755451,8.1299341894,1.93464910284,6769476.0764,1.56150590676,-0.005853361256153682,-0.1034602795936566,0.0016061472570398985,-1.1318714846211748,0.8154532930515758,0.7439908821253904,0.0,-0.0011222300308754611,0.0,341268.162756,1.58950372181E-11,1159.62748282,-2.88870755451,8.1299341894,1.93464910284
7440.00000001,-5973476.9411,-2482576.21125,-1809787.79846,2440879.56031,-5990130.39036,-1811460.22989,4002.61621161,3372.34289027,-5692.12388328,-3.21317682842,7.88521709021,2.3915404718,6768972.18904,1.56588117585,-0.005767894525137624,-0.1017334450361931,0.0020166545019710824,-1.069997409458439,0.7849432725168023,0.8301912912073944,0.0,-0.0011222300308754611,0.0,340634.330994,1.59851338529E-11,1157.15669557,-3.21317682842,7.88521709021,2.3915404718
7500.00000001,-5767346.49115,-2690353.36453,-2146550.64025,2675064.97198,-5773760.66987,-2148413.72854,3800.47371663,3837.14885258,-5535.20423102,-3.52219648357,7.60201367001,2.83701968947,6768376.83039,1.57025644494,-0.005652636347639713,-0.09998748774980766,0.002424120158628558,-1.0138294291804992,0.7509457360009542,0.9110138594812524,0.0,-0.0011222300308754611,0.0,340302.766875,1.59635196805E-11,1154.06940145,-3.52219648357,7.60201367001,2.83701968947
7560.00000001,-5535771.45066,-2887349.73374,-2473113.15001,2896575.58814,-5530034.81854,-2475158.06758,3580.29338914,4283.84337495,-5351.95557899,-3.81418163797,7.28175942955,3.26879865906,6767701.52582,1.57463171403,-0.0055076939181697765,-0.09822715565611531,0.0028264943282431975,-0.9632304375246121,0.71389603199762,0.9866518482533656,0.0,-0.0011222300308754611,0.0,340267.361183,1.58321789246E-11,1150.3841353,-3.81418163797,7.28175942955,3.26879865906
7620.00000001,-5279744.78896,-3072852.84048,-2787922.44841,3104360.70838,-5260105.25819,-2790139.50534,3343.14241575,4710.25172177,-5143.2666199,-4.08764560477,6.92609861628,3.68466939381,6766959.46358,1.57900698311,-0.005333336871422223,-0.0964572541910895,0.0032217202894648184,-0.9179405969246164,0.6741952431676046,1.057424306117808,0.0,-0.0011222300308754611,0.0,340519.540277,1.55961035514E-11,1146.12273439,-4.08764560477,6.92609861628,3.68466939381
7680.00000001,-5000372.08132,-3246196.87373,-3089482.85028,3297436.27622,-4965251.8154,-3091861.54134,3090.17399648,5114.30376401,-4910.15575307,-4.34120945163,6.53687162908,4.08251867521,6766165.21808,1.5833822522,-0.005129998095599479,-0.09468261940796759,0.0036077448162094086,-0.8776301812303392,0.6322049510440693,1.1237237614857667,0.0,-0.0011222300308754611,0.0,341048.482879,1.52629851993E-11,1141.31071613,-4.34120945163,6.53687162908,4.08251867521
7740.00000001,-4698866.1777,-3406765.13244,-3376363.46402,3474889.84076,-4646875.10038,-3378892.51985,2822.62062273,5494.04533002,-4653.76498791,-4.57361035085,6.11610083283,4.46034152306,6765334.43939,1.58775752129,-0.004898273474312697,-0.09290809123199983,0.003982528689812122,-0.8419395437457216,0.5882463486512888,1.1859768461721454,0.0,-0.0011222300308754611,0.0,341841.365495,1.48427785266E-11,1135.97773873,-4.57361035085,6.11610083283,4.46034152306
7800.00000001,-4376541.30701,-3553992.21796,-3647205.40207,3635885.10076,-4306489.23112,-3649872.84416,2541.78689242,5847.64866448,-4375.3530786,-4.78370865068,5.66597506439,4.81625333082,6764483.51676,1.59213279038,-0.004638920548071296,-0.09113848709201516,0.004344057357369047,-0.8105070603463328,0.5426021077730778,1.244617010755871,0.0,-0.0011222300308754611,0.0,342883.630831,1.43471750083E-11,1130.15810777,-4.78370865068,5.66597506439,4.81625333082
