time,gePosition_m_X,gePosition_m_Y,gePosition_m_Z,eiPosition_m_X,eiPosition_m_Y,eiPosition_m_Z,eiVelocity_m_s_X,eiVelocity_m_s_Y,eiVelocity_m_s_Z,eiAccel_m_s2_X,eiAccel_m_s2_Y,eiAccel_m_s2_Z,semiMajorAxis_m,gast_rad,eulerAngle_rad_Roll,eulerAngle_rad_Pitch,eulerAngle_rad_Yaw,eulerAngleWrtEi_rad_Roll,eulerAngleWrtEi_rad_Pitch,eulerAngleWrtEi_rad_Yaw,bodyAngularRateWrtEi_rad_s_Roll,bodyAngularRateWrtEi_rad_s_Pitch,bodyAngularRateWrtEi_rad_s_Yaw,altitudeMsl_m,airDensity_kg_m3,ambientTemperature_dgK,eiGravitation_m_s2_X,eiGravitation_m_s2_Y,eiGravitation_m_s2_Z
0.0,-1436381.46541304,4185811.71030584,5163944.67156165,-4315967.74,960356.2,5167269.53,129.091037,-7491.513855,1452.515654,5.45462518435414,-1.21381527298493,-6.54922149284644,6759053.07578957,1.02331944621101,-0.0,-0.202458193231342,-0.0,-2.47159390556423,-0.0371889647578404,-1.42899313520437,0.0,-0.0011222300308759,0.0,434989.540811728,1.6157E-12,978.026450176724,5.45462518435414,-1.21381527298493,-6.54922149284644
60.0,-1794959.85118696,3943151.69698813,5239238.32483563,-4298410.79384754,509021.634346363,5242566.73971464,455.965809361531,-7547.27269525242,1056.37889919956,5.43715591241483,-0.643958158928363,-6.65045646242312,6758724.59329357,1.02769471546425,-3.1574667406E-6,-0.202437024900402,-9.14134453819E-5,-2.47204519440808,0.0156059020283289,-1.38719418368879,0.0,-0.0011222300308759,0.0,433110.277170443,1.7261E-12,985.077684628796,5.43715591241483,-0.643958158928363,-6.65045646242312
120.0,-2147589.78573838,3685729.36872148,5290614.34544172,-4261287.36372728,55369.9958934523,5293931.1656604,781.064622553227,-7568.71040623559,655.051475433371,5.39543349592851,-0.0701806885249555,-6.72216519929976,6758494.04729204,1.0320699847175,-1.26853578703E-5,-0.202371163933898,-1.824278559E-4,-2.4702868220478,0.0683734663492738,-1.34532626635134,0.0,-0.0011222300308759,0.0,430971.345052356,1.8571E-12,992.845619163853,5.39543349592851,-0.0701806885249555,-6.72216519929976
180.0,-2492787.67499315,3414636.82678624,5317814.66889311,-4204747.62404615,-398533.846391689,5321104.78148061,1102.9344581555,-7555.6646098035,250.318011019183,5.32954563496048,0.505084349726097,-6.76393085538053,6758365.95841785,1.03644525395931,-2.8624022585E-5,-0.202257217057616,-2.721933869542E-4,-2.46629730751523,0.12102070149968,-1.30315482430808,0.0,-0.0011222300308759,0.0,428579.183576013,2.0109E-12,1001.28174193109,5.32954563496048,0.505084349726097,-6.76393085538053
240.0,-2829089.64629834,3131016.08597799,5320688.92490484,-4129028.7169871,-850619.675813143,5323937.32255234,1420.13033621441,-7508.11967688412,-156.015176522966,5.23967278024421,1.07937913131264,-6.7754477805482,6758343.10823095,1.04082052320969,-5.09559000889E-5,-0.202091992689214,-3.59866391452E-4,-2.46002784010144,0.173452091771071,-1.26044066321393,0.0,-0.0011222300308759,0.0,425942.6975227,2.1899E-12,1010.30115979252,5.23967278024421,1.07937913131264,-6.7754477805482
300.0,-3155057.47538943,2836054.70355792,5299195.53702483,-4034454.10251308,-1298820.77422339,5302387.385449,1731.22091728328,-7426.208042173,-562.126839374876,5.12608937638778,1.65022710419362,-6.75652444780247,6758426.4737642,1.04519579246293,-7.96049107074E-5,-0.201872518111964,-4.446152933959E-4,-2.45140153205805,0.225567630798527,-1.21693635378426,0.0,-0.0011222300308759,0.0,423073.263127394,2.3963E-12,1019.78697752724,5.12608937638778,1.65022710419362,-6.75652444780247
360.0,-3469284.52402956,2530981.25407813,5253402.41164237,-3921432.56998055,-1741082.8355968,5256523.1165193,2034.79418047171,-7310.21112855062,-966.187737989426,4.98916514590017,2.21513970683328,-6.70708651276963,6758615.18908019,1.04957106170188,-1.144362183995E-4,-0.201596055995599,-5.256263880526E-4,-2.44031230013045,0.277260684707756,-1.1723826141693,0.0,-0.0011222300308759,0.0,419984.70069152,2.6323E-12,1029.60092351848,4.98916514590017,2.21513970683328,-6.70708651276963
420.0,-3770401.67249541,2217060.65664994,5183487.20537408,-3790456.90675355,-2175372.92268369,5186522.4785782,2329.46317866932,-7160.55985357135,-1366.36776645216,4.82936636899242,2.77162359767568,-6.62717997337952,6758906.53518152,1.05394633095227,-1.552563766311E-4,-0.201260120148787,-6.021095275499E-4,-2.42662344889344,0.328415660266569,-1.12650470862727,0.0,-0.0011222300308759,0.0,416693.213323114,2.8997E-12,1039.59737372585,4.82936636899242,2.77162359767568,-6.62717997337952
480.0,-4057083.22946013,1895589.36079445,5089737.15947328,-3642102.21922892,-2599688.4406904,5092673.08435122,2613.87186899674,-6977.83468443125,-1760.84326916007,4.64725710047287,3.31718849154584,-6.51697437712404,6759295.95937426,1.05832160020265,-2.018138677765E-4,-0.200862490384617,-6.733036529455E-4,-2.41016608239322,0.378905419131066,-1.07900895141219,0.0,-0.0011222300308759,0.0,413217.291533899,3.2007E-12,1049.63676097647,4.64725710047287,3.31718849154584,-6.51697437712404
540.0,-4328052.79863512,1567890.39904114,4972548.48974196,-3477023.90191293,-3012066.09974842,4975371.58514681,2886.7010126245,-6762.76520238799,-2147.80454963468,4.44350025216112,3.84935568789056,-6.3767660049412,6759777.12489344,1.06269686945303,-2.538000442631E-4,-0.20040122637824,-7.384821361336E-4,-2.39073755366846,0.428588383753805,-1.02957949034328,0.0,-0.0011222300308759,0.0,409577.583875671,3.5372E-12,1059.59514428981,4.44350025216112,3.84935568789056,-6.3767660049412
600.0,-4582089.0805327,1235308.31382004,4832425.32051495,-3295955.25067793,-3410590.83545012,4835122.60332208,3146.67413344695,-6516.22913293485,-2525.46356749073,4.21885845753454,4.36566736095455,-6.20698094295382,6760341.9912614,1.06707213870913,-3.10850477417E-4,-0.19987468039469,-7.969578981691E-4,-2.36810028788341,0.477305292218586,-0.977875673880646,0.0,-0.0011222300308759,0.0,405796.734282529,3.9109E-12,1069.36871121084,4.21885845753454,4.36566736095455,-6.20698094295382
660.0,-4818031.58469499,899203.967949495,4669978.1516923,-3099704.71711432,-3793404.65399099,4672537.19751451,3392.56351979046,-6239.25079437553,-2892.06181374805,3.97419462527116,4.86369666295569,-6.00817793662637,6760980.92545239,1.0714474079538,-3.725467178445E-4,-0.199281508764711,-8.480882735141E-4,-2.34198150063523,0.524875583926551,-0.923530494777508,0.0,-0.0011222300308759,0.0,401899.187297448,4.3237E-12,1078.87388027388,3.97419462527116,4.86369666295569,-6.00817793662637
720.0,-5034786.22535559,560949.24991454,4485921.8485851,-2889152.80201523,-4158715.36553834,4488330.85040153,3623.1962474858,-5932.99891505542,-3245.87834789103,3.71047208044038,5.34105866822133,-5.78105090702468,6761682.8434777,1.07582267720419,-4.384184682708E-4,-0.198620681987915,-8.91279593332E-4,-2.31207459618586,0.571093444366587,-0.866150869914795,0.0,-0.0011222300308759,0.0,397910.962900615,4.7769E-12,1088.04463555142,3.71047208044038,5.34105866822133,-5.78105090702468
780.0,-5231330.77146322,221921.685390012,4281073.14555699,-2665248.58751805,-4504805.16642755,4283320.96996876,3837.46019638666,-5598.78376861614,-3585.23797247496,3.42875418681404,5.79542215937026,-5.52643099644381,6762435.3814806,1.08019794645171,-5.079461674565E-4,-0.197891493345225,-9.259914642603E-4,-2.27804338383753,0.615723617558486,-0.805320872515965,0.0,-0.0011222300308759,0.0,393859.403215307,5.2718E-12,1096.82874864366,3.42875418681404,5.79542215937026,-5.52643099644381
840.0,-5406720.11918237,-116501.029705485,4056347.65614094,-2429005.90929476,-4830039.02776392,4058423.89696572,4034.31002594285,-5238.05357746541,-3908.51951281824,3.13020334159431,6.22452222642583,-5.24528800140633,6763225.09484222,1.08457321569067,-5.805639804667E-4,-0.197093565907285,-9.517407225552E-4,-2.23953068907121,0.658497225379113,-0.740609474166217,0.0,-0.0011222300308759,0.0,389772.893937397,5.8088E-12,1105.18404985008,3.13020334159431,6.22452222642583,-5.24528800140633
900.0,-5560091.35327248,-452946.558512751,3812756.38451532,-2181499.17244256,-5132872.84509205,3814651.41343418,4212.77306893684,-4852.39013737656,-4214.16416061704,2.81607923522078,6.62617361686768,-4.93873104560803,6764037.68315559,1.08894848494105,-6.556631878159E-4,-0.196226857831733,-9.681050465946E-4,-2.196173409611,0.699108032028696,-0.67158483010693,0.0,-0.0011222300308759,0.0,385680.563905657,6.3875E-12,1113.0754122442,2.81607923522078,6.62617361686768,-4.93873104560803
960.0,-5690668.56164063,-786053.496481094,3551401.73595834,-1923858.81736997,-5411861.30110183,3553106.74993129,4371.95509618987,-4443.50362088601,-4500.68383142062,2.48773627420067,6.99828473991215,-4.60800834445575,6764858.23823423,1.09332375419143,-7.325959625806E-4,-0.195291665850716,-9.747262138148E-4,-2.14762643769659,0.737209873135493,-0.597837514579657,0.0,-0.0011222300308759,0.0,381611.966787042,7.0066E-12,1120.47247754798,2.48773627420067,6.99828473991215,-4.60800834445575
1020.0,-5797767.36595099,-1114476.96626141,3273473.02716653,-1657266.44498428,-5665665.39099472,3274980.0923386,4511.04589918349,-4013.22652402375,-4766.66947710228,2.14662007437755,7.33887219279656,-4.25450591697272,6765671.51160281,1.09769902344753,-8.106795212774E-4,-0.194288626860563,-9.713129904322E-4,-2.09359785573924,0.772416327370421,-0.519015100770587,0.0,-0.0011222300308759,0.0,377596.749377588,7.6636E-12,1127.34826057952,2.14662007437755,7.33887219279656,-4.25450591697272
1080.0,-5880799.13007607,-1436894.21148765,2980241.50110692,-1382949.61382816,-5893059.55826641,2981543.59293431,4629.32463237948,-3563.506729904,-5010.79928606775,1.79426294585687,7.64607564176286,-3.87974511048654,6766462.19719552,1.10207429269791,-8.892006307905E-4,-0.193218717538054,-9.576436445895E-4,-2.03389693995749,0.804304094033324,-0.43486960893458,0.0,-0.0011222300308759,0.0,373664.311496989,8.3543E-12,1133.67830693311,1.79426294585687,7.64607564176286,-3.87974511048654
1140.0,-5939274.80774137,-1752010.16247832,2673054.85533933,-1102176.32543782,-6092938.38739439,2674145.89467592,4726.16485281628,-3096.39967375111,-5231.8466963016,1.43227830892038,7.91817285718959,-3.48537881894306,6767215.22428489,1.10644956193401,-9.674204500052E-4,-0.192083251922769,-9.33568075017E-4,-1.96849415270044,0.832421822232592,-0.345316993749331,0.0,-0.0011222300308759,0.0,369843.462861589,9.0732E-12,1139.44027470687,1.43227830892038,7.91817285718959,-3.48537881894306
1200.0,-5972808.39082434,-2058562.94551259,2353331.29743871,-816249.218037382,-6264322.799373,2354206.18233676,4801.03919156677,-2614.0596068865,-5428.68813981179,1.06235400245999,8.15359467242195,-3.0731862969554,6767916.05502005,1.11082483119011,-0.0010445796811634,-0.190883876921837,-8.990095483162E-4,-1.89758795589182,0.856306076248994,-0.25050349481431,0.0,-0.0011222300308759,0.0,366162.082636695,9.8129E-12,1144.61375075168,1.06235400245999,8.15359467242195,-3.0731862969554
1260.0,-5981119.92016651,-2355329.30605409,2022553.14619153,-526499.492662527,-6406365.69632126,2023207.77918715,4853.52359009234,-2118.72997180787,-5600.31043193852,0.686244472303038,8.35093961086756,-2.64506649858941,6768550.98039789,1.11520010044049,-0.0011199040021747,-0.18962256571247,-8.539660385451E-4,-1.82166713533876,0.875505392693571,-0.150867532462496,0.0,-0.0011222300308759,0.0,362646.787573537,1.05643E-11,1149.18013978451,0.686244472303038,8.35093961086756,-2.64506649858941
1320.0,-5964038.02319886,-2641129.91159083,1682260.00253849,-234280.59983094,-6518357.00258777,1682691.31321234,4883.30103462179,-1612.73291640931,-5745.81771567029,0.305761855608465,8.50898790739527,-2.20302990189484,6769107.40806332,1.11957536967945,-0.0011926097474712,-0.188301609038383,-7.985111628108E-4,-1.74155113754674,0.889611721282009,-0.0471796437190514,0.0,-0.0011222300308759,0.0,359322.614710768,1.13167E-11,1153.12243167697,0.305761855608465,8.50898790739527,-2.20302990189484
1380.0,-5921501.94405266,-2914834.50180002,1334041.51967309,59038.281158543,-6599728.05196164,1334247.4822998,4890.16472357321,-1098.45799219119,-5864.43786984057,-0.0772339916211539,8.62671463940631,-1.749188816487,6769574.13507151,1.12395063893269,-0.0012619098012543,-0.186923604418442,-7.327947061895E-4,-1.65838836912129,0.898296021828842,0.0594595977067839,0.0,-0.0011222300308759,0.0,356212.72455003,1.20577E-11,1156.4253140774,-0.0772339916211539,8.62671463940631,-1.749188816487
1440.0,-5853563.03506134,-3175366.85144049,979529.807151572,352078.934420725,-6650055.2738033,979509.453277595,4874.02060681167,-578.350098483604,-5955.52829108744,-0.460846445056502,8.70330168131696,-1.28574621093014,6769941.59867448,1.12832590818593,-0.0013270196633792,-0.185491443309152,-6.570427286629E-4,-1.57359783702492,0.90134214126671,0.167678304848855,0.0,-0.0011222300308759,0.0,353338.130388664,1.27738E-11,1159.07605512587,-0.460846445056502,8.70330168131696,-1.28574621093014
1500.0,-5760385.68312209,-3421709.509686,620391.509183241,643460.93178407,-6669063.1351427,620144.93500177,4834.88924121675,-54.8967516856555,-6018.58096289469,-0.843153930260946,8.73814820443521,-0.814983137849075,6770202.09834792,1.13270117743631,-0.0013871636447831,-0.184008296286603,-5.715572459023E-4,-1.48875448812949,0.89867165379596,0.27594829126598,0.0,-0.0011222300308759,0.0,350717.459106109,1.34509E-11,1161.06511543163,-0.843153930260946,8.73814820443521,-0.814983137849075
1560.0,-5642247.64789885,-3652908.28218005,258319.602303342,931808.546692398,-6656626.30102343,257847.970726713,4772.90691455744,469.3852252997,-6053.22673094971,-1.22222246854319,8.73087946273814,-0.339244875950013,6770349.98266364,1.13707644668384,-0.001441581145949,-0.18247759633754,-4.767154749447E-4,-1.40543846448675,0.890353388948961,0.382736163904844,0.0,-0.0011222300308759,0.0,348366.748155029,1.40744E-11,1162.38645317074,-1.22222246854319,8.73087946273814,-0.339244875950013
1620.0,-5499539.79456633,-3868076.42151485,-104975.037764428,1215757.7125933,-6612770.98153311,-105669.500400569,4688.3259988935,991.963483497339,-6059.23871240374,-1.5961187837813,8.68135363375599,0.139074052335972,6770381.79524862,1.14145171592279,-0.0014895329692547,-0.18090302037274,-3.729686350272E-4,-1.32508311261187,0.876595054569608,0.486655661784708,0.0,-0.0011222300308759,0.0,346299.282813037,1.46301E-11,1163.03762312383,-1.5961187837813,8.68135363375599,0.139074052335972
1680.0,-5332765.20952824,-4066398.49348856,-467772.246213484,1493962.97868535,-6537675.44095121,-468686.258844184,4581.51450541014,1510.30427547412,-6036.53477724389,-1.96292378147889,8.58966652198638,0.617545792912384,6770296.37494804,1.14582698517889,-0.0015303076131693,-0.179288469098559,-2.6084029357E-4,-1.24885711271871,0.857719239760861,0.586585879597361,0.0,-0.0011222300308759,0.0,344525.476922967,1.51051E-11,1163.01973456519,-1.96292378147889,8.58966652198638,0.617545792912384
1740.0,-5142537.6927948,-4247133.88982542,-828351.299049411,1765104.41456123,-6431669.6521254,-829480.539965412,4452.9548244389,2021.88679725477,-5985.1790526167,-2.32074619496756,8.45615397878506,1.09372577650079,6770094.9064037,1.15020225442927,-0.0015632274944402,-0.177638045403312,-1.409242473565E-4,-1.17760219101806,0.834129904159382,0.681733918249246,0.0,-0.0011222300308759,0.0,343052.79940989,1.54877E-11,1162.33732621953,-2.32074619496756,8.45615397878506,1.09372577650079
1800.0,-4929579.6287296,-4409619.95844829,-1184999.70306784,2027894.41468484,-6295234.08739317,-1186338.82934653,4303.24164704756,2524.21760446048,-5905.38241520624,-2.66773618402614,8.28139194575613,1.56516979061897,6769780.91854474,1.15457752367966,-0.0015876550426247,-0.175956031433914,-1.38819297315E-5,-1.11182802207591,0.806276688012864,0.771640360705789,0.0,-0.0011222300308759,0.0,341885.74784396,1.57689E-11,1160.99821297267,-2.66773618402614,8.28139194575613,1.56516979061897
1860.0,-4694719.24121344,-4553274.72875694,-1536021.98457354,2281084.35381274,-6128997.64590293,-1537564.65677272,4133.0790775721,3014.84495871978,-5797.50195221294,-3.00209866889871,8.06619408611221,2.02945124271892,6769360.2299168,1.15895279293004,-0.001602998610441,-0.174246864554099,1.195606636995E-4,-1.05175040534472,0.774623067764722,0.856141494719548,0.0,-0.0011222300308759,0.0,341025.869249303,1.5942E-11,1159.01335362441,-3.00209866889871,8.06619408611221,2.02945124271892
1920.0,-4438887.24721105,-4677599.21096097,-1879748.41481241,2523471.04542092,-5933734.72585483,-1881487.32680614,3943.27695936323,3491.37296004612,-5662.03938757395,-3.32210618802546,7.81160702776751,2.48417834387249,6768840.84129605,1.16332806216899,-0.0016087181430537,-0.172515112388411,2.586165361E-4,-0.997352736796528,0.739621767094906,0.935308267672067,0.0,-0.0011222300308759,0.0,340471.82727955,1.60035E-11,1156.39678049633,-3.32210618802546,7.81160702776751,2.48417834387249
1980.0,-4163112.92851338,-4782179.2534891,-2214543.61037215,2753902.95690898,-5710361.45876122,-2216470.52417112,3734.74644837304,3951.4753240666,-5499.63848625317,-3.62611108060132,7.51890330037448,2.92701094564079,6768232.77758285,1.16770333142223,-0.0016043305498742,-0.170765447165328,4.024417387376E-4,-0.948452948061588,0.701698275210321,1.00937980788817,0.0,-0.0011222300308759,0.0,340219.513825164,1.59531E-11,1153.16562030092,-3.62611108060132,7.51890330037448,2.92701094564079
2040.0,-3868519.64621555,-4866686.94790785,-2538814.94805043,2971286.13777823,-5459931.13111219,-2540920.73341446,3508.49488058222,4392.90866959017,-5311.08146513766,-3.91255681476743,7.18957210341699,3.35567677540115,6767547.88248442,1.17207860067547,-0.0015894147236456,-0.169002619578571,5.501399060945E-4,-0.904764166288559,0.661241595862606,1.0787032667268,0.0,-0.0011222300308759,0.0,340262.202123104,1.57936E-11,1149.34022232888,-3.91255681476743,7.18957210341699,3.35567677540115
2100.0,-3556319.82971713,-4930881.57356371,-2851020.73584663,3174589.82004848,-5183628.82662542,-2853295.41446368,3265.61998927875,4813.52519173229,-5097.28445376093,-4.17998830784528,6.8253080913178,3.76798683676496,6766799.57090897,1.17645386991157,-0.0015636161535857,-0.16723143238716,7.007672685363E-4,-0.865943568733983,0.618600566254632,1.14368551589143,0.0,-0.0011222300308759,0.0,340590.73753783,1.55307E-11,1144.94439599901,-4.17998830784528,6.8253080913178,3.76798683676496
2160.0,-3227809.47513767,-4974610.0805728,-3149678.08472739,3362851.65379765,-4882765.32938548,-3152110.87870311,3007.30353652665,5211.28460823432,-4859.29206124216,-4.42706111523288,6.4279984021425,4.16184977063522,6766002.54524345,1.1808291391591,-0.0015266510823916,-0.165456713972861,8.533381284871E-4,-0.831628391105232,0.574083990424427,1.2047577505117,0.0,-0.0011222300308759,0.0,341193.761400538,1.5173E-11,1140.00574616761,-4.42706111523288,6.4279984021425,4.16184977063522
2220.0,-2884362.19170302,-4997807.1143126,-3433370.42954466,3535182.54477125,-4558770.3344921,-3435949.81391909,2734.80442958051,5584.26528118645,-4598.27111707665,-4.652549397835,5.99970818722601,4.53528500733748,6765172.48272689,1.18520440840948,-0.0014783101604661,-0.163683292067801,0.0010068307788902,-0.801460521907291,0.527963099871423,1.26235157666594,0.0,-0.0011222300308759,0.0,342057.96265425,1.47308E-11,1134.55608174468,-4.652549397835,5.99970818722601,4.53528500733748
2280.0,-2527422.83985718,-5000494.58757803,-3700754.6518222,3690771.06539573,-4213185.01822731,-3703468.41080563,2449.45139737305,5930.67443245277,-4315.50366243275,-4.8553526124985,5.54266491886362,4.8864345792205,6764325.7019099,1.18957967766558,-0.0014184615553697,-0.161915967856069,0.0011601938354683,-0.775102065187421,0.480475238081555,1.31688421346132,0.0,-0.0011222300308759,0.0,343168.351568557,1.42164E-11,1128.6318604977,-4.8553526124985,5.54266491886362,4.8864345792205
2340.0,-2158500.8049297,-4982780.8124398,-3950567.76193275,3828887.41511631,-3847654.02414809,-3953403.04853218,2152.63530450209,6248.85738803747,-4012.37927522274,-5.03450090414775,5.05924176172216,5.21357350409862,6763478.8166905,1.1939549469131,-0.0013470534798015,-0.160159490641054,0.00131235294655,-0.752244307992972,0.43182802798837,1.36875038773097,0.0,-0.0011222300308759,0.0,344508.549468344,1.36429E-11,1122.27461855322,-5.03450090414775,5.05924176172216,5.21357350409862
2400.0,-1779162.95348644,-4944859.20637569,-4181633.10331776,3948886.91064448,-3463916.92488213,-4184576.50200777,1845.80118044108,6537.30580374951,-3690.38681635991,-5.18915921054446,4.55194029113855,5.51511869080628,6762648.38661518,1.19833021615206,-0.0012641161074544,-0.158418533255655,0.0014622178364776,-0.732612172484441,0.38220356820847,1.41831885794459,0.0,-0.0011222300308759,0.0,346061.088265146,1.30238E-11,1115.53131440789,-5.18915921054446,4.55194029113855,5.51511869080628
2460.0,-1391026.31924345,-4887006.59122779,-4392866.04670617,4050212.99132584,-3063799.22175964,-4395903.6387842,1530.44004015696,6794.66484118281,-3351.10568635776,-5.31863011941696,4.02337282892153,5.78963635698888,6761850.57203921,1.2027054854053,-0.0011697628526684,-0.156697668376293,0.0016086896313406,-0.715965760350194,0.331762408032719,1.46593197870658,0.0,-0.0011222300308759,0.0,347807.713583057,1.23726E-11,1108.45449162332,-5.31863011941696,4.02337282892153,5.78963635698888
2520.0,-995750.565747097,-4809581.10602794,-4583279.14763122,4132399.72932347,-2649202.94579729,-4586396.57888674,1208.0805691809,7019.73927867057,-2996.19668094457,-5.42235554199562,3.47624464611921,6.03584798434528,6761100.80236766,1.20708075465283,-0.0010641909969676,-0.155001345883469,0.0017506684086339,-0.702100154233332,0.280647185724941,1.51190716295666,0.0,-0.0011222300308759,0.0,349729.685421948,1.17022E-11,1101.10213193469,-5.42235554199562,3.47624464611921,6.03584798434528
2580.0,-595030.273817541,-4713019.75665224,-4751986.74579681,4195073.83856713,-2222096.92403793,-4755169.29611691,880.280741737355,7211.49855603253,-2627.39253192576,-5.49991728598976,2.91333625433262,6.25263486650302,6760413.46497675,1.21145602389464,-9.476816529997E-4,-0.153333871393167,0.0018870609067119,-0.69084428134148,0.228985897808989,1.55653946163294,0.0,-0.0011222300308759,0.0,351808.070584353,1.10245E-11,1093.53703795415,-5.49991728598976,2.91333625433262,6.25263486650302
2640.0,-190587.098802101,-4597835.62770357,-4898208.9899015,4237956.1803764,-1784506.77494048,-4901441.64443105,548.619435126575,7369.08076426985,-2246.48821546723,-5.55103662436518,2.3374859746447,6.4390413286105,6759801.62158289,1.21583129314788,-8.205990641398E-4,-0.15169938606413,0.0020167883246824,-0.682059375567982,0.176894815150407,1.60010475273611,0.0,-0.0011222300308759,0.0,354024.021490797,1.03501E-11,1085.82557064277,-5.55103662436518,2.3374859746447,6.4390413286105
2700.0,215838.157609216,-4464614.78265757,-5021275.27630143,4260862.76727896,-1338504.69552554,-5024542.797775,214.688097516788,7491.79560166625,-1855.33110467361,-5.57557296392298,1.75157293827643,6.59427671508593,6759276.75783417,1.22020656239826,-6.833892457264E-4,-0.150101847767241,0.0021387941400002,-0.675637384064731,0.124481087420281,1.64286322554053,0.0,-0.0011222300308759,0.0,356359.036502302,9.6881E-12,1078.03560465867,-5.57557296392298,1.75157293827643,6.59427671508593
2760.0,622493.517417578,-4314012.87918219,-5120627.09432292,4263705.26978545,-886199.101439003,-5123914.09618694,-119.917480031869,7579.12632593659,-1455.81103719334,-5.57352171997638,1.15850063776613,6.71771625272937,6758848.570794,1.22458183164864,-5.365779814321E-4,-0.148545013684801,0.0022520518686584,-0.671499534654954,0.0718450898757015,1.6850629784742,0.0,-0.0011222300308759,0.0,358795.197439926,9.0462E-12,1070.23369480917,-5.57352171997638,1.15850063776613,6.71771625272937
2820.0,1027623.79796257,-4146751.52701113,-5195820.2750802,4246491.03374024,-429724.179123615,-5199111.29502754,-453.605242816344,7630.73073816728,-1049.85036198472,-5.54501150099321,0.561181113666061,6.80890090094696,6758524.79782028,1.22895710090188,-3.807681958985E-4,-0.147032424389926,0.0023555726924481,-0.669595195020969,0.0190825712130007,1.72694363719356,0.0,-0.0011222300308759,0.0,361315.380617818,8.43E-12,1062.48168860232,-5.54501150099321,0.561181113666061,6.80890090094696
2880.0,1429478.54590588,-3963614.41550256,-5246526.64429855,4209322.6183547,28770.5929894654,-5249806.21784329,-784.794764576561,7646.44123845056,-639.39402267611,-5.49030070074179,-0.0374801690003109,6.86753629983763,6758311.08916623,1.23333237013798,-2.166367312979E-4,-0.145567389439974,0.0024484128785959,-0.669901099476331,-0.0337133377077282,1.76873995557692,0.0,-0.0011222300308759,0.0,363903.438373954,7.8438E-12,1054.83332643181,-5.49030070074179,-0.0374801690003109,6.86753629983763
2940.0,1826319.89625478,-3765443.23794962,-5272535.0828904,4152396.86716447,487130.899832878,-5275787.81661823,-1111.92491956835,7626.26399555023,-226.399728456267,-5.40977358619619,-0.634598726825531,6.8934909212864,6758210.92548222,1.23770763938837,-4.49305622023E-5,-0.144152974502594,0.0025296809198368,-0.672420983678877,-0.0864501949295728,1.81068539611183,0.0,-0.0011222300308759,0.0,366544.348772726,7.2904E-12,1047.33160070974,-5.40977358619619,-0.634598726825531,6.8934909212864
3000.0,2216430.32267467,-3553133.4386391,-5273752.00190296,4076003.525971,943207.969738721,-5276962.64604137,-1433.46130673888,7570.37727392361,187.171742618172,-5.30393595821227,-1.22732474057265,6.88679351905912,6758225.58031916,1.24208290863875,1.335375114774E-4,-0.142791990019311,0.0025985443269258,-0.677185643697231,-0.139034339584327,1.85301570355693,0.0,-0.0011222300308759,0.0,369224.331853287,6.7711E-12,1040.00761214482,-5.30393595821227,-1.22732474057265,6.88679351905912
3060.0,2598120.2449254,-3327629.80859615,-5250201.24098132,3980523.42336991,1394868.82989734,-5253354.76094419,-1747.90340237591,7479.1289612716,599.36606843293,-5.17341044973289,-1.81285602447841,6.84762996231614,6758354.12675095,1.2464581778777,3.178936486785E-4,-0.141486981399058,0.0026542360109827,-0.68425341688471,-0.191368946745571,1.89597249013494,0.0,-0.0011222300308759,0.0,371930.931495466,6.2861E-12,1032.88127858742,-5.17341044973289,-1.81285602447841,6.84762996231614
3120.0,2969735.46314732,-3089921.95466493,-5202023.40171342,3866426.23077651,1840006.39054327,-5205105.04828601,-2053.79142111477,7353.03333881249,1008.24470096042,-5.01893151388563,-2.38845030372242,6.77633952404043,6758593.48636351,1.25083344713094,5.072081798968E-4,-0.140240220723018,0.0026960601996073,-0.693711062268095,-0.243351986118898,1.93980684271281,0.0,-0.0011222300308759,0.0,374653.062658379,5.8351E-12,1025.96365899904,-5.01893151388563,-2.38845030372242,6.77633952404043
3180.0,3329664.39004069,-2841039.66535916,-5129474.62918895,3734267.81997945,2276549.31366103,-5132470.00703147,-2349.71286796951,7192.76713497972,1411.89394684497,-4.84134014252131,-2.95143682772269,6.67341068257835,6758938.51811658,1.25520871638133,7.005011966793E-4,-0.139053699932396,0.0027233978381093,-0.705674991732336,-0.29487402504251,1.98478294093244,0.0,-0.0011222300308759,0.0,377381.024410568,5.4169E-12,1019.26016293357,-4.84134014252131,-2.95143682772269,6.67341068257835
3240.0,3676345.05247562,-2582048.19701338,-5032924.85685961,3584687.23722668,2702471.62439404,-5035819.99102098,-2634.30876616123,6999.1649015065,1808.43378263859,-4.64157834508363,-3.49922734881897,6.53947648165548,6759382.14396619,1.25958398563171,8.967484641921E-4,-0.137929125462201,0.0027357114350218,-0.720292763285782,-0.34581581606222,2.03118163602426,0.0,-0.0011222300308759,0.0,380106.479803523,5.0302E-12,1012.77377239403,-4.64157834508363,-3.49922734881897,6.53947648165548
3300.0,4008271.83722599,-2314043.50161822,-4912855.53138076,3418403.31371366,3115802.02562504,-4915636.93152794,-2906.27954702825,6773.21374912349,2196.02637925981,-4.4206834086041,-4.02932649415552,6.37530948250997,6759915.5076474,1.26395925488209,0.0010948876020062,-0.136867914276837,0.0027325493196807,-0.73774468535195,-0.396045611154824,2.07930387610962,0.0,-0.0011222300308759,0.0,382822.404238634,4.6731E-12,1006.50761159357,-4.4206834086041,-4.02932649415552,6.37530948250997
3360.0,4324001.95579384,-2038147.41761451,-4769856.83558516,3236210.93313381,3514632.87838201,-4772511.5576683,-3164.3905893229,6516.04747855255,2572.8843119547,-4.17978195233779,-4.5393415539347,6.18181633166861,6760528.16263842,1.26833452412105,0.0012938244781215,-0.135871191257088,0.0027135492879189,-0.758245284877159,-0.445416151127975,2.12947376484071,0.0,-0.0011222300308759,0.0,385523.004533676,4.3441E-12,1000.46656784295,-4.17978195233779,-4.5393415539347,6.18181633166861
3420.0,4622161.60493074,-1755502.84408883,-4604624.42912474,3038976.97769197,3897128.81282743,-4607140.13421348,-3407.47739584011,6228.94014128485,2937.278433194,-3.92008378521465,-5.02699170245412,5.96003195969609,6761208.28505812,1.27270979337429,0.0014924397619629,-0.134939787882884,0.0026784416201978,-0.78204424740676,-0.493761294091219,2.18204089227361,0.0,-0.0011222300308759,0.0,388203.611403113,4.0414E-12,994.657988102991,-3.92008378521465,-5.02699170245412,5.96003195969609
3480.0,4901451.8011878,-1467268.91698286,-4417955.72764633,2827635.97469283,4261534.93663204,-4420320.73768881,-3634.45039570271,5913.2990638844,3287.54538666731,-3.64287557088832,-5.49011666019807,5.7111134201522,6761942.90706362,1.27708506262181,0.0016895955835988,-0.134074242152302,0.0026270514645373,-0.80942622685008,-0.540892277825619,2.23738136302071,0.0,-0.0011222300308759,0.0,390860.548521334,3.7632E-12,989.09165530357,-3.64287557088832,-5.49011666019807,5.7111134201522
3540.0,5160653.86811007,-1174616.20718084,-4210745.7426629,2603185.46650901,4606184.60955018,-4212949.09293529,-3844.29936085999,5570.65736932644,3622.09474095964,-3.34951430364266,-5.92668479640548,5.43633337405404,6762718.16621066,1.28146033186077,0.0018841422486975,-0.133274799674007,0.0025593005836792,-0.840708629415237,-0.586593667267027,2.29589665020645,0.0,-0.0011222300308759,0.0,393490.981733627,3.5079E-12,983.77929630219,-3.34951430364266,-5.92668479640548,5.43633337405404
3600.0,5398634.55703176,-878721.957660972,-3983982.5055582,2366681.12741468,4929506.75503035,-3986013.99359011,-4036.0974255503,5202.66602918398,3939.41572174939,-3.04142059863358,-6.33480066258262,5.13707322332905,6763519.56619669,1.28583560110829,0.0020749249614889,-0.132541415868523,0.0024752084727627,-0.876236091451201,-0.630619133920394,2.35800901598008,0.0,-0.0011222300308759,0.0,396092.752310592,3.2739E-12,978.733842432587,-3.04142059863358,-6.33480066258262,5.13707322332905
3660.0,5614350.78313965,-580765.377074899,-3738742.10042528,2119231.65143817,5230032.68174529,-3740592.33120383,-4209.0046977328,4811.08548130641,4238.08352157203,-2.72007180172109,-6.71271193889474,4.81481589696013,6764332.2444137,1.29021087036154,0.0022607905114729,-0.131873759212593,0.0023748928593196,-0.916369911527124,-0.672687366096196,2.42415177721563,0.0,-0.0011222300308759,0.0,398664.198401135,3.0596E-12,973.968604065815,-2.72007180172109,-6.71271193889474,4.81481589696013
3720.0,5806853.95987052,-281923.007028838,-3476183.33168888,1861993.4360357,5506402.39004298,-3477843.75896284,-4362.27145189682,4397.7768489545,4516.76516647017,-2.38699492727716,-7.05881576770824,4.47113829561086,6765141.24179625,1.29458613960906,0.0024405938830994,-0.131271215461038,0.0022585696023687,-0.961470237110089,-0.712478635094879,2.49475223266762,0.0,-0.0011222300308759,0.0,401203.969024411,2.8635E-12,969.49646113348,-2.38699492727716,-7.05881576770824,4.47113829561086
3780.0,5975293.91640845,16635.8208243138,-3197542.05368924,1596165.08700638,5757370.34052691,-3199005.01721339,-4495.240893283,3964.6927990976,4774.22491930243,-2.04375943661688,-7.37166444215808,4.10770340429077,6765931.77054011,1.29896140886516,0.0026132047517895,-0.130732892781627,0.0021265520112174,-1.01186852629559,-0.749632852328495,2.5702047858661,0.0,-0.0011222300308759,0.0,403710.835044563,2.6843E-12,965.329125300039,-2.04375943661688,-7.37166444215808,4.10770340429077
3840.0,6118922.38453591,313753.423021772,-2904125.19059768,1322981.77064077,5981810.66429824,-2905383.94917721,-4607.35148445971,3513.86807966019,5009.32920020831,-1.69196987484606,-7.64997041281448,3.72625208784593,6766689.47540036,1.30333667810126,0.0027775138335417,-0.130257627740568,0.0019792496076828,-1.0678280504324,-0.783750328974919,2.65083204163611,0.0,-0.0011222300308759,0.0,406183.501592428,2.5207E-12,961.476497773222,-1.69196987484606,-7.64997041281448,3.72625208784593
3900.0,6237096.0427503,608288.081227274,-2597304.47617419,1043709.43960332,6178721.79684768,-2598353.23638866,-4698.13882643713,3047.40977781751,5221.05100579951,-1.33325838969195,-7.89261057260256,3.32859459048358,6767400.68444342,1.30771194735164,0.0029324390596734,-0.12984399207936,0.0018171663573996,-1.12949151109671,-0.814396819756921,2.73683296022074,0.0,-0.0011222300308759,0.0,408620.426332285,2.3714E-12,957.946127444436,-1.33325838969195,-7.89261057260256,3.32859459048358
3960.0,6329279.10744948,899118.22583696,-2278509.94393952,759638.959471937,6347230.5201835,-2279343.88444648,-4767.23708809706,2567.48734386644,5408.47381013799,-0.969277162007057,-8.09862977931678,2.91660176786627,6768052.64533349,1.31208721660202,0.0030769315519936,-0.129490300227802,0.0016408983974168,-1.19681784475794,-0.841114629553798,2.82822015159297,0.0,-0.0011222300308759,0.0,411019.647818341,2.2354E-12,954.742763484679,-0.969277162007057,-8.09862977931678,2.91660176786627
4020.0,6395045.46295961,1185146.47034261,-1949223.19929473,472080.163174093,6486595.40052678,-1949838.49063375,-4814.37997968495,2076.32242760485,5570.79493250721,-0.601690783815243,-8.26724357653321,2.49219608821086,6768633.74348062,1.31646248583812,0.0032099813778165,-0.129194617502632,0.0014511312876731,-1.26951533539914,-0.863441309578601,2.92475343839384,0.0,-0.0011222300308759,0.0,413378.627947543,2.1115E-12,951.867991491416,-0.601690783815243,-8.26724357653321,2.49219608821086
4080.0,6434080.32435344,1465303.48452337,-1610970.5059498,182355.860746067,6596209.61178885,-1611364.3257887,-4839.4012684417,1576.17857640187,5707.32835941317,-0.232168625700079,-8.39784007755981,2.05734244694303,6769133.69866732,1.3208377550885,0.0033306230676105,-0.128954768946891,0.0012486368141236,-1.34698461078544,-0.880936440031098,3.0258832704839,0.0,-0.0011222300308759,0.0,415694.112194231,1.999E-12,949.3199403274,-0.232168625700079,-8.39784007755981,2.05734244694303
4140.0,6446181.4289044,1738551.69524682,-1265315.71969178,-108204.168121557,6675603.13805775,-1265486.26347788,-4842.23483712619,1069.35084608751,5817.50701116439,0.137622759301191,-8.4899809832872,1.61403884739205,6769543.73710655,1.32521302433889,0.0034379408815652,-0.128768348770944,0.0010342693706517,-1.42829053635188,-0.893215002224432,3.13072301165977,0.0,-0.0011222300308759,0.0,417962.010915749,1.8967E-12,947.093046263932,0.137622759301191,-8.4899809832872,1.61403884739205
4200.0,6431259.75485258,2003888.80202797,-913853.103002707,-398269.171421616,6724444.35143547,-913799.59000317,-4822.91428914801,558.155377294333,5900.88444675353,0.506027143649905,-8.54340171333417,1.16430700735837,6769856.73626636,1.32958829359213,0.0035310738141692,-0.128632730362444,8.08961946166E-4,-1.5121822731229,-0.899983160543951,-3.04511593621487,0.0,-0.0011222300308759,0.0,420177.304553184,1.804E-12,945.177860826949,0.506027143649905,-8.54340171333417,1.16430700735837
4260.0,6389339.76797021,2260351.0987575,-558200.054302921,-686513.385039192,6742540.96475706,-557922.729039216,-4781.5721072357,44.9189908099302,5957.13600454984,0.871405990152163,-8.55801064053503,0.710182957727037,6770067.34022712,1.33396356284251,0.0036092203285064,-0.128545076838904,5.737217420377E-4,-1.59717197381131,-0.90106987197157,-2.93670384884979,0.0,-0.0011222300308759,0.0,422333.975029686,1.7201E-12,943.560888066424,0.871405990152163,-8.55801064053503,0.710182957727037
4320.0,6320559.19918492,2507016.59192208,-199989.785622482,-971621.929335174,6729840.36194657,-199489.914724818,-4718.43837592532,-468.031144269564,5986.05938043783,1.23214561689417,-8.5338874312982,0.253707704233199,6770172.04380858,1.33833883208147,0.0036716428141447,-0.128502352122671,3.296254438531E-4,-1.68166505609305,-0.896447043017631,-2.82877389835283,0.0,-0.0011222300308759,0.0,424424.965081407,1.6443E-12,942.224441361647,1.23214561689417,-8.5338874312982,0.253707704233199
4380.0,6225168.35881481,2743007.90763624,159136.017724096,-1252296.6163279,6686429.31197961,159856.153196333,-4633.83908157708,-978.377716358042,5987.57464940804,1.58666410528848,-8.47128050827117,-0.2030819733629,6770169.24421569,1.34271410133185,0.0037176717642144,-0.128501332524208,7.78141701042E-5,-1.76411567120849,-0.886232965669857,-2.72282510839837,0.0,-0.0011222300308759,0.0,426442.166657988,1.576E-12,941.152317264105,1.58666410528848,-8.47128050827117,-0.2030819733629
4440.0,6103528.99491838,2967494.98188301,517534.522379282,-1527261.64262055,6612533.07557768,518471.639085245,-4528.19400700594,-1483.82329937076,5961.72374110465,1.93341789592378,-8.37060366657412,-0.658162509378638,6770059.25949568,1.34708937058509,0.0037467096684971,-0.128538618824776,-1.805118808224E-4,-1.84317052155382,-0.870678089088003,-2.62016349474791,0.0,-0.0011222300308759,0.0,428376.438915269,1.5149E-12,940.340406904356,1.93341789592378,-8.37060366657412,-0.658162509378638
4500.0,5956112.70628738,3179697.52770268,873569.024784127,-1795269.1443447,6508513.91680177,874718.853632627,-4402.01424103147,-1982.10015341964,5908.6693843261,2.2709080205178,-8.2324318900254,-1.10953225355906,6769844.31366055,1.35146463983547,0.0037582346203056,-0.128610648854224,-4.440990650496E-4,-1.91776909584021,-0.850136948458757,-2.52180147441151,0.0,-0.0011222300308759,0.0,430217.655707671,1.4605E-12,939.782989333997,2.2709080205178,-8.2324318900254,-1.10953225355906
4560.0,5783498.92196199,3378887.2765438,1225616.15033427,-2055104.59169906,6374869.03458847,1226973.45729552,-4255.89932619848,-2470.97975197761,5828.69353981758,2.59768592381969,-8.05749642862599,-1.55521981540837,6769528.48890666,1.35583990908586,0.0037518036353587,-0.1287137105633,-7.116461897036E-4,-1.98718556628101,-0.825033102458864,-2.42841560096889,0.0,-0.0011222300308759,0.0,431954.781887226,1.4125E-12,939.470002073265,2.59768592381969,-8.05749642862599,-1.55521981540837
4620.0,5586372.46126693,3564389.99162673,1572072.94384708,-2305592.00213593,6212227.93192721,1573631.55492529,-4090.53407047487,-2948.28199337548,5722.19534473349,2.91235883670647,-7.84667921241807,-1.99329198751882,6769117.64593352,1.36021517832195,0.0037270556808979,-0.128843955592306,-9.818106527066E-4,-2.05101696053448,-0.795824203051893,-2.34035800786376,0.0,-0.0011222300308759,0.0,433575.977144326,1.3707E-12,939.387077475993,2.91235883670647,-7.84667921241807,-1.99329198751882
4680.0,5365520.69049887,3735587.25195218,1911363.82284829,-2545598.9528614,6021349.24276224,1913116.65307946,-3906.68505079525,-3411.88405937663,5589.68859573716,3.21359467078294,-7.60100668900262,-2.42186119262664,6768619.31392163,1.36459044757234,0.0036837144130746,-0.128997413339295,-0.0012532148075586,-2.10913471816501,-0.76297239657394,-2.2577044440694,0.0,-0.0011222300308759,0.0,435068.725594927,1.3348E-12,939.514948525801,3.21359467078294,-7.60100668900262,-2.42186119262664
4740.0,5121830.29260371,3891918.00901695,2241947.3668967,-2774041.37503439,5803117.03877535,2243886.4532215,-3705.19683779234,-3859.72888912048,5431.79880070449,3.50012641524946,-7.32164318184694,-2.83909241006197,6768042.55225961,1.36896571681986,0.0036215906199641,-0.1291700055309,-0.0015244525346353,-2.16161960390336,-0.726922527686513,-2.18031892349548,0.0,-0.0011222300308759,0.0,436419.988841528,1.3044E-12,939.826118579863,3.50012641524946,-7.32164318184694,-2.83909241006197
4800.0,4856283.66913212,4032879.91666237,2562322.91803435,-2989888.11383819,5558536.63992814,2564439.45588263,-3486.98797187196,-4289.83324277801,5249.25983128074,3.77075602828531,-7.00988387346485,-3.24320955009234,6767397.78659638,1.37334098605596,0.0035405843666322,-0.129357561297551,-0.0017940960002147,-2.20869593669395,-0.688088294298325,-2.10791902214426,0.0,-0.0011222300308759,0.0,437616.379818325,1.2794E-12,940.290872582625,3.77075602828531,-7.00988387346485,-3.24320955009234
4860.0,4569954.9930408,4158030.43841684,2871036.96943165,-3192165.2404142,5288729.95399165,2873321.35284336,-3253.04672089176,-4700.29533563273,5042.91021000781,4.02435782727988,-6.66714752113932,-3.63250125894916,6766696.62223045,1.37771625531206,0.0034406868377024,-0.129555832752008,-0.0020607025837971,-2.25067462690249,-0.646845110069897,-2.04013232282362,0.0,-0.0011222300308759,0.0,438644.354381105,1.2601E-12,940.965283364936,4.02435782727988,-6.66714752113932,-3.63250125894916
4920.0,4264005.93144455,4266987.73728614,3166689.32134053,-3379960.10344803,4994930.37125523,3169131.18643712,-3004.42664907759,-5089.30202977664,4813.68906631803,4.25988139444319,-6.29496901274308,-4.00532615254302,6765951.63821942,1.38209152455673,0.0033219818712897,-0.129760511066125,-0.0023228219530505,-2.28790877446868,-0.603527920650212,-1.97654024581901,0.0,-0.0011222300308759,0.0,439490.417323497,1.247E-12,941.910236442385,4.25988139444319,-6.29496901274308,-4.00532615254302
4980.0,3939681.05957195,4359431.35181321,3447938.98551913,-3552425.1099394,4678477.2411817,3450527.25713064,-2742.24202546153,-5455.13557696361,4562.63179534417,4.47635402613698,-5.89499186622392,-4.36011749241753,6765176.16589201,1.38646679380997,0.003184647176875,-0.12996724303535,-0.0025790032644905,-2.32076181037777,-0.558432284164131,-1.91670927313945,0.0,-0.0011222300308759,0.0,440141.339291438,1.2405E-12,943.17490585495,4.47635402613698,-5.89499186622392,-4.36011749241753
5040.0,3598302.98396841,4435102.66669798,3713509.82129411,-3708781.22632619,4340809.95798227,3716232.76253892,-2467.66309809285,-5796.17991215978,4290.86545222273,4.67288276516455,-5.4689607684432,-4.69538733271765,6764384.05566963,1.39084206306035,0.0030289552280258,-0.130171648113973,-0.0028278024660936,-2.34958628449517,-0.511817356427778,-1.86021145185691,0.0,-0.0011222300308759,0.0,440584.38092865,1.241E-12,944.80391665176,4.67288276516455,-5.4689607684432,-4.69538733271765
5100.0,3241267.19561385,4493805.18345234,3962195.88832521,-3848321.19263212,3983461.68194621,3965041.15293291,-2181.91125762539,-6110.92650274183,3999.6039124062,4.84865606475107,-5.0187142374655,-5.00973018120277,6763589.43624635,1.3952173322993,0.0028552738192898,-0.130369335896819,-0.0030677896763801,-2.37471082650679,-0.463909808362295,-1.80663663667852,0.0,-0.0011222300308759,0.0,440807.520511419,1.2491E-12,946.840088047294,4.84865606475107,-5.0187142374655,-5.00973018120277
5160.0,2870036.6712561,4535404.59908319,4192866.50288123,-3970412.44363038,3608052.72292024,4195821.19004327,-1886.25411072201,-6397.97976290691,3690.14282552954,5.00294514058255,-4.54617747743703,-5.30182622998073,6762806.47023776,1.39959260154969,0.0026640662750793,-0.130555924014696,-0.0032975566121933,-2.39643293827761,-0.414908042555697,-1.7555987983571,0.0,-0.0011222300308759,0.0,440799.681316017,1.2653E-12,949.326150950843,5.00294514058255,-4.54617747743703,-5.30182622998073
5220.0,2486136.2405897,4559828.70057782,4404470.98598189,-4074499.7321376,3216283.61164436,4407521.69751001,-1582.00048016027,-6656.06204648391,3363.8543867101,5.13510507266889,-4.05335547736827,-5.57044422209132,6762049.11039225,1.40396787080293,0.0024558912967551,-0.130727056402113,-0.003515724035232,-2.41501569647568,-0.364986333714939,-1.70673830173939,0.0,-0.0011222300308759,0.0,440550.95500131,1.2903E-12,952.305944476771,5.13510507266889,-4.05335547736827,-5.57044422209132
5280.0,2091146.73721266,4567067.08213201,4596043.09306759,-4160107.45045187,2809927.88377937,4599175.99263577,-1270.49534471895,-6884.01823382402,3022.18194494448,5.24457572165837,-3.5423263851048,-5.8144440278189,6761330.86036631,1.40834314003902,0.0022314024329827,-0.130878421886523,-0.0037209491851635,-2.43068691717078,-0.314298696084716,-1.65972158179622,0.0,-0.0011222300308759,0.0,440052.817374844,1.3252E-12,955.8250667487,5.24457572165837,-3.5423263851048,-5.8144440278189
5340.0,1686698.94940344,4557170.69273788,4766705.11590223,-4226841.64661676,2390824.60047675,4769905.99014462,-953.11472802886,-7080.8199296851,2666.63446367788,5.33088252436623,-3.01523516629067,-6.03277900926622,6760664.54390468,1.41271840928941,0.0019913471572355,-0.131005773038978,-0.0039119331649177,-2.4436397514285,-0.262982395796315,-1.61423922575474,0.0,-0.0011222300308759,0.0,439298.333036171,1.3711E-12,959.93069636111,5.33088252436623,-3.01523516629067,-6.03277900926622
5400.0,1274467.38505447,4530251.22142994,4915671.64817594,-4274391.73262849,1960870.62832237,4918925.96940995,-631.260541752213,-7245.56928895198,2298.78084385371,5.39363723061013,-2.47428753604526,-6.22449825299808,6760062.08604668,1.41709367853979,0.0017365655356067,-0.131104945216657,-0.004087428241653,-2.45403400877071,-0.211161095556299,-1.57000313840719,0.0,-0.0011222300308759,0.0,438282.345550295,1.4292E-12,964.670116985844,5.39363723061013,-2.47428753604526,-6.22449825299808
5460.0,856163.866618346,4486480.32577922,5042253.00674936,-4302531.88191696,1522012.70051009,5045545.99709031,-306.355384878309,-7377.50248563958,1920.24411501181,5.43253863801028,-1.92174412926724,-6.38874874832946,6759534.30970808,1.42146894779017,0.0014679884675433,-0.131171875718642,-0.0042462450248962,-2.46199774545597,-0.15894765832032,-1.52674322420157,0.0,-0.0011222300308759,0.0,437001.649991052,1.5012E-12,970.087395513093,5.43253863801028,-1.92174412926724,-6.38874874832946
5520.0,433530.968680469,4426088.70977447,5145858.30067948,-4311122.11344041,1076239.28024879,5149174.99731021,20.1627022469217,-7475.99283795359,1532.69549550445,5.4473733733639,-1.3599148548292,-6.52477758309563,6759090.75067953,1.4258442170377,0.0011866354823116,-0.131202622967662,-0.0043872594820034,-2.46762882203645,-0.106446656936347,-1.48420384882451,0.0,-0.0011222300308759,0.0,435455.144905676,1.5888E-12,976.217805868861,5.4473733733639,-1.3599148548292,-6.52477758309563
5580.0,8335.31174857504,4349365.05560059,5225998.14010583,-4300109.0595696,625572.246749643,5229323.46146183,346.845533155798,-7540.55359832738,1137.84831884515,5.43801675880984,-0.791153360274086,-6.63193421965472,6758739.4937411,1.43021948627666,8.936120741302E-4,-0.13119338562249,-0.0045094197495763,-2.47099624731994,-0.05375664596693,-1.44214022725442,0.0,-0.0011222300308759,0.0,433643.960983504,1.6942E-12,983.08011298622,5.43801675880984,-0.791153360274086,-6.63193421965472
5640.0,-417639.274790049,4256654.81317875,5282286.97679178,-4269526.41463508,172058.423747709,5285605.78941902,672.240125686693,-7570.84041245826,737.451819790521,5.40443378861094,-0.217851517729382,-6.70967290172154,6758487.03223647,1.4345947555299,5.901065601377E-4,-0.131140521518333,-0.0046117526988622,-2.4721411995293,-9.722550902671E-4,-1.40031480944433,0.0,-0.0011222300308759,0.0,431571.563963828,1.8196E-12,990.667791337192,5.40443378861094,-0.217851517729382,-6.70967290172154
5700.0,-842598.708179573,4148358.85029724,5314445.06764884,-4219495.06061823,-282239.029561043,5317742.25348815,994.89411467114,-7566.65344561603,333.284771152006,5.34668022843528,0.35756617072959,-6.7575552278163,6758338.15308401,1.43897002478028,2.773864465809E-4,-0.131040566326249,-0.0046933702127271,-2.47107766277147,0.0518138361923478,-1.35849368717507,0.0,-0.0011222300308759,0.0,429243.829590077,1.9672E-12,998.941399133774,5.34668022843528,0.35756617072959,-6.7575552278163
5760.0,-1264745.71201219,4024931.96519834,5322300.05197778,-4150222.86602879,-735249.344993269,5325560.5758258,1313.36123421299,-7527.93916811357,-72.8510393134161,5.2649038339975,0.932648358590609,-6.77525291013825,6758295.84883602,1.44334529401923,-4.32057091921E-5,-0.130890251817071,-0.0047534751320421,-2.46779264761457,0.104508983454506,-1.31644301801337,0.0,-0.0011222300308759,0.0,426669.088709971,2.1394E-12,1007.82499798926,5.2649038339975,0.932648358590609,-6.77525291013825
5820.0,-1682286.96675393,3886881.26270116,5305788.13249905,-4062004.15358812,-1184902.96840011,5308997.10939126,1626.20687623817,-7454.79178505949,-479.137503161833,5.15934567034637,1.50492294586818,-6.76255071910382,6758361.25803974,1.44772056326676,-3.702569508286E-4,-0.130686523611022,-0.0047913668301903,-2.46224598612697,0.157018663318342,-1.27392544961713,0.0,-0.0011222300308759,0.0,423858.140939446,2.3385E-12,1017.20891094924,5.15934567034637,1.50492294586818,-6.76255071910382
5880.0,-2093440.33607424,3734764.39382681,5264954.84958182,-3955218.8319785,-1629140.45727562,5268097.61183909,1932.01373040186,-7347.45428862356,-883.747067330386,5.03034149748625,2.07190358983579,-6.71934959424613,6758533.63480613,1.45209583251429,-7.022890959118E-4,-0.130426558290758,-0.0048064463756096,-2.45436971032264,0.209244501985605,-1.2306965274089,0.0,-0.0011222300308759,0.0,420824.235650866,2.5665E-12,1026.95905721723,5.03034149748625,2.07190358983579,-6.71934959424613
5940.0,-2496442.15161324,3569187.65859663,5199955.43748961,-3830331.18668548,-2065921.42948003,5203017.60116448,2229.38750792361,-7206.31910430925,-1284.84980091966,4.87832317290639,2.63109674499609,-6.64566988227771,6758810.34816081,1.45647110176467,-0.0010377644326845,-0.130107779753301,-0.0047982212442193,-2.44406704429905,0.261082187264383,-1.18650108084227,0.0,-0.0011222300308759,0.0,417583.019421539,2.8256E-12,1036.93051339742,4.87832317290639,2.63109674499609,-6.64566988227771
6000.0,-2889554.53831178,3390803.97075711,5111054.75100764,-3687888.32490293,-2493233.53770409,5114022.28146205,2516.96274852586,-7031.92829641759,-1680.62065865245,4.70382000746102,3.18000933240051,-6.54165464350617,6759186.91143129,1.46084637101505,-0.0013750919393043,-0.129727874675105,-0.0047663095461362,-2.43121107058204,0.312419204378758,-1.1410696104703,0.0,-0.0011222300308759,0.0,414152.449485333,3.1178E-12,1046.98138444376,4.70382000746102,3.18000933240051,-6.54165464350617
6060.0,-3271072.75933057,3200310.68309209,4998626.75057712,-3528518.26964283,-2909101.4420388,5001486.02691816,2793.40870544824,-6824.97329226991,-2069.24694287405,4.50745999833365,3.71615712475467,-6.40757294905548,6759657.04161631,1.46522164025686,-0.0017126340195843,-0.129284806964305,-0.0047104437338474,-2.41564317774309,0.363132336113698,-1.09411474478204,0.0,-0.0011222300308759,0.0,410552.673173768,3.4449E-12,1056.98343636715,4.50745999833365,3.71615712475467,-6.40757294905548
6120.0,-3639332.55744272,2998447.2718446,4863153.53409934,-3352927.69863705,-3311595.75044347,4865891.4121952,3057.4352985973,-6586.29408008181,-2448.93596077941,4.28997085193498,4.23707391604985,-6.24382307404931,6760212.74837762,1.46959690949868,-0.00204871374395,-0.128776831075102,-0.004630473762541,-2.39717146884318,0.413084870885244,-1.04532791036772,0.0,-0.0011222300308759,0.0,406805.873812189,3.8088E-12,1066.82777664883,4.28997085193498,4.23707391604985,-6.24382307404931
6180.0,-3992717.46731791,2785992.87862083,4705223.9039515,-3161899.3243777,-3698841.89408723,4707827.77774561,3307.79912038955,-6316.87783187995,-2817.92286739018,4.05218070087038,4.74032152311992,-6.05093547656922,6760844.45198925,1.47397217874906,-0.0023816225787433,-0.128202504061071,-0.0045263696768773,-2.37556942123042,0.462123471253142,-0.994376472985886,0.0,-0.0011222300308759,0.0,402936.084052259,4.2114E-12,1076.42587937716,4.05218070087038,4.74032152311992,-6.05093547656922
6240.0,-4329666.06993912,2563763.70874279,4525531.45853038,-2956288.91274538,-4069028.9015515,4527989.31936839,3543.30947289357,-6017.85690073031,-3174.47867779272,3.79501841287566,5.22350064197916,-5.82957543928353,6761541.12925824,1.47834744799087,-0.0027096285810549,-0.127560696247282,-0.0043982236025784,-2.35057525339123,0.510074675203802,-0.94090177566458,0.0,-0.0011222300308759,0.0,398968.968168571,4.6542E-12,1085.70744921216,3.79501841287566,5.22350064197916,-5.82957543928353
6300.0,-4648679.15738764,2332610.28602023,4324872.19885605,-2737021.93914526,-4420418.03281177,4327172.69253789,3762.83440863113,-5690.50614098106,-3516.91842444503,3.51951338611356,5.68426255454008,-5.58054524057525,6762290.48609191,1.4827227172384,-0.0030309850301729,-0.126850600405107,-0.0042462511253265,-2.32189269165748,0.556741040894256,-0.884518740462148,0.0,-0.0011222300308759,0.0,394931.575420795,5.1384E-12,1094.61682483273,3.51951338611356,5.68426255454008,-5.58054524057525
6360.0,-4948326.77408371,2093414.56363999,4104141.64246297,-2505089.88291943,-4751351.23086481,4106274.12373145,3965.30674102953,-5336.23950136023,-3843.60942714787,3.22679472467109,6.12032165188135,-5.30478571517547,6763079.15501586,1.48709798648878,-0.0033439394602749,-0.126071739318991,-0.0040707920437723,-2.28919415402687,0.601897013634929,-0.82481802817322,0.0,-0.0011222300308759,0.0,390852.067172953,5.6646E-12,1103.10921532902,3.22679472467109,6.12032165188135,-5.30478571517547
6420.0,-5227255.0967433,1847086.89341507,3864331.43900233,-2261546.16303507,-5060259.34593678,3866286.02318001,4149.7299842091,-4956.60584372242,-4152.97963476089,2.91808969069245,6.52946870922689,-5.00337706109285,6763892.91554029,1.49147325573631,-0.003646743052791,-0.125223971640882,-0.0038723104876788,-2.25212778266186,0.64528470679188,-0.761372167496456,0.0,-0.0011222300308759,0.0,386759.421056206,6.2328E-12,1111.14749344733,2.91808969069245,6.52946870922689,-5.00337706109285
6480.0,-5484193.11337776,1594562.85616148,3606525.48469113,-2007501.72065008,-5345670.08451165,3608293.09618005,4315.18417573553,-4553.28394508454,-4443.52598915285,2.59472133547701,6.90958481585846,-4.67753875035706,6764716.93482462,1.49584852498669,-0.0039376603404023,-0.124307495936107,-0.003651394396365,-2.21033022875957,0.68660996396631,-0.693747539913747,0.0,-0.0011222300308759,0.0,382683.116046613,6.8419E-12,1118.69980605405,2.59472133547701,6.90958481585846,-4.67753875035706
6540.0,-5717959.05919172,1336799.95752468,3331895.53596582,-1744120.25711074,-5606215.63307038,3333467.95332922,4460.83153036998,-4128.0766473616,-4713.82275345365,2.25810522119205,7.25865583105272,-4.32862840607097,6765536.02560193,1.50022379422564,-0.0042149791685481,-0.123322852833918,-0.0034087543565907,-2.16344751917117,0.725539324498509,-0.621524534499032,0.0,-0.0011222300308759,0.0,378652.802885054,7.4897E-12,1125.73797994291,2.25810522119205,7.25865583105272,-4.32862840607097
6600.0,-5927466.56500752,1074774.19637407,3041696.32641435,-1472613.13920599,-5840639.90454841,3043066.22376686,4585.9218679138,-3682.90412789911,-4962.52973868753,1.90974515766234,7.57478720563584,-3.95813951775432,6766334.91780427,1.50459906347603,-0.0044770208543349,-0.122270925206962,-0.0031452218027067,-2.11116648256364,0.761698851106885,-0.544328337264744,0.0,-0.0011222300308759,0.0,374697.964775104,8.1723E-12,1132.2365705835,1.90974515766234,7.57478720563584,-3.95813951775432
6660.0,-6111730.47296326,809476.512917876,2737260.19523575,-1194233.98704368,-6047805.35421024,2738421.1796784,4689.79775418638,-3219.79627443072,-5188.40035558675,1.55122789500619,7.85621897882691,-3.56769788116153,6767098.53978442,1.50897433272355,-0.0047221504773293,-0.121152936317017,-0.0028617465852358,-2.05325867240195,0.794676165023202,-0.46187228083006,0.0,-0.0011222300308759,0.0,370847.573731566,8.8848E-12,1138.17236484051,1.55122789500619,7.85621897882691,-3.56769788116153
6720.0,-6269872.27265302,541909.128412825,2419991.24005935,-910272.963667161,-6226699.31101825,2420937.88490859,4771.8992911937,-2740.88416034429,-5390.28941210336,1.18421673258908,8.10134073274701,-3.15905666776102,6767812.30448424,1.51334960196536,-0.0049487872315434,-0.119970445878987,-0.0025593939171286,-1.98963690421063,0.824027369037257,-0.374013861810901,0.0,-0.0011222300308759,0.0,367129.748298921,9.62E-12,1143.52415670459,1.18421673258908,8.10134073274701,-3.15905666776102
6780.0,-6401125.11134454,273081.788180468,2091359.01187952,-622050.78942517,-6376439.77073199,2092086.88545529,4831.7684908455,-2248.39062992452,-5567.16057213671,0.81044402763781,8.30870626345916,-2.73409005283839,6768462.39537521,1.51772487121575,-0.0051554147634804,-0.118725344011957,-0.0022393407095072,-1.92042083050487,0.849290618027287,-0.280819840467736,0.0,-0.0011222300308759,0.0,363571.418591017,1.03694E-11,1148.2726346628,0.81044402763781,8.30870626345916,-2.73409005283839
6840.0,-6504838.33212235,4007.92263345377,1752891.77503797,-330912.508061138,-6496280.59799969,1753397.46479497,4869.053166336,-1744.62001829119,-5718.09338756036,0.43170261251612,8.47704770890372,-2.2947853595009,6769036.04652389,1.52210014046327,-0.0053405914174661,-0.117419843064626,-0.0019028713109834,-1.84600229841212,0.870007613278932,-0.18263115978018,0.0,-0.0011222300308759,0.0,360198.004703058,1.11227E-11,1152.4001934898,0.43170261251612,8.47704770890372,-2.2947853595009
6900.0,-6580481.49520301,-264299.255897629,1406169.36051686,-38221.0354088488,-6585616.08666376,1406450.49232509,4883.51027667073,-1231.94704673216,-5842.28981402157,0.0498361575379073,8.60528886183999,-1.84323370826753,6769521.81075491,1.52647540971366,-0.0055029603063076,-0.116056467322932,-0.0015513726665084,-1.76709475097341,0.885752941326899,-0.0801119379063742,0.0,-0.0011222300308759,0.0,357033.114499332,1.18678E-11,1155.89080819895,0.0498361575379073,8.60528886183999,-1.84323370826753
6960.0,-6627647.84003104,-530830.702557448,1052815.64617096,254649.474631617,-6643984.8304363,1052870.89857696,4875.00866290864,-712.804950628478,-5939.0801214267,-0.333271454476701,8.69255739108812,-1.38161919771308,6769909.80962488,1.53085067896118,-0.0056412591234826,-0.11463804062967,-0.0011863289133057,-1.68474675269414,0.896168883908508,0.0257373917740218,0.0,-0.0011222300308759,0.0,354098.266571917,1.25916E-11,1158.7308237098,-0.333271454476701,8.69255739108812,-1.38161919771308
7020.0,-6646057.14874337,-794585.514048071,694490.702801582,546320.408614858,-6671072.86003054,694319.816129811,4843.53111955659,-189.672913705807,-6007.92811269004,-0.715707645878468,8.73819569800821,-0.912206679805172,6770191.958829,1.53522594820014,-0.0057543296116527,-0.11316767196927,-8.093154326791E-4,-1.60030225774512,0.90100059527837,0.133620180487741,0.0,-0.0011222300308759,0.0,351412.643794757,1.328E-11,1160.90967138083,-0.715707645878468,8.73819569800821,-0.912206679805172
7080.0,-6635557.97564743,-1054574.90511211,332882.65001942,835415.575141971,-6666716.00774285,332486.430203973,4789.17575119518,334.937101607921,-6048.43556931851,-1.09554342890508,8.74177014803345,-0.43732823286157,6770362.16276344,1.53960121745052,-0.0058411266024814,-0.111648739095043,-4.219923777505E-4,-1.51530238754908,0.900124562500357,0.242042142502341,0.0,-0.0011222300308759,0.0,348992.882362782,1.39185E-11,1162.42023330852,-1.09554342890508,8.74177014803345,-0.43732823286157
7140.0,-6596129.21200686,-1309826.16428904,-30300.7294821958,1120568.14534405,-6630901.46632341,-30920.4124121094,4712.15657275847,858.494022955182,-6060.34584975319,-1.47084630499313,8.70307843958992,0.0406315260497518,6770416.47229647,1.54397648670376,-0.0059007265434354,-0.110084870300965,-2.60976979237E-5,-1.43134273028483,0.893563437366592,0.349454404842998,0.0,-0.0011222300308759,0.0,346852.900519337,1.4493E-11,1163.25898651807,-1.47084630499313,8.70307843958992,0.0406315260497518
7200.0,-6527880.96118619,-1559386.56317923,-393340.564456922,1400427.60587285,-6563768.51566925,-394180.783279286,4612.80332177411,1378.46171784425,-6043.54657601712,-1.83969360225723,8.62215490483673,0.519251110637308,6770353.20036697,1.54835175594557,-0.0059323354294202,-0.108479924464483,3.765603177203E-4,-1.34991762923107,0.881483265049363,0.454409566428832,0.0,-0.0011222300308759,0.0,345003.770350823,1.49899E-11,1163.42599150979,-1.83969360225723,8.62215490483673,0.519251110637308
7260.0,-6431054.70534934,-1802327.19437566,-754515.602127829,1673666.6764424,-6465608.39830614,-755572.384722781,4491.56046206585,1892.31329521593,-5998.07135594871,-2.20018605531109,8.49927357775107,0.996088605276047,6770172.99084683,1.5527270251931,-0.0059352960603864,-0.106837969510301,7.841109551246E-4,-1.27228841016143,0.86417387064224,0.555693821438793,0.0,-0.0011222300308759,0.0,343453.635090437,1.53973E-11,1162.92478453109,-2.20018605531109,8.49927357775107,0.996088605276047
