time,gePosition_m_X,gePosition_m_Y,gePosition_m_Z,eiPosition_m_X,eiPosition_m_Y,eiPosition_m_Z,eiVelocity_m_s_X,eiVelocity_m_s_Y,eiVelocity_m_s_Z,eiAccel_m_s2_X,eiAccel_m_s2_Y,eiAccel_m_s2_Z,semiMajorAxis_m,gast_rad,eulerAngle_rad_Roll,eulerAngle_rad_Pitch,eulerAngle_rad_Yaw,eulerAngleWrtEi_rad_Roll,eulerAngleWrtEi_rad_Pitch,eulerAngleWrtEi_rad_Yaw,bodyAngularRateWrtEi_rad_s_Roll,bodyAngularRateWrtEi_rad_s_Pitch,bodyAngularRateWrtEi_rad_s_Yaw,altitudeMsl_m,airDensity_kg_m3,ambientTemperature_dgK,eiGravitation_m_s2_X,eiGravitation_m_s2_Y,eiGravitation_m_s2_Z
0.0,-1436381.48862739,4185811.47756286,5163944.85376219,-4315967.73999999,960356.199999999,5167269.52999999,129.091036999934,-7491.51385500013,1452.51565399991,5.46941408349186,-1.21701227670639,-6.54822705894007,6759053.07578975,1.02331933954551,0.19689735485747,1.48180599450461,0.197659401373358,-1.37314475827125,-0.86773747862804,3.05977258849908,-1.9585614615E-5,-9.475261846072E-4,0.0,435023.891975937,1.782E-12,992.872619628906,5.46941408349186,-1.21701227670639,-6.54822705894007
60.0,-1794950.05296065,3943125.78856612,5239239.79605635,-4298383.75497048,509016.725547931,5242568.01441598,456.873453273713,-7547.42173400805,1056.41305957734,5.45257924198937,-0.645697124724758,-6.65029442684518,6759053.07578973,1.02769460895833,0.222722943971901,1.49263472819717,0.223578073492409,-1.44048694640206,-0.877080121548134,-3.13704097079112,-1.9585614615E-5,-9.296916630247E-4,-4.8401607777E-6,433115.87313641,1.7272E-12,986.205200195312,5.45257924198937,-0.645697124724758,-6.65029442684518
120.0,-2147547.18523093,3685626.96521056,5290617.76797841,-4261177.84165865,55353.9685751973,5293934.33527935,782.910113090134,-7568.91571402689,655.073376703436,5.41122605044224,-0.0702934371387033,-6.7227129326392,6759053.07578975,1.03206987837114,0.25681242700296,1.50447375426985,0.257777139226893,-1.50822765466261,-0.882842380067207,-3.05069306132271,-1.9585614615E-5,-9.143394342456E-4,-9.6084120328E-6,430911.681513475,1.8587E-12,994.001220703125,5.41122605044224,-0.0702934371387033,-6.7227129326392
180.0,-2492684.26106042,3414408.64931455,5317818.15938755,-4204498.84971832,-398561.363029105,5321107.91929482,1105.73160265977,-7555.82484024798,250.289448678891,5.34542737930093,0.506714568945596,-6.76503834979504,6759053.07578975,1.03644514778395,0.305885514411814,1.51713264466566,0.306995146941385,-1.57580172400148,-0.885127887865175,-2.96484548743038,-1.9585614615E-5,-9.016929711346E-4,-1.42480051469E-5,428423.881970259,2.0149E-12,1002.46813964843,5.34542737930093,0.506714568945596,-6.76503834979504
240.0,-2828892.49737323,3130615.38183372,5320688.59130997,-4128583.6023506,-850652.794750099,5323936.49262932,1423.87589009512,-7508.12814381691,-156.122774234484,5.25535668534846,1.08281296502147,-6.77694529983122,6759053.07578975,1.04082041719676,0.385836768493131,1.53035169788828,0.38714486278272,-1.64268574986792,-0.884048246981416,-2.87993157112256,-1.9585614615E-5,-8.919428975743E-4,-1.87041321308E-5,425661.788629329,2.1986E-12,1011.51983642578,5.25535668534846,1.08281296502147,-6.77694529983122
300.0,-3154729.04319163,2835438.15525896,5299186.08634122,-4033756.27141946,-1298847.13301984,5302377.25117308,1735.89440574255,-7425.95617001209,-562.331476724368,5.14128947640578,1.6554666784825,-6.758230921026,6759053.07578974,1.04519568660958,0.544019651242898,1.54365995568536,0.545597041692514,-1.70841320739167,-0.879715191390237,-2.79632641805203,-1.9585614615E-5,-8.852432891944E-4,-2.29250548986E-5,422639.041661672,2.4127E-12,1021.03753662109,5.14128947640578,1.6554666784825,-6.758230921026
360.0,-3468783.07647878,2530109.78695854,5253377.79833675,-3920427.3852626,-1741083.58875551,5256497.58980595,2040.358202706,-7309.59197714171,-966.496434167889,5.00360451248762,2.2221285704879,-6.70881831891693,6759053.07578973,1.04957095602238,0.974001161050803,1.55549558922424,0.975934802471692,-1.77258259696544,-0.872233665815706,-2.71433892883151,-1.9585614615E-5,-8.817084633584E-4,-2.68632182795E-5,419368.929530792,2.6601E-12,1030.88061523437,5.00360451248762,2.2221285704879,-6.70881831891693
420.0,-3769681.88461013,2215900.12426178,5183441.28898942,-3789092.46488669,-2175322.94417954,5186475.37826282,2335.86418042511,-7159.47157516558,-1366.77666753675,4.84278469880816,2.78024903500316,-6.62875974533589,6759053.07578974,1.0539462254352,2.08092701549466,1.55810120333732,2.08331856569817,-1.83485905839241,-0.861696449959575,-2.63421038334968,-1.9585614615E-5,-8.814104209928E-4,-3.04763037353E-5,415862.944916343,2.9435E-12,1040.90124511718,4.84278469880816,2.78024903500316,-6.62875974533589
480.0,-4056096.90457647,1894111.0930593,5089664.33987088,-3640330.28534663,-2599556.72836462,5092598.77217131,2621.04135141867,-6976.18377266991,-1761.33827945779,4.65941762361249,3.32728612084416,-6.51823944782057,6759053.07578977,1.05832149484801,2.72263842216356,1.5478279154198,2.72560259776456,-1.89497084359631,-0.848180698336036,-2.55611817249969,-1.9585614615E-5,-8.84377077038E-4,-3.37281799666E-5,412141.010399527,3.266E-12,1050.95715332031,4.65941762361249,3.32728612084416,-6.51823944782057
540.0,-4326749.69756451,1566071.60277223,4972444.28970021,-3474800.76038683,-3011816.36506654,4975265.54902237,2894.55712842804,-6760.46940100285,-2148.36244979976,4.45419569213641,3.86071616874285,-6.37757612704768,6759053.07578973,1.06269676426082,2.93416586185245,1.53446048053985,2.93782858673456,-1.95270247758528,-0.831746490475482,-2.48018280932376,-1.9585614615E-5,-8.90591375987E-4,-3.65897095869E-5,408245.009205563,3.6305E-12,1060.92248535156,4.45419569213641,3.86071616874285,-6.37757612704768
600.0,-4580417.83115437,1233132.32171001,4832286.88801512,-3293242.44987753,-3410182.25455717,4834981.96024697,3155.12360624466,-6513.21988517542,-2526.05356531136,4.22791580717381,4.37804494470854,-6.20722493659359,6759053.07578972,1.06707203367362,3.03081580744715,1.52075701337412,3.03531217489437,-2.00788640741477,-0.812437249496574,-2.4064763805435,-1.9585614615E-5,-8.999913382447E-4,-3.90393776573E-5,404179.462525087,4.0402E-12,1070.69116210937,4.22791580717381,4.37804494470854,-6.20722493659359
660.0,-4815940.64104647,896660.338080295,4669804.658067,-3096469.69121065,-3792792.74938626,4672361.0922199,3401.50380953293,-6235.4751325988,-2892.64745381796,3.9814785468529,4.87681923940826,-6.00777895699357,6759053.07578973,1.07144730308643,3.08596229384417,1.50737579721436,3.09143436525072,-2.06039458512746,-0.79028171993976,-2.33503095397675,-1.9585614615E-5,-9.124710274725E-4,-4.10637174976E-5,399971.032421958,4.498E-12,1080.177734375,3.9814785468529,4.87681923940826,-6.00777895699357
720.0,-5032224.84301553,558033.723222627,4485714.76365379,-2885369.35762982,-4157852.98232741,4488120.73090507,3632.51787502519,-5928.42071290884,-3246.41968936135,3.71588679137418,5.35463889108384,-5.7799700748754,6759053.07578974,1.07582257249925,3.12185201990105,1.49463428143616,3.12844648532366,-2.11013093048275,-0.765297106267732,-2.26584595980733,-1.9585614615E-5,-9.278823749916E-4,-4.26575207663E-5,395644.312507246,5.0068E-12,1089.31494140625,3.71588679137418,5.35463889108384,-5.7799700748754
780.0,-5228249.96471964,218636.014987864,4280836.37674413,-2660897.24845206,-4503643.50324198,4283080.72699815,3847.04913363255,-5593.38430505629,-3585.69393050879,3.43224375272009,5.80916917685302,-5.52466919802599,6759053.07578971,1.08019784191205,-3.13591508605182,1.48275745858661,-3.12804935741108,-2.15702512189887,-0.73749295306672,-2.19889406449151,-1.9585614615E-5,-9.460377508924E-4,-4.38238310788E-5,391239.371566104,5.569E-12,1098.04919433593,3.43224375272009,5.80916917685302,-5.52466919802599
840.0,-5403073.56610133,-120149.359440601,4056087.54513498,-2424074.11828712,-4828528.68027276,4058159.86081252,4044.05005535288,-5231.83139153667,-3908.85024994641,3.13175036476533,6.23815350431992,-5.24288573872322,6759053.07578971,1.08457311132487,-3.11683692323634,1.47193043426627,-3.10755141128238,-2.20102776378897,-0.70687537974987,-2.13412546032897,-1.9585614615E-5,-9.667131378673E-4,-4.45737320453E-5,386783.36853393,6.1865E-12,1106.337890625,3.13175036476533,6.23815350431992,-5.24288573872322
900.0,-5555836.21643855,-456944.700614717,3812481.56201669,-2175981.35466125,-5130964.8197019,3814372.20878814,4222.54801743493,-4845.36018410731,-4214.33340949304,2.81570199583596,6.63942632249614,-4.93576630063449,6759053.07578971,1.08894838073768,-3.10190605960605,1.46231279486381,-3.09105516546228,-2.24210671474617,-0.673451347367204,-2.07147076139143,-1.9585614615E-5,-9.896517463668E-4,-4.49259503668E-5,382312.202711834,6.86E-12,1114.14501953125,2.81570199583596,6.63942632249614,-4.93576630063449
960.0,-5685766.19566931,-790383.671759211,3551122.84218329,-1917756.31588993,-5409507.95802194,3552823.01636839,4381.6508541503,-4435.69577058025,-4500.6610309171,2.4854844515996,7.01092615837827,-4.60459250912234,6759053.07578972,1.09332365015049,-3.08985059830208,1.45404279993823,-3.07729422176344,-2.2802442316746,-0.637232715589939,-2.01084282909186,-1.9585614615E-5,-0.0010145679097408,-4.49063016256E-5,377856.445031534,7.589E-12,1121.44067382812,2.4854844515996,7.01092615837827,-4.60459250912234
1020.0,-5792183.88745711,-1119116.92826509,3273202.31270561,-1650587.34359683,-5662821.27931989,3274704.08507219,4520.55214480204,-4004.68347826534,-4766.43160950609,2.142569243206,7.35070867343741,-4.25077793095601,6759053.07578973,1.0976989195633,-3.07988019396751,1.4472383153093,-3.06548627428977,-2.31543456325116,-0.598239930210523,-1.95213787433089,-1.9585614615E-5,-0.0010411511146338,-4.4547010169E-5,373447.342355096,8.3717E-12,1128.19860839843,2.142569243206,7.35070867343741,-4.25077793095601
1080.0,-5874505.83161228,-1441817.71721154,2979992.32915881,-1375708.46691858,-5889682.11100618,2981288.68486422,4638.53619533496,-3554.28145632444,-5010.33231432359,1.78850810379332,7.6569596230627,-3.87586403721867,6759053.07578973,1.10207418897612,-3.07147532342067,1.4419966181058,-3.05512229839725,-2.34768167550845,-0.556505255786629,-1.89523613392851,-1.9585614615E-5,-0.0010690700521625,-4.3885934969E-5,369123.039741439,9.204E-12,1134.39477539062,1.78850810379332,7.6569596230627,-3.87586403721867
1140.0,-5932248.4039663,-1757187.42128327,2672841.13193515,-1094393.81813834,-6088988.45127266,2673926.00636778,4734.98266817238,-3086.55248662178,-5231.14651659028,1.42492674575694,7.92800759198617,-3.48151517260018,6759053.07578971,1.10644945838892,-3.06427743640666,1.43839384159337,-3.04585657239054,-2.37699687709184,-0.512075528465488,-1.84000233237875,-1.9585614615E-5,-0.0010979766149396,-4.29657309463E-5,364915.068191987,1.00797E-11,1140.0087890625,1.42492674575694,7.92800759198617,-3.48151517260018
1200.0,-5965031.09263159,-2063961.0204902,2353166.86074483,-807951.78222116,-6259764.9824726,2354035.17103883,4809.37081475112,-2603.65504053764,-5427.7609857378,1.05351786143355,8.16233637022415,-3.06951250520709,6759053.07578971,1.11082472780174,-3.05802760882954,1.43648436940832,-3.03744515310782,-2.4033962030922,-0.465014448072796,-1.78628604446371,-1.9585614615E-5,-0.0011275098085788,-4.18329706729E-5,360863.758501577,1.09902E-11,1145.02197265625,1.05351786143355,8.16233637022415,-3.06951250520709
1260.0,-5972579.34078806,-2360912.44430451,2022451.14907147,-517718.905444595,-6401168.5259121,2023098.8210857,4861.28326571475,-2107.83360754954,-5599.17269149623,0.676033380940563,8.3585968274164,-2.64174694339379,6759053.07578971,1.11519999721455,-3.05253008542797,1.43630031540889,-3.0297091924097,-2.42689749507424,-0.4154044564799,-1.73392198916492,-1.9585614615E-5,-0.0011572995884372,-4.05372455327E-5,356989.88879117,1.19243E-11,1149.41845703125,0.676033380940563,8.3585968274164,-2.64174694339379
1320.0,-5954726.92773196,-2646859.78623667,1682232.32406168,-225053.590988733,-6512492.89534937,1682656.31463409,4890.40933489856,-1601.40833005961,-5744.49514996993,0.294276012649861,8.51561813892541,-2.20021101976292,6759053.0757897,1.11957526662736,-3.04762915740624,1.43785115463322,-3.02251154163984,-2.44751717120727,-0.363348263254139,-1.6827302206195,-1.9585614615E-5,-0.0011869706678687,-3.91302593078E-5,353325.379358563,1.28683E-11,1153.18420410156,0.294276012649861,8.51561813892541,-2.20021101976292
1380.0,-5911417.86190764,-2920670.35250865,1334098.24103967,68670.3880714445,-6593173.10883245,1334296.55535028,4896.54779513275,-1086.7639878207,-5862.96425210167,-0.0899098960440005,8.63241821494413,-1.74698975719487,6759053.07578972,1.12395053604017,-3.04319321981269,1.44112354143162,-3.01574049203301,-2.46526671209308,-0.308970082983619,-1.63251614018529,-1.9585614615E-5,-0.0012161463688241,-3.76649216844E-5,349887.877812378,1.3806E-11,1156.30737304687,-0.0899098960440005,8.63241821494413,-1.74698975719487
1440.0,-5842707.76201866,-3181265.51636918,979678.785495972,362070.525485077,-6642788.92137517,979650.489395994,4879.60908652043,-566.338384237287,-5953.9435142794,-0.474648127619749,8.70821318437834,-1.28425054729494,6759053.07578971,1.12832580545299,-3.03910230856863,1.44608133928695,-3.00929695582009,-2.48014889797842,-0.2524166452375,-1.58307023273968,-1.9585614615E-5,-0.001244452596053,-3.61944451012E-5,346706.096759477,1.47194E-11,1158.779296875,-0.474648127619749,8.70821318437834,-1.28425054729494
1500.0,-5748764.70507538,-3427625.34975377,620638.078947695,653762.333106524,-6661067.64437286,620383.306138302,4839.61692122074,-42.6101956258431,-6016.92869314292,-0.858040930629494,8.74242578859681,-0.814232087701472,6759053.07578972,1.13270107486579,-3.03523634807653,1.45266588296315,-3.00308232541222,-2.49215382735271,-0.193858031573207,-1.53416742555626,-1.9585614615E-5,-0.0012715220107011,-3.47714462027E-5,343802.040213793,1.5589E-11,1160.59423828125,-0.858040930629494,8.74242578859681,-0.814232087701472
1560.0,-5629869.52336298,-3658793.00444601,258666.428449587,942366.169550534,-6647886.22158201,258186.382421698,4776.70925286993,481.913646959191,-6051.55170992155,-1.23817984887068,8.73469254639504,-0.339232440952161,6759053.0757897,1.1370763442786,-3.03146115509044,1.46079649221296,-2.99698406425765,-2.50125473230755,-0.133488387558789,-1.48556597466649,-1.9585614615E-5,-0.0012969984576241,-3.34470531505E-5,341194.809433872,1.63948E-11,1161.75048828125,-1.23817984887068,8.73469254639504,-0.339232440952161
1620.0,-5486415.53578598,-3873878.81565195,-104527.937309176,1226514.10726219,-6603272.53590882,-105230.986633408,4691.13858357771,1004.71096567017,-6057.58383388099,-1.61315695786555,8.68486956074344,0.138403706297078,6759053.07578971,1.14145161369142,-3.02760759995341,1.47037125392889,-2.99085443961446,-2.50740358934615,-0.0715265539612835,-1.43700579800367,-1.9585614615E-5,-0.0013205416648886,-3.22700220933E-5,338900.033050452,1.71169E-11,1162.24951171875,-1.61315695786555,8.68486956074344,0.138403706297078
1680.0,-5318907.70283333,-4072064.1019676,-467227.299514595,1504856.79757914,-6527405.92613757,-468150.024467193,4583.27158689285,1523.25764850287,-6034.93807965509,-1.98107641258762,8.59303685005665,0.61629848934214,6759053.07578968,1.14582688310422,-3.02343458781034,1.48126808294448,-2.98447306991547,-2.51052651229946,-0.0082166617245747,-1.38820619566163,-1.9585614615E-5,-0.0013418321870314,-3.12858698518E-5,336930.547114413,1.77367E-11,1162.09594726562,-1.98107641258762,8.59303685005665,0.61629848934214
1740.0,-5127961.19846994,-4252604.63710667,-827713.000002484,1776070.29224585,-6420616.89803702,-828851.029178807,4453.58803117798,2035.04117494649,-5983.6707793453,-2.34006620120463,8.45950110171649,1.09205490778318,6759053.07578969,1.15020215251704,-3.01855330724536,1.49334605445276,-2.97747074482599,-2.51051891374498,0.0561712591975579,-1.33886292724882,-1.9585614615E-5,-0.0013605765106384,-3.05360346924E-5,335291.79559479,1.8238E-11,1161.29748535156,-2.34006620120463,8.45950110171649,1.09205490778318
1800.0,-4914299.39655295,-4414833.77045378,-1184274.06081496,2038862.77910038,-6283386.01995747,-1185621.99837091,4302.67899438522,2537.57425734871,-5903.98229721834,-2.68828999193672,8.28479676321324,1.563271341805,6759053.07578972,1.15457742192984,-3.01224927218968,1.50644695424403,-2.96915105470146,-2.50724044153685,0.121340597167866,-1.28864466056308,-1.9585614615E-5,-0.0013765121878198,-3.00570821613E-5,333986.592814175,1.86075E-11,1159.8642578125,-2.68828999193672,8.28479676321324,1.563271341805
1860.0,-4678751.27384586,-4558165.17550895,-1535215.82035346,2291981.18932059,-6116341.99900997,-1536767.27052201,4131.24436818579,3028.40849620833,-5796.21686253404,-3.02395895420355,8.06968540625765,2.02755640834885,6759053.07578971,1.15895269134266,-3.00298753229881,1.52039683731989,-2.95799521533428,-2.50050974985594,0.186967329958803,-1.23718887588001,-1.9585614615E-5,-0.0013894128169869,-2.98799774281E-5,333023.694576347,1.88361E-11,1157.80871582031,-3.02395895420355,8.06968540625765,2.02755640834885
1920.0,-4422248.23629437,-4682095.20758263,-1878868.5327224,2534217.63371056,-5920258.94012954,-1880616.12944749,3940.08965666533,3505.14794437974,-5660.86150437821,-3.34534343126696,7.81515332120991,2.48254401346353,6759053.07578972,1.16332796075546,-2.98665646874241,1.53500667011916,-2.93990551508456,-2.4900992675297,0.252698966380874,-1.18409742430592,-1.9585614615E-5,-0.001399092657582,-3.00294486001E-5,332391.368537755,1.89188E-11,1155.14477539062,-3.34534343126696,7.81515332120991,2.48254401346353
1980.0,-4145820.37988565,-4786204.85465362,-2213595.87615342,2764415.62604315,-5696052.79668822,-2215531.31770625,3730.12208223058,3965.46247331452,-5498.54408123171,-3.65078433973382,7.5224073227409,2.92590844975406,6759053.07578973,1.16770323016828,-2.94702568738127,1.55006573412304,-2.89866290564134,-2.47573030694985,0.318153173004893,-1.12893212456792,-1.9585614615E-5,-0.0014054106515947,-3.05234663267E-5,332088.124882657,1.88552E-11,1151.8896484375,-3.65078433973382,7.5224073227409,2.92590844975406
2040.0,-3850592.20205958,-4870161.26810219,-2537803.3162387,2981476.0524577,-5444777.02775601,-2539917.40464894,3502.34601885064,4407.10083405644,-5310.03040722925,-3.93870417168069,7.19286877230354,3.35537938303031,6759053.07578972,1.17207849958109,-2.69024902122714,1.56518225386303,-2.64042975640182,-2.45706915294951,0.38291601847524,-1.07121107974854,-1.9585614615E-5,-0.0014082736332917,-3.13728633036E-5,332106.492988088,1.86497E-11,1148.06201171875,-3.93870417168069,7.19286877230354,3.35537938303031
2100.0,-3537777.7842228,-4933718.86302895,-2849946.27010053,3184362.8473419,-5167617.48351946,-2852228.95520337,3257.8577801411,4827.90330679567,-5096.22048649193,-4.20761747785822,6.82816584821422,3.76875657018318,6759053.07578969,1.1764537689939,-0.0848001950577708,1.5604619233617,-0.0336853319983571,-2.43372523298136,0.44653982402883,-1.01040685554501,-1.9585614615E-5,-0.0014076385403007,-3.25811129548E-5,332436.647119555,1.83109E-11,1143.68359375,-4.20761747785822,6.82816584821422,3.76875657018318
2160.0,-3208675.47035553,-4976719.98104162,-3148538.01859035,3372108.3379931,-4865886.54666878,-3150978.4464598,2997.83979695331,5225.81383539432,-4858.14387638673,-4.45614071542284,6.43012411936434,4.16392415109828,6759053.07578969,1.18082903840671,0.0267266810543687,1.54528470893655,0.0789738352489295,-2.40525315471502,0.508540730107617,-0.945948342575253,-1.9585614615E-5,-0.0014035134916192,-3.41442799587E-5,333066.005099968,1.78509E-11,1138.77880859375,-4.45614071542284,6.43012411936434,4.16392415109828
2220.0,-2864662.07094015,-4999095.11168753,-3432157.3151414,3543818.22264015,-4541016.56366408,-3434743.88065137,2723.55422591876,5598.89154739995,-4596.95420990145,-4.68300135086101,6.00075550322053,4.53886436109825,6759053.07578969,1.18520430781953,0.0542747990363756,1.53037653267216,0.107491684460455,-2.37116134539763,0.56839631299923,-0.877229068592736,-1.9585614615E-5,-0.0013959576658658,-3.60511470611E-5,333979.109729137,1.72847E-11,1133.37670898437,-4.68300135086101,6.00075550322053,4.53886436109825
2280.0,-2507186.62541305,-5000862.67208411,-3699455.64198127,3698676.14908531,-4194552.60560034,-3702176.0452091,2436.33603668914,5945.32156561527,-4313.92291635228,-4.88704611808631,5.54224571226042,4.8916705169458,6759053.07578967,1.18957957723233,0.0662767404698552,1.516003987054,0.12030469510092,-2.33093120616515,0.625543958283027,-0.803625900038819,-1.9585614615E-5,-0.0013850799884875,-3.82835137534E-5,335158.673879047,1.66294E-11,1127.51000976562,-4.88704611808631,5.54224571226042,4.8916705169458
2340.0,-2137763.75998771,-4982128.34771015,-3949164.06702101,3835947.86426367,-3828144.60382657,-3952005.37318312,2137.5856312861,6263.42502420404,-4010.43218819379,-5.06724834291493,5.05694031477732,5.22055913872466,6759053.07578968,1.19395484664514,0.0725917302570296,1.50236888726584,0.127279051898364,-2.28405187990567,0.679381260574081,-0.724533252578096,-1.9585614615E-5,-0.0013710367108164,-4.08166539054E-5,336584.780760045,1.59034E-11,1121.21691894531,-5.06724834291493,5.05694031477732,5.22055913872466
2400.0,-1757966.68096509,-4943084.00071346,-4180099.65784223,3954984.90837478,-3443538.91045608,-4183048.36042906,1828.76105392322,6551.6682104693,-3687.96724961926,-5.2227142580154,4.54732955556591,5.52388108175066,6759053.07578966,1.19833011605796,0.076112398627997,1.48965546830066,0.131317250619255,-2.23007631226611,0.729270470509596,-0.6394185064561,-1.9585614615E-5,-0.0013540280281746,-4.36199123489E-5,338237.820605789,1.51251E-11,1114.54150390625,-5.2227142580154,4.54732955556591,5.52388108175066
2460.0,-1369419.84649417,-4884006.15541827,-4391171.41276059,4055227.83087124,-3042569.33836501,-4394213.49951842,1511.36985379525,6808.67076269241,-3348.1079897772,-5.3526882466955,4.01603209892244,5.8001315667854,6759053.07578966,1.20270538547076,0.077986404355787,1.47803285764138,0.133579501930737,-2.16870303634007,0.774549829910042,-0.54790306928032,-1.9585614615E-5,-0.0013342939314681,-4.66574154624E-5,340097.322523272,1.43125E-11,1107.53356933593,-5.3526882466955,4.01603209892244,5.8001315667854
2520.0,-973791.362125411,-4805254.07393307,-4581385.67290259,4136208.90944042,-2627147.73915122,-4584506.69429283,1186.96066657254,7033.21286459982,-2992.52002966002,-5.45655696920541,3.46577787028103,6.04795901290603,6759053.07578968,1.20708065488357,0.078752155128228,1.46765388602035,0.13461917538914,-2.09988316146364,0.814555167974098,-0.449868575275416,-1.9585614615E-5,-0.00131210951226,-4.98888684689E-5,342141.696815048,1.34825E-11,1100.24890136718,-5.45655696920541,3.46577787028103,6.04795901290603
2580.0,-572785.147390056,-4707267.43781708,-4749850.98353471,4197554.35713384,-2199254.18076741,-4753036.12328721,857.114582640312,7224.24138793849,-2622.94529693667,-5.5338523412471,2.89939018337033,6.26617259504528,6759053.07578966,1.21145592429638,0.0786878020185388,1.4586534427036,0.134731468122694,-2.02394158340214,0.848654684502611,-0.345577244316122,-1.9585614615E-5,-0.0012877799435922,-5.32704124683E-5,344348.701216598,1.26502E-11,1092.74890136718,-5.5338523412471,2.89939018337033,6.26617259504528
2640.0,-168132.922015103,-4590563.65462169,-4895782.37746618,4238986.00692558,-1760926.78911277,-4899016.52483245,523.436371451422,7380.87494608252,-2241.19218712019,-5.58425335071625,2.31976734681436,6.45374846704234,6759053.07578965,1.2158311937092,0.0779430556446863,1.45114693739382,0.134084854709938,-1.94168580917562,0.876297500957319,-0.23577979829367,-1.9585614615E-5,-0.0012616353393743,-5.67555168798E-5,346699.89281992,1.1829E-11,1085.09899902343,-5.58425335071625,2.31976734681436,6.45374846704234
2700.0,238413.938762785,-4455734.81074195,-5018505.05814205,4260322.46715904,-1314251.31973982,-5021772.88144669,187.545631709992,7502.40783334975,-1849.12539242667,-5.60758671499291,1.72986394751696,6.60983461059239,6759053.07578962,1.220206463122,0.0765961393312872,1.4452290080733,0.132777643457922,-1.85446072459299,0.897071753907193,-0.12176926640835,-1.9585614615E-5,-0.0012340256581413,-6.02958873276E-5,349172.113965115,1.10296E-11,1077.36669921875,-5.60758671499291,1.72986394751696,6.60983461059239
2760.0,645092.6299925,-4303444.29436086,-5117457.46498066,4261479.74550997,-861350.526997333,-5120743.48606466,-148.932063515115,7588.31283655952,-1448.6554814646,-5.60382639697585,1.13267200796212,6.73375429029929,6759053.07578961,1.22458173253482,0.0746804865975788,1.44097251111441,0.130864256919395,-1.76410536705607,0.910761630391876,-0.005336745620689,-1.9585614615E-5,-0.0012053157683845,-6.38423742567E-5,351745.525172395,1.0261E-11,1069.61853027343,-5.60382639697585,1.13267200796212,6.73375429029929
2820.0,1050137.17430786,-4134423.1143157,-5192193.70851846,4242471.34319839,-404373.398384729,-5195482.37766708,-484.373959197895,7638.24291709557,-1041.72831349033,-5.57309201318007,0.531202210827764,6.82500811467242,6759053.07578959,1.22895700194763,0.0721974520445314,1.43842779675769,0.128367516477665,-1.672790648118,0.917387928761487,0.111391934525734,-1.9585614615E-5,-0.0011758807393404,-6.73458728109E-5,354398.272615846,9.5294E-12,1061.9169921875,-5.57309201318007,0.531202210827764,6.82500811467242
2880.0,1451786.66180941,-3949465.94244173,-5242385.36793528,4203407.82516573,54515.6783463177,-5245661.13888485,-817.168783161829,7652.03177314597,-630.314370399768,-5.51564618127331,-0.0715346227625522,6.88327472193428,6759053.0757896,1.23333227136044,0.0691215359985367,1.43762226075224,0.125283441953144,-1.5827631556548,0.917217670403363,0.226213506233836,-1.9585614615E-5,-0.0011461013698816,-7.07582089154E-5,357127.050622775,8.8392E-12,1054.31591796875,-5.51564618127331,-0.0715346227625522,6.88327472193428
2940.0,1848293.42476427,-3749426.90833708,-5267822.64847497,4144495.87574823,513147.748717933,-5271070.053098,-1145.72522139472,7629.69330268168,-216.398087948374,-5.43189086714155,-0.672545625166528,6.90841012752058,6759053.07578962,1.23770754077325,0.0654006929631044,1.43856015892438,0.121581146330927,-1.49606531133177,0.910736733114191,0.337128232055841,-1.9585614615E-5,-0.0011163599249701,-7.40330093948E-5,359899.91400636,8.1928E-12,1046.85974121093,-5.43189086714155,-0.672545625166528,6.90841012752058
3000.0,2237931.10095415,-3535215.17653549,-5268414.90108677,4066036.85297553,969360.060597678,-5271618.62336235,-1468.48014592901,7571.41999793311,198.032735028795,-5.32236280271612,-1.26887338101428,6.90044578680021,6759053.07578961,1.24208281018606,0.0609523508651735,1.44122267116958,0.117198461738311,-1.41431450394496,0.89859187014417,0.442561914940298,-1.9585614615E-5,-0.0010870360185938,-7.71265548912E-5,362713.015715964,7.591E-12,1039.57971191406,-5.32236280271612,-1.26887338101428,6.90044578680021
3060.0,2619002.54149204,-3307790.33676917,-5244190.51123041,3968424.85796637,1421006.70586465,-5247335.4601175,-1783.90654190967,7477.58031147736,610.997374294783,-5.1877280551902,-1.85761268474796,6.85958544151339,6759053.07578962,1.24645807959887,0.0556543852257509,1.44556820223827,0.112032548737317,-1.33859384103182,0.881517857363164,0.541476291860823,-1.9585614615E-5,-0.0010585025671276,-7.99986131616E-5,365551.758324195,7.0333E-12,1032.49670410156,-5.1877280551902,-1.85761268474796,6.85958544151339
3120.0,2989847.52127339,-3068157.6383547,-5195296.1681605,3852144.33894544,1865969.07438224,-5198367.54900438,-2090.52108554479,7348.71504243146,1020.53239419555,-5.02877583577404,-2.43592642588359,6.78620083147289,6759053.07578961,1.25083334901168,0.049328685012706,1.45153290616507,0.105923132192387,-1.26945741449329,0.860267146803051,0.633364896812474,-1.9585614615E-5,-0.0010311217386818,-8.26132471835E-5,368397.876645554,6.5182E-12,1025.62231445312,-5.02877583577404,-2.43592642588359,6.78620083147289
3180.0,3348850.21287356,-2817363.0997522,-5121995.53008521,3717767.25214186,2302166.06312431,-5124978.91420265,-2386.89133010001,7185.53279855908,1424.70157259294,-4.84641164171985,-3.00106048948335,6.6808263640095,6759053.07578961,1.2552086184245,0.0417122449923007,1.45903141562827,0.0986233034627251,-1.20701539689811,0.835554184711698,0.718169055690222,-1.9585614615E-5,-0.0010052408414917,-8.49395878143E-5,371246.104451938,6.0437E-12,1018.9634399414,-4.84641164171985,-3.00106048948335,6.6808263640095
3240.0,3694446.38759863,-2556488.52404688,-5024667.30434148,3565949.80422879,2727563.98684111,-5027548.69644744,-2671.64246284049,6988.90459626835,1821.60547720822,-4.6416498289719,-3.55035757879072,6.54415284234774,6759053.07578959,1.2595838878373,0.0324052294836104,1.46795774003013,0.089747337147455,-1.15105350503302,0.80801897249385,0.796159454459441,-1.9585614615E-5,-9.811881252911E-4,-8.69525552163E-5,374083.542986349,5.6075E-12,1012.52307128906,-4.6416498289719,-3.55035757879072,6.54415284234774
3300.0,4025130.31048884,-2286646.45050217,-4903802.76511362,3397428.80301284,3140186.14052526,-4906568.66827092,-2943.46360172579,6759.85766546449,2209.39064011363,-4.41560571450037,-4.08126988692214,6.37702036051282,6759053.0757896,1.26395915725012,0.020772969490587,1.47818625054466,0.0786724861308094,-1.10115107939437,0.778208487701387,0.867819010264885,-1.9585614615E-5,-9.592685100146E-4,-8.86335077504E-5,376903.690005046,5.2071E-12,1006.30517578125,-4.41560571450037,-4.08126988692214,6.37702036051282
3360.0,4339461.29930718,-2008975.0714589,-4760002.73421949,3213017.64477507,3538121.9680758,-4762640.21201355,-3201.11360661144,6499.56853000717,2586.25828370091,-4.1694873072401,-4.59137056447512,6.18041047649832,6759053.07578961,1.26833442666293,0.0057474495153675,1.4895725522311,0.0643403115976779,-1.05677849666907,0.746571659679365,0.933746309085908,-1.9585614615E-5,-9.397593010332E-4,-8.99707924962E-5,379702.736520871,4.8397E-12,1000.31518554687,-4.1694873072401,-4.59137056447512,6.18041047649832
3420.0,4636069.9208655,-1724633.14273655,-4593974.05308538,3013601.96800336,3919535.79588678,-4596470.78874753,-3443.42638559879,6209.35543712113,2950.47255822695,-3.90458676469931,-5.07836394947816,5.95543777732581,6759053.0757896,1.27270969607574,-0.0146150005271154,1.50195370926456,0.044814262619202,-1.01736828232892,0.71346314314868,0.99458522795384,-1.9585614615E-5,-9.229059937534E-4,-9.09601688927E-5,382481.219979073,4.503E-12,994.560974121093,-3.90458676469931,-5.07836394947816,5.95543777732581
3480.0,4913663.8013984,-1434794.91435448,-4406525.57621861,2800135.00424387,4282675.09453718,-4408869.92844407,-3669.3156829035,5890.67021055465,3300.36825785916,-3.62227166888272,-5.54009454489167,5.70334094941413,6759053.07578963,1.27708496548855,-0.044255266952265,1.51514619368634,0.0161580449120551,-0.982362158845344,0.679151970429758,1.0509784980493,-1.9585614615E-5,-9.08918307E-4,-9.16050769617E-5,385237.41801202,4.1944E-12,989.052734375,-3.62227166888272,-5.54009454489167,5.70334094941413
3540.0,5171033.03104035,-1140645.10687123,-4198563.71826794,2573632.65745183,4625878.23626217,-4200744.77349779,-3877.77934009378,5545.08960263163,3634.35798889144,-3.32397621037094,-5.97455474653182,5.42547346549906,6759053.07578964,1.28146023490136,-0.0925295479879571,1.52893547516663,-0.0309825040679217,-0.951239319582878,0.643832352867977,1.10353991913752,-1.9585614615E-5,-8.97966608937E-4,-9.19167246217E-5,387972.994330063,3.9118E-12,983.801513671875,-3.32397621037094,-5.97455474653182,5.42547346549906
3600.0,5407055.14574881,-843373.956970038,-3971087.58814318,2335168.34355412,4947581.72037942,-3973095.20910322,-4067.90302770613,5174.30621967543,3950.93877036673,-3.01119236341293,-6.3798913405502,5.12329399539362,6759053.07578962,1.28583550431417,-0.188047094450574,1.54302619408935,-0.125217147336145,-0.923531462166281,0.607634957661992,1.15283970234416,-1.9585614615E-5,-8.901789074114E-4,-9.1913974796E-5,390683.297780776,3.653E-12,978.820373535156,-3.01119236341293,-6.3798913405502,5.12329399539362
3660.0,5620699.67320821,-544172.354127681,-3725183.74466066,2085867.62197036,5246326.84326943,-3727008.61497394,-4238.8634490133,4780.11909368701,4248.69805362076,-2.68546112793404,-6.75441080423327,4.79835664237087,6759053.07578961,1.29021077372699,-0.470579127752708,1.55667652532939,-0.40632012297183,-0.898829160900139,0.570637753449214,1.19939838375167,-1.9585614615E-5,-8.856385664712E-4,-9.16230219808E-5,393363.046407202,3.4159E-12,974.1220703125,-2.68546112793404,-6.75441080423327,4.79835664237087
3720.0,5811032.23230653,-244227.088333207,-3462020.60881147,1826902.65060095,5520765.79381297,-3463654.27352506,-4389.93102204522,4364.42397073962,4526.31915317023,-2.34836390665492,-7.09658345671612,4.45230110011704,6759053.07578962,1.29458604313979,-1.85819390817965,1.56300551728105,-1.79236513660789,-0.876782935577992,0.53287600957625,1.24368598505668,-1.9585614615E-5,-8.843828826151E-4,-9.10768588852E-5,396012.673116218,3.1988E-12,969.718872070312,-2.34836390665492,-7.09658345671612,4.45230110011704
3780.0,5977218.17867247,55283.7731039953,-3182842.56803762,1559486.49530637,5769667.15932568,-3184277.46992772,-4520.47204981049,3929.20338341964,4782.58608683212,-2.00151407727254,-7.40504651712211,4.08684281728905,6759053.07578962,1.29896131255261,-2.68161302781199,1.55193302336636,-2.61408154845863,-0.857101294849469,0.4943513184826,1.28612418772351,-1.9585614615E-5,-8.864026107082E-4,-9.0314545549E-5,398633.829816108,2.9999E-12,965.621520996093,-2.00151407727254,-7.40504651712211,4.08684281728905
3840.0,6118525.7914679,353195.363565346,-2888963.80787696,1284867.32420258,5991920.83096082,-2890193.31941986,-4629.95039200663,3476.51657091421,5016.38782792489,-1.64654881108188,-7.67860613658173,3.70376324796104,6759053.07578961,1.30333658196542,-2.85902610297289,1.53820063401521,-2.78966893163577,-0.839547215822254,0.455039658550814,1.32709011343487,-1.9585614615E-5,-8.91642475134E-4,-8.93803047084E-5,401228.961749201,2.8177E-12,961.838989257812,-1.64654881108188,-7.67860613658173,3.70376324796104
3900.0,6234328.99913108,648360.335801268,-2581761.9060321,1004322.51621249,6186542.30124253,-2582780.35695081,-4717.9286543297,3008.48930614035,5226.72197682053,-1.28512118071244,-7.91623847753918,3.30490025690441,6759053.0757896,1.30771185137822,-2.93246776765543,1.5245696746207,-2.86117390469263,-0.823933956970073,0.414898580640729,1.36692087649232,-1.9585614615E-5,-9.000026428719E-4,-8.83224768265E-5,403796.038610186,2.6508E-12,958.3779296875,-1.28512118071244,-7.91623847753918,3.30490025690441
3960.0,6324109.64404545,939653.009034997,-2262671.22336444,719152.712275633,6352676.34982074,-2263473.92368312,-4784.06891379319,2527.30368474633,5412.69786296427,-0.91889259099814,-8.11708991875713,2.89213873894525,6759053.07578958,1.31208712079104,-2.97409275359307,1.51149676227077,-2.90076502523185,-0.81012073517626,0.373873622175881,1.40591844646506,-1.9585614615E-5,-9.113410785704E-4,-8.71923750935E-5,406341.040816996,2.4978E-12,955.242004394531,-0.91889259099814,-8.11708991875713,2.89213873894525
4020.0,6387459.28815916,1225973.33410367,-1933176.1255476,430675.83645717,6489600.1166853,-1933759.38410685,-4828.13300025315,2035.1879260084,5573.53909173758,-0.549525558555749,-8.28047646754752,2.4674015018008,6759053.07578958,1.31646239020385,-3.00214858678088,1.49922057323533,-2.9267052753838,-0.798008572783263,0.331904050980545,1.44435458898373,-1.9585614615E-5,-9.254766537522E-4,-8.6043084141E-5,408851.006938865,2.3578E-12,952.431518554687,-0.549525558555749,-8.28047646754752,2.4674015018008
4080.0,6424080.56339722,1506250.66802299,-1594804.06816997,140221.112944461,6596725.56493004,-1595165.20657649,-4849.98235562601,1534.40623070603,5708.58555321041,-0.178676857558182,-8.40588246209594,2.03264045201328,6759053.07578956,1.32083765961666,-3.02330156880593,1.48792385761084,-2.94567780852018,-0.787536489859711,0.288928030398179,1.48247578646404,-1.9585614615E-5,-9.421928481392E-4,-8.49282460071E-5,411326.131446147,2.2294E-12,949.94384765625,-0.178676857558182,-8.40588246209594,2.03264045201328
4140.0,6433788.07229376,1779447.35104656,-1249118.57698844,-150876.896396454,6673601.33771419,-1249255.93899203,-4849.57749310353,1027.24873608778,5817.29491191744,0.192008958424821,-8.49295864643141,1.58982811405127,6759053.07578958,1.32521292902947,-3.04056320189495,1.47776123629429,-2.96071211732783,-0.778678146009321,0.24488728480692,1.52050811381157,-1.9585614615E-5,-9.61241863872E-4,-8.39008733091E-5,413768.384026218,2.112E-12,947.772521972656,0.192008958424821,-8.49295864643141,1.58982811405127
4200.0,6416508.84562925,2044562.08086488,-897712.153840008,-441284.210583991,6719914.01632641,-897625.110149041,-4826.97707904782,516.021603134377,5899.24359832039,0.560905655683346,-8.54151969877895,1.14094950349499,6759053.07578957,1.32958819844228,-3.05550094666606,1.46886570009567,-2.97339451385773,-0.771439001136543,0.199731334080703,1.55866208125258,-1.9585614615E-5,-9.823489739951E-4,-8.30122233188E-5,416179.399231692,2.0044E-12,945.907165527343,0.560905655683346,-8.54151969877895,1.14094950349499
4260.0,6372282.36499953,2300633.0800406,-542199.137446545,-729673.282245344,6735488.78822657,-541888.086010805,-4782.33666022399,3.03726657006836,5954.12732361191,0.926411044269356,-8.55154129086973,0.687994366593233,6759053.07578957,1.33396346785509,-3.06902223777728,1.4613500617379,-2.98465184896073,-0.765854049964432,0.153421358311811,1.59713747362791,-1.9585614615E-5,-0.001005216943609,-8.23107586667E-5,418545.091397514,1.9061E-12,944.334045410156,0.926411044269356,-8.55154129086973,0.687994366593233
4320.0,6301260.15917735,2546741.05410495,-184208.54703272,-1014728.76389318,6720289.53562941,-183674.908838713,-4715.90705864209,-509.395126457062,5981.76114001012,1.28695233576136,-8.52315675145418,0.232949790487679,6759053.07578955,1.33833873726791,-3.08170199043897,1.45530698286766,-2.99507870702253,-0.761986180785237,0.105933750543025,1.63612822307146,-1.9585614615E-5,-0.0010295303923586,-8.18412118282E-5,420848.551801134,1.8163E-12,943.034851074218,1.28695233576136,-8.52315675145418,0.232949790487679
4380.0,6203704.98387366,2782011.9389264,174623.064654435,-1295153.16846251,6674418.35662137,175376.854214968,-4628.0324555749,-1018.97906734415,5982.0790687294,1.6409911490239,-8.45665340192954,-0.222206818867653,6759053.07578956,1.34271400668071,-3.09393748702555,1.45080861938898,-3.00509196898618,-0.759925208715221,0.0572634151082616,1.67582735592675,-1.9585614615E-5,-0.0010549600059334,-8.16437624149E-5,423074.328272054,1.7345E-12,941.996154785156,1.6409911490239,-8.45665340192954,-0.222206818867653
4440.0,6079989.59507822,3005619.437016,532658.723656441,-1569672.4060815,6598114.53198347,533629.227769613,-4519.14818534271,-1523.43980886402,5955.13331743581,1.98702818223033,-8.352468625835,-0.675514400541088,6759053.07578956,1.34708927609353,-3.10602995007225,1.44790623656257,-3.01501205452311,-0.759787633719009,0.0074268719702318,1.71643205775628,-1.9585614615E-5,-0.0010811665469318,-8.17533294876E-5,425221.275372278,1.6603E-12,941.215087890625,1.98702818223033,-8.352468625835,-0.675514400541088
4500.0,5930595.12657878,3216787.34334571,888268.08846409,-1837041.1802504,6491752.95185378,889450.886139684,-4389.7782582556,-2020.53324557267,5901.0931082553,2.32360757276622,-8.21118572714782,-1.12503455929936,6759053.07578955,1.35146454550634,-3.11823266012043,1.44662992145839,-3.0251107071627,-0.761717171033895,-0.0435347673467123,1.75814890251749,-1.9585614615E-5,-0.0011078046567472,-8.21989762244E-5,427287.138066195,1.5933E-12,940.685913085937,2.32360757276622,-8.21118572714782,-1.12503455929936
4560.0,5756109.08254704,3414791.66202749,1239834.42228037,-2096048.22772583,6355842.01712538,1241224.12975871,-4240.53263072568,-2508.05454058784,5820.24313635036,2.64932096919479,-8.03352962499776,-1.56885756298086,6759053.07578957,1.35583981491915,-3.13078376234592,1.44698843731829,-3.03564347231664,-0.765886093476106,-0.0955528794885385,1.80119929122487,-1.9585614615E-5,-0.001134526475598,-8.30034215961E-5,429251.813124295,1.5332E-12,940.399291992187,2.64932096919479,-8.03352962499776,-1.56885756298086
4620.0,5557222.95625692,3598962.51584116,1585761.46229995,-2345521.3874433,6191021.0310665,1587351.75850617,-4072.10423905347,-2983.84649016145,5712.98167776802,2.96281134125989,-7.82036242475565,-2.00510804030543,6759053.07578956,1.36021508433196,3.13925187058175,1.44896922960147,-3.04687654931281,-0.772497407318016,-0.148528383361745,1.84582513696729,-1.9585614615E-5,-0.0011609851339358,-8.4182653194E-5,431105.766364756,1.4798E-12,940.341491699218,2.96281134125989,-7.82036242475565,-2.00510804030543
4680.0,5334729.48609182,3768685.85110709,1924480.16549626,-2584332.48475404,5998057.09709786,1926263.82141694,-3885.26581179884,-3445.80761963074,5579.8183637441,3.26277655494788,-7.57267889758858,-2.43195040585564,6759053.07578959,1.36459035374478,3.12521319316534,1.45253857527236,-3.05911470736587,-0.781787849168776,-0.202328678021572,1.89229480901852,-1.9585614615E-5,-0.0011868381828671,-8.57456366991E-5,432831.93192996,1.4328E-12,940.493896484375,3.26277655494788,-7.57267889758858,-2.43195040585564
4740.0,5089519.56002427,3923404.94078294,2254455.31138844,-2811402.01809761,5777841.5389929,2256424.22323509,-3680.86647401259,-3891.90000602054,5421.37163697571,3.54797273995827,-7.29160189264459,-2.84759404108163,6759053.0757896,1.36896562315758,3.10991884336369,1.45764185072883,-3.0727369958818,-0.794031629173943,-0.256784365262729,1.94090929631739,-1.9585614615E-5,-0.0012117510328456,-8.76941201519E-5,434417.999435222,1.392E-12,940.830078125,3.54797273995827,-7.29160189264459,-2.84759404108163
4800.0,4822578.77973681,4062621.68893373,2574191.94313732,-3025703.63597933,5531385.86001274,2576337.16915085,-3459.82815497056,-4320.15682378215,5238.36590360242,3.81721747657792,-6.97837769815235,-3.25029826143458,6759053.07578966,1.37334089257039,3.09287251869309,1.46420386791516,-3.08824989388829,-0.809544737368041,-0.311685652857342,1.99200845025476,-1.9585614615E-5,-0.0012354004589316,-9.00225345125E-5,435843.414340436,1.3571E-12,941.321411132812,3.81721747657792,-6.97837769815235,-3.25029826143458
4860.0,4534983.69551789,4185897.73988692,2882241.62908934,-3226268.3927719,5259817.25767291,2884553.4298304,-3223.14180945993,-4728.68961089897,5031.62839281169,4.06939282795441,-6.63437136001422,-3.63837710015127,6759053.07578964,1.37771616198321,3.07336023067233,1.47212917436332,-3.10637515388715,-0.828689446323986,-0.366778338611441,2.04597698895663,-1.9585614615E-5,-0.0012574782087948,-9.27179952678E-5,437097.874393171,1.3285E-12,942.023986816406,4.06939282795441,-6.63437136001422,-3.63837710015127
4920.0,4227897.72303791,4292855.39544775,3177208.5275468,-3412188.77241784,4964373.71099495,3179676.40950741,-2971.86346115238,-5115.69525287909,4802.08573416271,4.30344824216337,-6.26106195903254,-4.01020393881871,6759053.07578965,1.38209143139601,3.05029247189678,1.48130209014816,-3.12820746821791,-0.851878341640985,-0.421759299244265,2.10324964709233,-1.9585614615E-5,-0.0012776947188706,-9.57604123623E-5,438172.432069895,1.3067E-12,942.99853515625,4.30344824216337,-6.26106195903254,-4.01020393881871
4980.0,3902566.75310164,4383178.34353073,3457755.23809459,-3582622.46957842,4646398.65724632,3460368.00045791,-2707.11007519714,-5479.46268200923,4550.76026094441,4.51840334630567,-5.86003784083965,-4.36421601368394,6759053.07578967,1.38646670080883,3.02189766485719,1.49158595324697,3.1276644065991,-0.879576733625457,-0.476271469785943,2.1643143780334,-1.9585614615E-5,-0.0012957829081035,-9.91227169339E-5,439041.764582013,1.2922E-12,944.294799804687,4.51840334630567,-5.86003784083965,-4.36421601368394
5040.0,3560314.46551042,4456612.20146794,3722608.42326083,-3736795.91816465,4307335.27534475,3725354.20762737,-2430.05526591093,-5818.37928868749,4278.76604620034,4.7133506521992,-5.43299178598391,-4.69891882477158,6759053.07578964,1.39084197022164,2.98507045075187,1.50282022949746,3.09176477914893,-0.912301578078786,-0.529898428781522,2.22971178857385,-1.9585614615E-5,-0.0013115019816073,-1.027712128149E-4,439658.908882494,1.2853E-12,945.957763671875,4.7133506521992,-5.43299178598391,-4.69891882477158
5100.0,3202537.35826772,4512964.87709491,3970564.18463988,-3874007.55750485,3948720.39332048,3973430.52753006,-2141.92484435918,-6130.93704071482,3987.30467650283,4.88745819009359,-4.98171610154365,-5.01289047227688,6759053.07578963,1.39521723963445,2.93382248603914,1.51481163480085,3.04129367904907,-0.950613999467675,-0.582158947860749,2.30002794890755,-1.9585614615E-5,-0.0013246411427235,-1.066660583814E-4,440068.444418618,1.2865E-12,948.031066894531,4.88745819009359,-4.98171610154365,-5.01289047227688
5160.0,2830699.50353811,4552106.75050764,4200493.17786794,-3993630.82666349,3572178.03751363,4203467.06580313,-1843.99220974233,-6415.73830513898,3677.66076718578,5.03997208328436,-4.50809761017183,-5.30478594145681,6759053.07578963,1.39959250904726,2.85502237328404,1.52730625149762,2.96312552125516,-0.995101170904848,-0.632502283304509,2.37587637765434,-1.9585614615E-5,-0.0013350230856178,-1.107618801758E-4,440231.812697057,1.2966E-12,950.558471679687,5.03997208328436,-4.50809761017183,-5.30478594145681
5220.0,2446327.04204165,4573970.67913695,4411345.45102873,-4095116.87763998,3179412.64155487,4414413.37798464,-1537.57358784412,-6671.50136565308,3351.19722158415,5.17021907258386,-4.01411250768857,-5.57334135339227,6759053.07578965,1.40396777846008,2.71417922478946,1.53988739227642,2.82277788494198,-1.04634186235205,-0.680305649481734,2.45786355398653,-1.9585614615E-5,-0.0013425071253272,-1.150085141783E-4,440130.236655273,1.3162E-12,953.584716796875,5.17021907258386,-4.01411250768857,-5.57334135339227
5280.0,2051002.4279465,4578551.82851299,4602154.99119005,-4177996.99835818,2772201.93365193,4605303.0182089,-1224.02311938664,-6897.06562669194,3009.35023591547,5.2776089953734,-3.50182105630576,-5.81737819459197,6759053.07578966,1.40834304787288,2.39673661443349,1.55148266673942,2.50570532055295,-1.10484904476671,-0.724876252599779,2.54653138027841,-1.9585614615E-5,-0.0013469918205438,-1.193518642411E-4,439750.386050494,1.3464E-12,957.155944824218,5.2776089953734,-3.50182105630576,-5.81737819459197
5340.0,1646358.4368186,4565907.33080803,4772043.96385025,-4241884.73652147,2352389.52129725,4775257.78059017,-904.72780098759,-7091.39649329434,2653.62405080518,5.36163721946821,-2.97336207735274,-6.03580753350765,6759053.07578968,1.4127183172857,1.57964521807193,1.55767341976448,1.68887179501164,-1.17098387779382,-0.765461384812836,2.64227095379195,-1.9585614615E-5,-0.0013484169573578,-1.237348607703E-4,439084.923827202,1.3883E-12,961.320190429687,5.36163721946821,-2.97336207735274,-6.03580753350765
5400.0,1234071.94981166,4536155.77295952,4920226.63012152,-4286477.71557328,1921877.19323453,4923491.61811428,-581.102281540769,-7253.58991355647,2285.5854501316,5.42188702733175,-2.43094720503626,-6.22763422668586,6759053.07578969,1.41709358669851,0.746897361682984,1.55181148683798,0.856284997880017,-1.24484040510694,-0.801271004536663,2.74520699803826,-1.9585614615E-5,-0.0013467647888552,-1.280984970403E-4,438130.224024553,1.4434E-12,966.124877929687,5.42188702733175,-2.43094720503626,-6.22763422668586
5460.0,815857.528039303,4489476.51590016,5046012.92651658,-4311559.1341824,1482616.9593824,5049314.22389713,-254.5835172535,-7382.87656814746,1906.85800787271,5.45803194133971,-1.87685486137154,-6.39196111156145,6759053.07578965,1.42146885611132,0.420680915988058,1.54039194237082,0.53014995188302,-1.32611169938589,-0.831517123340173,2.85506371854461,-1.9585614615E-5,-0.0013420604633234,-1.323829162823E-4,436877.484690338,1.5132E-12,971.613525390625,5.45803194133971,-1.87685486137154,-6.39196111156145
5520.0,393460.791964012,4426108.84617242,5148811.69225457,-4316998.94088653,1036602.85041788,5152134.25971861,73.3747107202956,-7478.62568894862,1519.11608399627,5.46983797588201,-1.3134239120195,-6.52799317686753,6759053.07578968,1.42584412552413,0.276526746842105,1.52800560273803,0.386016142763272,-1.41396618161924,-0.855471930943838,2.97104082732952,-1.9585614615E-5,-0.0013343716187777,-1.365285204613E-4,435328.405731349,1.5999E-12,977.820922851562,5.46983797588201,-1.3134239120195,-6.52799317686753
5580.0,-31348.3783317469,4346350.96098908,5228133.52908442,-4302754.67579215,585862.499870285,5231462.21682293,401.307411112313,-7540.34848647615,1124.07857116302,5.45716579717442,-0.743046963408533,-6.63504169537633,6759053.07578971,1.43021939493695,0.195722377623052,1.51575990205194,0.305190831237134,-1.50698127466013,-0.87254090653713,3.09174691318094,-1.9585614615E-5,-0.0013238071685721,-1.40477071734E-4,433479.918125764,1.7057E-12,984.763488769531,5.45716579717442,-0.743046963408533,-6.63504169537633
5640.0,-456782.804959922,4250558.78763307,5283593.27876133,-4268871.97156268,132448.532867387,5286912.89411425,727.744123604577,-7567.70116341652,723.50239512174,5.41997276680446,-0.168163263252344,-6.71252829727687,6759053.0757897,1.43459466434975,0.142728757208739,1.50407500878644,0.252155447919997,-1.60318599868671,-0.882338884851153,-3.06794352643302,-1.9585614615E-5,-0.0013105153466819,-1.441727599426E-4,431342.313168843,1.833E-12,992.431762695312,5.41997276680446,-0.168163263252344,-6.71252829727687
5700.0,-881045.117801242,4139144.63797865,5314912.10352757,-4215484.70634666,-321570.21289747,5318207.47909173,1051.21477831358,-7560.48748941011,319.17577317024,5.3583148403411,0.408748830564127,-6.75998895603321,6759053.07578972,1.43896993376255,0.104081270292528,1.49320157899541,0.213466215832503,-1.7002389090648,-0.884749915513775,-2.94397113414051,-1.9585614615E-5,-0.001294681116989,-1.475632138182E-4,428910.506094018,1.9847E-12,1000.78332519531,5.3583148403411,0.408748830564127,-6.75998895603321
5760.0,-1302334.98409894,4012575.69887143,5321919.15526477,-4142814.80182097,-774117.606856035,5325175.21718527,1370.25566402545,-7518.66091023167,-87.0887630610401,5.27234828788232,0.985179843746089,-6.77707785215483,6759053.07578973,1.44334520317537,0.0736499261871136,1.48332710699741,0.183013944897851,-1.7957138282188,-0.87995147743152,-2.82191796491936,-1.9585614615E-5,-0.0012765230748219,-1.506004392391E-4,426199.601971012,2.1634E-12,1009.7378540039,5.27234828788232,0.985179843746089,-6.77707785215483
5820.0,-1718856.44080842,3871372.35913616,5304552.8194268,-4051171.66016634,-1223119.25712822,5307754.65559478,1683.41549340043,-7442.32616280516,-493.461571983824,5.16233119928694,1.55859766783184,-6.76357107405625,6759053.07578971,1.44772047258818,0.0482482671833282,1.47460483636829,0.157632547953205,-1.88741215012055,-0.868393242212429,-2.70395404682514,-1.9585614615E-5,-0.0012562899789447,-1.5324167414E-4,423211.211763647,2.372E-12,1019.18151855468,5.16233119928694,1.55859766783184,-6.76357107405625
5880.0,-2128825.30682473,3716106.37409646,5262861.52044918,-3940951.23456842,-1666511.62341569,5265994.44832373,1989.26155101648,-7331.74036612459,-898.103322435478,5.02862473314062,2.12645655040494,-6.71937010921219,6759053.07578969,1.45209574200099,0.026043009068837,1.46716299558448,0.135508299306412,-1.9736061205701,-0.850736184867574,-2.59177942224755,-1.9585614615E-5,-0.0012342570478025,-1.55450155659E-4,419966.401707242,2.6133E-12,1028.97717285156,5.02862473314062,2.12645655040494,-6.71937010921219
5940.0,-2530476.65052275,3547398.86869656,5197004.07608752,-3812634.72876172,-2102251.17885755,5200053.70985462,2286.38590756683,-7187.31355720272,-1299.17261594488,4.87169406533349,2.68620660526978,-6.64450507325204,6759053.07578966,1.4564710114138,0.0058862090430995,1.46110786432424,0.115511639230941,-2.05315389804727,-0.827770397277884,-2.48650900970295,-1.9585614615E-5,-0.0012107221364932,-1.571958000352E-4,416484.378568114,2.8902E-12,1038.97692871093,4.87169406533349,2.68620660526978,-6.64450507325204
6000.0,-2922072.28630784,3365918.18061628,5107249.58908132,-3666786.92221509,-2528323.58661052,5110201.90585893,2573.41168079917,-7009.60864070231,-1694.83379345936,4.69210899058664,3.23530384598432,-6.53913761962172,6759053.07578967,1.46084628082662,-0.012999542458624,1.45652464315127,0.0968820285535675,-2.12548607336297,-0.800332886654542,-2.38868590346206,-1.9585614615E-5,-0.0011860018835287,-1.584557989927E-4,412792.163006033,3.2057E-12,1049.03698730468,4.69210899058664,3.23530384598432,-6.53913761962172
6060.0,-3301908.27211179,3172377.54517306,4993976.86569004,-3504054.11880828,-2942752.85503465,4996818.27048513,2848.99932092641,-6799.34072098513,-2083.26490553546,4.49054412845732,3.77122073650253,-6.40356346811405,6759053.07578967,1.46522155023942,-0.0311849483208224,1.45347750426126,0.0790638179354957,-2.19050592625234,-0.769240689113657,-2.29838082200704,-1.9585614615E-5,-0.0011604278828498,-1.592151374346E-4,408904.695709472,3.5627E-12,1059.0283203125,4.49054412845732,3.77122073650253,-6.40356346811405
6120.0,-3668322.37801422,2967532.62430831,4857673.35202015,-3325161.71827239,-3343610.43350742,4860390.7411418,3111.85289529696,-6557.37578600244,-2462.66582118497,4.2677786843774,4.2914572420853,-6.23821448707388,6759053.07578966,1.46959681965224,-0.0491281764984448,1.45200935992347,0.0616118109517618,-2.2484558578898,-0.735245454038762,-2.21532525669131,-1.9585614615E-5,-0.0011343429011827,-1.594670360769E-4,404852.982473297,3.9644E-12,1068.84069824218,4.2677786843774,4.2914572420853,-6.23821448707388
6180.0,-4019701.4944508,2752178.88256213,4698933.58066858,-3130911.41126968,-3729024.20909129,4701514.40330008,3360.7263441396,-6284.72871379959,-2831.26644657539,4.0246957162354,4.79355235221476,-6.04366026156816,6759053.07578966,1.47397208906505,-0.067236069862003,1.4521415728451,0.044129832840914,-2.29978934429078,-0.699008352733692,-2.1390389677249,-1.9585614615E-5,-0.001108097128118,-1.59213319323E-4,400653.93308443,4.4136E-12,1078.38549804687,4.0246957162354,4.79355235221476,-6.04366026156816
6240.0,-4354488.94682242,2527148.81364957,4518457.12205726,-2922178.00076738,-4097187.36258444,4520889.43969087,3594.42967625258,-5982.56057446373,-3187.33502067338,3.76228085798338,5.27509603514052,-5.82060907841395,6759053.07578965,1.47834735847786,-0.0859113450405835,1.4538737012637,0.0262233575128232,-2.34506821748531,-0.661090556845709,-2.06893201496158,-1.9585614615E-5,-0.0010820444202387,-1.584647036181E-4,396357.62185792,4.9134E-12,1087.59204101562,3.76228085798338,5.27509603514052,-5.82060907841395
6300.0,-4671191.68178443,2293309.02205759,4317046.03693155,-2699905.85431454,-4446367.04093413,4319318.58037144,3811.83507065143,-5652.17520314235,-3529.18645076266,3.4816204538152,5.73374157108018,-5.56990825881342,6759053.07578965,1.48272262789067,-0.105597958752661,1.45718330554958,0.007454016465573,-2.38488984915591,-0.621953920170819,-2.00437674591365,-1.9585614615E-5,-0.0010565384844697,-1.572409954142E-4,391971.105962336,5.4663E-12,1096.40551757812,3.4816204538152,5.73374157108018,-5.56990825881342
6360.0,-4968387.28910638,2051557.16498066,4095601.82884211,-2465104.99395188,-4774912.80163287,4097704.05248453,4011.88284749388,-5295.01502332432,-3855.19064664223,3.18389905968035,6.16721819820033,-5.29254377057521,6759053.07578966,1.48709789730349,-0.126835754485538,1.46202579522609,-0.01271512246178,-2.41984059238073,-0.581967432190526,-1.94475338554917,-1.9585614615E-5,-0.0010319289417124,-1.555711815584E-4,387529.251447023,6.0742E-12,1104.7802734375,3.18389905968035,6.16721819820033,-5.29254377057521
6420.0,-5244730.82179272,1802818.76089784,3855121.89802026,-2218846.8327609,-5081264.78359575,3857044.03112534,4193.5872691322,-4912.65610391712,-4163.7808083036,2.87039627331213,6.57334399256258,-4.98963905461066,6759053.07578968,1.49147316671629,-0.150339275048932,1.46833423557291,-0.0349983925259861,-2.4504690309505,-0.54141636530897,-1.88947568172205,-1.9585614615E-5,-0.0010085572206997,-1.534933893743E-4,383061.941866519,6.7381E-12,1112.68017578125,2.87039627331213,6.57334399256258,-4.98963905461066
6480.0,-5498961.37618452,1548043.87215177,3596695.50088287,-1962259.56947401,-5363961.5581783,3598428.59555946,4356.04212997678,-4506.80243876553,-4453.46161808659,2.54248285957642,6.95003889049745,-4.66245300466135,6759053.0757897,1.4958484361291,-0.177126745530109,1.47601892262062,-0.0604164878895441,-2.47727273308814,-0.500512236504154,-1.83800291550096,-1.9585614615E-5,-9.867522534042E-4,-1.510546899314E-4,378607.030779342,7.4577E-12,1120.07397460937,2.54248285957642,6.95003889049745,-4.66245300466135
6540.0,-5729908.39305948,1288203.67001051,3321499.22244725,-1696523.25510246,-5621647.61348561,3323035.19808139,4498.4260920623,-4079.27944311938,-4722.81728481953,2.20161614478232,7.29533774966112,-4.3123770450963,6759053.07578966,1.50022370554192,-0.208752114464922,1.48496629120167,-0.0905284362445333,-2.50069349061209,-0.45940257153043,-1.78984330338551,-1.9585614615E-5,-9.668259754295E-4,-1.483107169001E-4,374192.770048267,8.2315E-12,1126.93444824218,2.20161614478232,7.29533774966112,-4.3123770450963
6600.0,-5936497.64035191,1024286.89186337,3030791.97217901,-1422864.54816801,-5853080.42498767,3032123.65604775,4620.00772186085,-3632.02666812884,-4970.51938435671,1.84933466159943,7.60740333364518,-3.94093125913108,6759053.07578966,1.50459897495472,-0.247759816193212,1.49503611924809,-0.127886250588608,-2.52111746919708,-0.418180013446809,-1.74455237431545,-1.9585614615E-5,-9.490686744328E-4,-1.453250756803E-4,369856.922030367,9.0557E-12,1133.23754882812,1.84933466159943,7.60740333364518,-3.94093125913108
6660.0,-6117756.83806198,757296.201400717,2725909.51720984,-1142551.17781941,-6057137.06573337,2727030.68103526,4720.15018305244,-3167.08974166733,-5195.3344383335,1.48725203533114,7.8845390947691,-3.54975952895232,6759053.07578966,1.50897424436754,-0.298662250889183,1.50605434185471,-0.177012260509058,-2.53887790682105,-0.376890636467706,-1.70172869147917,-1.9585614615E-5,-9.337442724738E-4,-1.421685235379E-4,365629.372688843,9.9246E-12,1138.96215820312,1.48725203533114,7.8845390947691,-3.54975952895232
6720.0,-6272820.88624914,488244.463840324,2408258.57041363,-856886.136843023,-6232820.31018613,2409163.96262736,4798.31553970728,-2686.61155157582,-5396.13117096112,1.11705011239199,8.12520162091032,-3.14062365991648,6759053.07578966,1.51334951378035,-0.37028498964936,1.5177936332823,-0.246744134470331,-2.55425888702266,-0.335541490920885,-1.66100839538072,-1.9585614615E-5,-9.210856691774E-4,-1.389179112262E-4,361543.527199736,1.083E-11,1144.08935546875,1.11705011239199,8.12520162091032,-3.14062365991648
6780.0,-6400936.65773262,218150.949470342,2079310.45448094,-567201.62930124,-6379264.18691436,2079995.82798708,4854.0686247093,-2192.82269569015,-5571.88738237094,0.740471342795849,8.32801260524099,-2.71539647313208,6759053.07578965,1.51772478319316,-0.482202524884126,1.52991493353263,-0.356670417485318,-2.56749931733418,-0.294107476580101,-1.6220594338607,-1.9585614615E-5,-9.112903063953E-4,-1.356548894579E-4,357632.910916984,1.17611E-11,1148.60241699218,0.740471342795849,8.32801260524099,-2.71539647313208
6840.0,-6501467.3182825,-51962.5200458743,1740594.36683973,-274852.800215051,-6495738.93708985,1741056.50208369,4887.08042930564,-1688.03123163918,-5721.69637647339,0.359310440103663,8.49177019283813,-2.27605386417591,6759053.07578967,1.52210005260597,-0.685137522213085,1.54175816986216,-0.557529544342386,-2.57879663087276,-0.252537660962562,-1.58457594679063,-1.9585614615E-5,-9.045161367006E-4,-1.324643985682E-4,353925.640979143,1.27047E-11,1152.48706054687,0.359310440103663,8.49177019283813,-2.27605386417591
6900.0,-6573896.13868956,-321075.467031905,1393690.27398518,18788.7226959798,-6581655.33799075,1393926.99715784,4897.13097143515,-1174.61176825205,-5844.77288159358,-0.0245946455983688,8.6154595555947,-1.82466584024,6759053.07578965,1.52647532201879,-1.12194631739078,1.55144916654211,-0.992195075598099,-2.58830996632849,-0.210761152090311,-1.54827302205276,-1.9585614615E-5,-9.008781836917E-4,-1.294329753112E-4,350445.599526179,1.36448E-11,1155.73107910156,-0.0245946455983688,8.6154595555947,-1.82466584024
