time,gePosition_m_X,gePosition_m_Y,gePosition_m_Z,eiPosition_m_X,eiPosition_m_Y,eiPosition_m_Z,eiVelocity_m_s_X,eiVelocity_m_s_Y,eiVelocity_m_s_Z,eiAccel_m_s2_X,eiAccel_m_s2_Y,eiAccel_m_s2_Z,semiMajorAxis_m,gast_rad,eulerAngle_rad_Roll,eulerAngle_rad_Pitch,eulerAngle_rad_Yaw,eulerAngleWrtEi_rad_Roll,eulerAngleWrtEi_rad_Pitch,eulerAngleWrtEi_rad_Yaw,bodyAngularRateWrtEi_rad_s_Roll,bodyAngularRateWrtEi_rad_s_Pitch,bodyAngularRateWrtEi_rad_s_Yaw,altitudeMsl_m,airDensity_kg_m3,ambientTemperature_dgK,eiGravitation_m_s2_X,eiGravitation_m_s2_Y,eiGravitation_m_s2_Z
0.0,-1436381.46541304,4185811.71030584,5163944.67156165,-4315967.74,960356.2,5167269.53,129.091037,-7491.513855,1452.515654,5.46941408349186,-1.21701227670639,-6.54822705894005,6759053.07578957,1.02331944621101,1.48354308793975,0.001521078032323,0.017386890882379,-1.37314475827124,-0.867737478628041,3.05977258849909,-1.9585614615E-5,-9.475261846072E-4,0.0,434989.540811728,1.6157E-12,978.026450176724,5.46941408349186,-1.21701227670639,-6.54822705894005
60.0,-1794950.03469682,3943126.03027672,5239239.62039872,-4298383.7549705,509016.725547943,5242568.014416,456.873453273778,-7547.42173400794,1056.41305957744,5.45257924198934,-0.645697124724796,-6.65029442684512,6759053.07578961,1.02769471546425,1.49458387850653,0.0015127241820233,0.017248113793635,-1.44048694640204,-0.87708012154814,-3.13704097079113,-1.9585614615E-5,-9.296916630246E-4,-4.8401607777E-6,433093.864997596,1.7266E-12,985.077038121306,5.45257924198934,-0.645697124724796,-6.65029442684512
120.0,-2147547.17176179,3685627.21460426,5290617.59970953,-4261177.84165868,55353.9685752154,5293934.33527938,782.910113090192,-7568.91571402678,655.07337670353,5.41122605044219,-0.0702934371387564,-6.72271293263913,6759053.07578964,1.0320699847175,1.50666810328429,0.0015046871999312,0.0168343216161605,-1.50822765466258,-0.882842380067217,-3.05069306132273,-1.9585614615E-5,-9.143394342455E-4,-9.6084120328E-6,430905.28080473,1.8592E-12,992.842921583234,5.41122605044219,-0.0702934371387564,-6.72271293263913
180.0,-2492684.25224873,3414408.90504188,5317817.99932331,-4204498.84971835,-398561.363029079,5321107.91929486,1105.73160265982,-7555.82484024784,250.289448678991,5.34542737930087,0.506714568945523,-6.76503834979497,6759053.07578959,1.03644525395931,1.51964382559619,0.0015228676125822,0.0161531239284608,-1.57580172400146,-0.885127887865185,-2.96484548743039,-1.9585614615E-5,-9.016929711346E-4,-1.42480051469E-5,428429.879579339,2.0161E-12,1001.2753911964,5.34542737930087,0.506714568945523,-6.76503834979497
240.0,-2828892.49299088,3130615.64256022,5320688.44023237,-4128583.6023506,-850652.794750067,5323936.4926294,1423.87589009516,-7508.12814381677,-156.122774234382,5.25535668534834,1.08281296502138,-6.77694529983116,6759053.07578961,1.04082052320969,1.53334638202328,0.001593073836041,0.0152171673792858,-1.6426857498679,-0.884048246981426,-2.87993157112257,-1.9585614615E-5,-8.919428975742E-4,-1.87041321308E-5,425676.596111968,2.2E-12,1010.28929728583,5.25535668534834,1.08281296502138,-6.77694529983116
300.0,-3154729.04301722,2835438.41961788,5299185.94499444,-4033756.27141947,-1298847.1330198,5302377.25117315,1735.89440574259,-7425.95617001195,-562.331476724263,5.14128947640569,1.65546667848239,-6.75823092102596,6759053.07578958,1.04519579246293,1.54760041026356,0.0017402818060535,0.0140439890992806,-1.70841320739165,-0.879715191390248,-2.79632641805204,-1.9585614615E-5,-8.852432891944E-4,-2.29250548986E-5,422657.223048689,2.4135E-12,1019.76740038158,5.14128947640569,1.65546667848239,-6.75823092102596
360.0,-3468783.08032206,2530110.05351029,5253377.66742358,-3920427.38526259,-1741083.58875547,5256497.58980605,2040.35820270603,-7309.59197714158,-966.49643416778,5.0036045124875,2.22212857048777,-6.70881831891689,6759053.07578961,1.04957106170188,1.56222209674297,0.0019878989682018,0.01265573577764,-1.77258259696542,-0.872233665815721,-2.71433892883152,-1.9585614615E-5,-8.817084633584E-4,-2.68632182795E-5,419386.386702628,2.6593E-12,1029.57097163731,5.0036045124875,2.22212857048777,-6.70881831891689
420.0,-3769681.89219769,2215900.39164169,5183441.16916758,-3789092.46488668,-2175322.94417949,5186475.37826293,2335.86418042513,-7159.47157516543,-1366.77666753664,4.84278469880804,2.780249035003,-6.62875974533587,6759053.07578958,1.05394633095227,1.5770216131498,0.0023570656439492,0.0110787490574995,-1.83485905839238,-0.861696449959594,-2.6342103833497,-1.9585614615E-5,-8.814104209927E-4,-3.04763037352E-5,415881.483378133,2.9401E-12,1039.55380640356,4.84278469880804,2.780249035003,-6.62875974533587
480.0,-4056096.91565647,1894111.35986483,5089664.23174969,-3640330.28534661,-2599556.72836456,5092598.77217143,2621.04135141869,-6976.18377266978,-1761.33827945768,4.65941762361238,3.32728612084399,-6.51823944782059,6759053.07578962,1.05832160020265,1.59180570065916,0.0028660261367078,0.0093430254232713,-1.89497084359628,-0.848180698336054,-2.5561181724997,-1.9585614615E-5,-8.84377077038E-4,-3.37281799666E-5,412162.575819702,3.2586E-12,1049.57564276436,4.65941762361238,3.32728612084399,-6.51823944782059
540.0,-4326749.71187633,1566071.86760629,4972444.19383741,-3474800.76038681,-3011816.36506649,4975265.54902249,2894.55712842805,-6760.46940100273,-2148.36244979966,4.45419569213631,3.86071616874267,-6.3775761270477,6759053.07578959,1.06269686945303,1.60638035191141,0.0035295989552619,0.0074815661567879,-1.95270247758525,-0.831746490475499,-2.48018280932377,-1.9585614615E-5,-8.90591375987E-4,-3.65897095868E-5,408252.249931073,3.6175E-12,1059.5117554252,4.45419569213631,3.86071616874267,-6.3775761270477
600.0,-4580417.84842357,1233132.58321424,4832286.80491386,-3293242.44987752,-3410182.25455711,4834981.96024711,3155.12360624466,-6513.21988517532,-2526.05356531126,4.22791580717372,4.37804494470833,-6.20722493659363,6759053.0757896,1.06707213870913,1.62055353475591,0.004358770344906,0.0055296394712175,-2.00788640741474,-0.812437249496592,-2.40647638054352,-1.9585614615E-5,-8.999913382446E-4,-3.90393776573E-5,404175.432480474,4.0196E-12,1069.25748898706,4.22791580717372,4.37804494470833,-6.20722493659363
660.0,-4815940.66101501,896660.594837502,4669804.58817306,-3096469.69121065,-3792792.74938619,4672361.09222003,3401.50380953292,-6235.4751325987,-2892.64745381786,3.98147854685284,4.87681923940804,-6.00777895699364,6759053.07578959,1.0714474079538,1.63413789905017,0.0053604283206642,0.0035239819110699,-2.06039458512743,-0.79028171993978,-2.33503095397677,-1.9585614615E-5,-9.124710274724E-4,-4.10637174976E-5,399959.171110083,4.4677E-12,1078.72839070159,3.98147854685284,4.87681923940804,-6.00777895699364
720.0,-5032224.86540142,558033.973921069,4485714.7073531,-2885369.35762981,-4157852.98232733,4488120.7309052,3632.51787502515,-5928.42071290877,-3246.41968936125,3.71588679137415,5.35463889108365,-5.77997007487552,6759053.07578958,1.07582267720419,1.64695340872323,0.0065372461972584,0.0015019690294566,-2.11013093048272,-0.76529710626775,-2.26584595980735,-1.9585614615E-5,-9.278823749916E-4,-4.26575207663E-5,395632.378600569,4.9642E-12,1087.85757284423,3.71588679137415,5.35463889108365,-5.77997007487552
780.0,-5228249.9892477,218636.258308666,4280836.33436047,-2660897.24845206,-4503643.50324189,4283080.72699827,3847.04913363253,-5593.38430505624,-3585.69393050871,3.43224375272009,5.80916917685286,-5.52466919802615,6759053.07578956,1.08019794645171,1.65882984575305,0.0078877159453449,-4.992140333107E-4,-2.15702512189884,-0.737492953066744,-2.19889406449152,-1.9585614615E-5,-9.460377508924E-4,-4.38238310788E-5,391225.543995107,5.5114E-12,1096.59196262918,3.43224375272009,5.80916917685286,-5.52466919802615
840.0,-5403073.59249387,-120149.124808066,4056087.51692803,-2424074.11828713,-4828528.68027266,4058159.86081266,4044.05005535284,-5231.83139153664,-3908.85024994633,3.13175036476534,6.23815350431976,-5.2428857387234,6759053.07578958,1.08457321569067,1.66960914013858,0.0094063233434313,-0.0024433731105593,-2.20102776378895,-0.706875379749897,-2.13412546032898,-1.9585614615E-5,-9.667131378673E-4,-4.45737320453E-5,386770.41385463,6.1108E-12,1104.88860571229,3.13175036476534,6.23815350431976,-5.2428857387234
900.0,-5555836.24442121,-456944.475826141,3812481.54818025,-2175981.35466125,-5130964.8197018,3814372.20878827,4222.5480174349,-4845.36018410729,-4214.33340949295,2.81570199583598,6.63942632249601,-4.93576630063469,6759053.07578955,1.08894848494105,1.67914748949238,0.0110838495386494,-0.0042960513907043,-2.24210671474614,-0.673451347367233,-2.07147076139144,-1.9585614615E-5,-9.896517463668E-4,-4.49259503667E-5,382299.647582307,6.7631E-12,1112.71169052807,2.81570199583598,6.63942632249601,-4.93576630063469
960.0,-5685766.22497491,-790383.457975985,3551122.84284392,-1917756.31588993,-5409507.95802185,3552823.01636852,4381.65085415027,-4435.69577058022,-4500.66103091702,2.48548445159963,7.01092615837816,-4.60459250912255,6759053.07578955,1.09332375419143,1.68731724244512,0.0129077778174188,-0.0060252013979651,-2.28024423167457,-0.63723271558997,-2.01084282909187,-1.9585614615E-5,-0.0010145679097408,-4.49063016256E-5,377846.451405959,7.4679E-12,1120.03032451707,2.48548445159963,7.01092615837816,-4.60459250912255
1020.0,-5792183.91783113,-1119116.72655542,3273202.32792152,-1650587.34359683,-5662821.2793198,3274704.08507232,4520.552144802,-4004.68347826532,-4766.43160950603,2.14256924320603,7.35070867343734,-4.25077793095623,6759053.07578956,1.09769902344753,1.69400853047498,0.0148627804481616,-0.0076017682605048,-2.31543456325113,-0.598239930210554,-1.95213787433091,-1.9585614615E-5,-0.0010411511146338,-4.4547010169E-5,373444.196221701,8.223E-12,1126.81719810969,2.14256924320603,7.35070867343734,-4.25077793095623
1080.0,-5874505.86279716,-1441817.52864308,2979992.35891908,-1375708.46691858,-5889682.11100608,2981288.68486435,4638.5361953349,-3554.28145632442,-5010.33231432354,1.78850810379337,7.65695962306268,-3.87586403721893,6759053.0757895,1.10207429269791,1.69913064197677,0.0169312584969389,-0.0090001759990267,-2.34768167550842,-0.556505255786665,-1.89523613392853,-1.9585614615E-5,-0.0010690700521625,-4.38859349689E-5,369126.025061545,9.0248E-12,1133.04780871211,1.78850810379337,7.65695962306268,-3.87586403721893
1140.0,-5932248.43569332,-1757187.24690407,2672841.17615929,-1094393.81813834,-6088988.45127256,2673926.00636792,4734.98266817231,-3086.55248662177,-5231.14651659024,1.42492674575698,7.92800759198617,-3.48151517260044,6759053.0757895,1.10644956193401,1.70261313950829,0.0190939074340771,-0.0101987141356398,-2.3769968770918,-0.512075528465526,-1.84000233237876,-1.9585614615E-5,-0.0010979766149396,-4.29657309462E-5,364924.456426778,9.8676E-12,1138.70011046065,1.42492674575698,7.92800759198617,-3.48151517260044
1200.0,-5965031.12470037,-2063960.86106821,2353166.91928265,-807951.782221158,-6259764.98247251,2354035.17103897,4809.37081475106,-2603.65504053763,-5427.76098573779,1.05351786143359,8.16233637022416,-3.06951250520735,6759053.07578954,1.11082483119011,1.70440672565168,0.021330282894758,-0.011179826531929,-2.40339620309217,-0.465014448072835,-1.78628604446372,-1.9585614615E-5,-0.0011275098085788,-4.18329706728E-5,360870.990105313,1.07432E-11,1143.75439334647,1.05351786143359,8.16233637022416,-3.06951250520735
1260.0,-5972579.37296776,-2360912.30067767,2022451.22170333,-517718.905444596,-6401168.52591202,2023098.82108586,4861.28326571469,-2107.83360754953,-5599.17269149626,0.676033380940596,8.35859682741641,-2.64174694339406,6759053.0757896,1.11520010044049,1.70448386462371,0.0236193437882057,-0.0119303077134988,-2.42689749507421,-0.41540445647994,-1.73392198916493,-1.9585614615E-5,-0.0011572995884372,-4.05372455327E-5,356995.722342133,1.16414E-11,1148.19322110507,0.676033380940596,8.35859682741641,-2.64174694339406
1320.0,-5954726.9597847,-2646859.6591905,1682232.41049904,-225053.590988738,-6512492.89534927,1682656.31463424,4890.40933489851,-1601.4083300596,-5744.49514996998,0.294276012649896,8.51561813892549,-2.2002110197632,6759053.07578958,1.11957536967945,1.70283916584583,0.0259399536998263,-0.0124414139138645,-2.44751717120723,-0.363348263254177,-1.68273022061951,-1.9585614615E-5,-0.0011869706678687,-3.91302593077E-5,353326.977334451,1.25493E-11,1152.00122667964,0.294276012649896,8.51561813892549,-2.2002110197632
1380.0,-5911417.89367539,-2920670.24258486,1334098.34092607,68670.3880714363,-6593173.10883235,1334296.55535043,4896.54779513269,-1086.76398782069,-5862.96425210173,-0.0899098960439703,8.63241821494426,-1.74698975719515,6759053.07578959,1.12395063893269,1.69948953265377,0.0282713258517401,-0.0127088967395471,-2.46526671209305,-0.308970082983654,-1.6325161401853,-1.9585614615E-5,-0.0012161463688241,-3.76649216843E-5,349890.961961986,1.3452E-11,1155.16523504553,-0.0899098960439703,8.63241821494426,-1.74698975719515
1440.0,-5842707.79332461,-3181265.42410086,979678.898408266,362070.525485067,-6642788.92137505,979650.489396138,4879.60908652037,-566.338384237258,-5953.94351427951,-0.474648127619735,8.70821318437856,-1.28425054729522,6759053.07578959,1.12832590818593,1.69447407495893,0.0305934014845532,-0.0127329669334586,-2.48014889797839,-0.252416645237536,-1.5830702327397,-1.9585614615E-5,-0.0012444525960531,-3.61944451011E-5,346711.45042201,1.43328E-11,1157.67510906874,-0.474648127619735,8.70821318437856,-1.28425054729522
1500.0,-5748764.73574869,-3427625.27559356,620638.204397722,653762.33310651,-6661067.64437275,620383.30613844,4839.61692122068,-42.6101956257976,-6016.92869314305,-0.858040930629492,8.74242578859706,-0.814232087701717,6759053.07578962,1.13270117743631,1.68785377990719,0.0328871561623765,-0.0125181945141205,-2.49215382735268,-0.193858031573239,-1.53416742555628,-1.9585614615E-5,-0.0012715220107012,-3.47714462027E-5,343809.505015566,1.51734E-11,1159.52428007636,-0.858040930629492,8.74242578859706,-0.814232087701717
1560.0,-5629869.55324696,-3658792.94874625,258666.565886113,942366.169550516,-6647886.22158188,258186.382421825,4776.70925286986,481.913646959253,-6051.55170992171,-1.2381798488707,8.73469254639537,-0.339232440952374,6759053.0757896,1.13707644668384,1.67971093041899,0.0351348330029701,-0.0120733499698145,-2.50125473230752,-0.13348838755882,-1.48556597466651,-1.9585614615E-5,-0.0012969984576241,-3.34470531504E-5,341203.238721527,1.59551E-11,1160.70993053836,-1.2381798488707,8.73469254639537,-0.339232440952374
1620.0,-5486415.56471683,-3873878.77869345,-104527.788498137,1226514.10726217,-6603272.53590869,-105230.986633291,4691.13858357764,1004.71096567025,-6057.58383388115,-1.61315695786561,8.68486956074384,0.138403706296907,6759053.07578957,1.14145171592279,1.67014825889395,0.0373201060459162,-0.011411189575613,-2.50740358934612,-0.0715265539613133,-1.43700579800369,-1.9585614615E-5,-0.0013205416648886,-3.22700220932E-5,338907.624412162,1.66594E-11,1161.2329355766,-1.61315695786561,8.68486956074384,0.138403706296907
1680.0,-5318907.73076424,-4072064.08378688,-467227.139999139,1504856.79757911,-6527405.92613742,-468150.024467087,4583.27158689276,1523.25764850298,-6034.93807965528,-1.98107641258771,8.59303685005709,0.616298489342018,6759053.07578954,1.14582698517889,1.65928782312703,0.0394281807542495,-0.0105481866298237,-2.51052651229943,-0.008216661724604,-1.38820619566165,-1.9585614615E-5,-0.0013418321870314,-3.12858698517E-5,336934.354619814,1.72685E-11,1161.09763967642,-1.98107641258771,8.59303685005709,0.616298489342018
1740.0,-5127961.22528402,-4252604.63776279,-827712.830507863,1776070.29224582,-6420616.89803687,-828851.029178708,4453.58803117789,2035.04117494663,-5983.67077934548,-2.34006620120474,8.45950110171694,1.09205490778311,6759053.07578956,1.15020225442927,1.6472695941572,0.041445841850929,-0.0095042097502196,-2.51051891374496,0.056171259197533,-1.33886292724885,-1.9585614615E-5,-0.0013605765106384,-3.05360346924E-5,335291.754687831,1.7767E-11,1160.31154261504,-2.34006620120474,8.45950110171694,1.09205490778311
1800.0,-4914299.42217288,-4414833.78987027,-1184273.88211833,2038862.77910034,-6283386.01995731,-1185621.99837082,4302.67899438514,2537.57425734886,-5903.98229721852,-2.68828999193688,8.28479676321372,1.563271341805,6759053.07578958,1.15457752367966,1.63424975156267,0.0433614611562624,-0.0083021494983239,-2.50724044153682,0.121340597167847,-1.28864466056311,-1.9585614615E-5,-0.0013765121878198,-3.00570821613E-5,333984.750957618,1.81419E-11,1158.88496754225,-2.68828999193688,8.28479676321372,1.563271341805
1860.0,-4678751.29821146,-4558165.21350577,-1535215.63328031,2291981.18932055,-6116341.99900979,-1536767.27052194,4131.24436818569,3028.40849620852,-5796.21686253421,-3.02395895420375,8.06968540625815,2.02755640834891,6759053.07578956,1.15895279293004,1.62039869044563,0.045164979645484,-0.0069674955496097,-2.50050974985591,0.186967329958788,-1.23718887588004,-1.9585614615E-5,-0.0013894128169869,-2.9879977428E-5,333014.894398122,1.83839E-11,1156.83077873846,-3.02395895420375,8.06968540625815,2.02755640834891
1920.0,-4422248.2593091,-4682095.26392738,-1878868.33814272,2534217.63371052,-5920258.94012935,-1880616.12944743,3940.08965666522,3505.14794437995,-5660.86150437838,-3.34534343126718,7.81515332121039,2.48254401346364,6759053.07578958,1.16332806216899,1.60589875543019,0.0468478784310839,-0.0055278682998663,-2.49009926752967,0.252698966380865,-1.18409742430596,-1.9585614615E-5,-0.001399092657582,-3.00294486E-5,332380.438811307,1.84877E-11,1154.1642054542,-3.34534343126718,7.81515332121039,2.48254401346364
1980.0,-4145820.40158894,-4786204.92889667,-2213595.67497765,2764415.62604309,-5696052.79668803,-2215531.31770619,3730.12208223045,3965.46247331476,-5498.54408123187,-3.65078433973407,7.52240732274138,2.92590844975423,6759053.0757896,1.16770333142223,1.59094172948473,0.0484031526871148,-0.0040125109670358,-2.47573030694982,0.318153173004887,-1.12893212456796,-1.9585614615E-5,-0.0014054106515948,-3.05234663267E-5,332076.471493349,1.84521E-11,1150.90281188658,-3.65078433973407,7.52240732274138,2.92590844975423
2040.0,-3850592.22244182,-4870161.35976176,-2537803.10941339,2981476.05245764,-5444777.02775582,-2539917.40464889,3502.34601885052,4407.1008340567,-5310.03040722938,-3.93870417168096,7.19286877230397,3.35537938303054,6759053.07578961,1.17207860067547,1.57572611806411,0.0498253006508626,-0.0024517505930557,-2.45706915294948,0.382916018475238,-1.07121107974858,-1.9585614615E-5,-0.0014082736332918,-3.13728633035E-5,332095.093035248,1.82802E-11,1147.06663353444,-3.93870417168096,7.19286877230397,3.35537938303054
2100.0,-3537777.80320513,-4933718.97158754,-2849946.05860384,3184362.84734183,-5167617.48351926,-2852228.95520334,3257.85778014097,4827.90330679594,-5096.22048649205,-4.20761747785849,6.8281658482146,3.76875657018345,6759053.07578961,1.17645386991157,1.56045428061705,0.0511103368537039,-8.764385050205E-4,-2.43372523298132,0.44653982402883,-1.01040685554504,-1.9585614615E-5,-0.0014076385403008,-3.25811129548E-5,332425.641848736,1.79793E-11,1142.6784792368,-4.20761747785849,6.8281658482146,3.76875657018345
2160.0,-3208675.48801359,-4976720.10578012,-3148537.8034273,3372108.33799301,-4865886.54666856,-3150978.44645977,2997.83979695316,5225.81383539459,-4858.14387638685,-4.45614071542316,6.43012411936472,4.16392415109863,6759053.07578959,1.1808291391591,1.54532947064118,0.0522558348631151,6.826175943835E-4,-2.40525315471497,0.508540730107618,-0.945948342575273,-1.9585614615E-5,-0.0014035134916192,-3.41442799586E-5,333054.958038034,1.756E-11,1137.76437827333,-4.45614071542316,6.43012411936472,4.16392415109863
2220.0,-2864662.08732235,-4999095.25183311,-3432157.09733902,3543818.22264006,-4541016.56366384,-3434743.88065135,2723.55422591859,5598.89154740026,-4596.95420990154,-4.68300135086134,6.00075550322083,4.53886436109865,6759053.07578959,1.18520440840948,1.53055285114597,0.0532610003907304,0.0021952169471898,-2.37116134539758,0.568396312999233,-0.87722906859275,-1.9585614615E-5,-0.0013959576658659,-3.6051147061E-5,333967.680433208,1.70359E-11,1132.35413434041,-4.68300135086134,6.00075550322083,4.53886436109865
2280.0,-2507186.64059539,-5000862.82677454,-3699455.42258358,3698676.14908522,-4194552.6056001,-3702176.04520908,2436.33603668896,5945.32156561557,-4313.92291635233,-4.88704611808664,5.54224571226067,4.89167051694623,6759053.07578958,1.18957967766558,1.51632055394365,0.0541267710438558,0.0036323116942254,-2.3309312061651,0.625543958283033,-0.803625900038829,-1.9585614615E-5,-0.0013850799884876,-3.82835137533E-5,335146.569976436,1.64225E-11,1126.48193294903,-4.88704611808664,5.54224571226067,4.89167051694623
2340.0,-2137763.77398653,-4982128.5160398,-3949163.84708394,3835947.86426356,-3828144.60382632,-3952005.37318311,2137.5856312859,6263.42502420436,-4010.4321881938,-5.06724834291527,5.05694031477751,5.22055913872514,6759053.0757896,1.1939549469131,1.50282084845244,0.05485593470277,0.0049665238369485,-2.28405187990561,0.679381260574089,-0.724533252578096,-1.9585614615E-5,-0.0013710367108165,-4.08166539053E-5,336572.852223445,1.57367E-11,1120.18693404323,-5.06724834291527,5.05694031477751,5.22055913872514
2400.0,-1757966.69380835,-4943084.18169202,-4180099.43842837,3954984.90837466,-3443538.91045581,-4183048.36042904,1828.761053923,6551.66821046964,-3687.96724961923,-5.22271425801576,4.54732955556604,5.52388108175118,6759053.0757896,1.19833021615206,1.49023147900478,0.055453254894727,0.0061726235405085,-2.23007631226604,0.729270470509607,-0.639418506456095,-1.9585614615E-5,-0.0013540280281747,-4.36199123488E-5,338226.571489781,1.49961E-11,1113.51376449023,-5.22271425801576,4.54732955556604,5.52388108175118
2460.0,-1369419.85833295,-4884006.34794466,-4391171.19493398,4055227.83087109,-3042569.33836472,-4394213.49951839,1511.36985379501,6808.67076269278,-3348.10798977714,-5.35268824669589,4.01603209892252,5.80013156678598,6759053.07578961,1.2027054854053,1.47871721979945,0.0559255889234996,0.0072279615895967,-2.16870303634,0.774549829910052,-0.547903069280306,-1.9585614615E-5,-0.0013342939314682,-4.66574154623E-5,340086.94913633,1.42176E-11,1106.51280237854,-5.35268824669589,4.01603209892252,5.80013156678598
2520.0,-973791.373020459,-4805254.2768791,-4581385.45772349,4136208.90944026,-2627147.7391509,-4584506.69429281,1186.96066657227,7033.21286460019,-2992.52002965992,-5.4565569692058,3.46577787028102,6.04795901290666,6759053.07578962,1.20708075465283,1.46842768475798,0.0562819830957599,0.0081128514387049,-2.09988316146356,0.814555167974107,-0.449868575275395,-1.9585614615E-5,-0.0013121095122601,-4.98888684688E-5,342132.738637932,1.34175E-11,1099.24011630577,-5.4565569692058,3.46577787028102,6.04795901290666
2580.0,-572785.157410851,-4707267.64999094,-4749850.77205427,4197554.35713366,-2199254.18076707,-4753036.12328717,857.114582640024,7224.24138793887,-2622.94529693652,-5.53385234124749,2.89939018337024,6.26617259504594,6759053.07578962,1.21145602389464,1.45949541695292,0.0565337292245813,0.0088108986966034,-2.02394158340205,0.848654684502619,-0.345577244316091,-1.9585614615E-5,-0.0012877799435923,-5.32704124683E-5,344342.570399261,1.26106E-11,1091.7568943367,-5.53385234124749,2.89939018337024,6.26617259504594
2640.0,-168132.931318003,-4590563.8747716,-4895782.17072129,4238986.00692539,-1760926.7891124,-4899016.52483242,523.436371451115,7380.87494608289,-2241.19218712,-5.58425335071662,2.31976734681417,6.45374846704301,6759053.07578963,1.21583129314788,1.45203427027077,0.0566943676267164,0.0093092777159397,-1.94168580917551,0.876297500957327,-0.235779798293628,-1.9585614615E-5,-0.0012616353393744,-5.67555168797E-5,346695.279753666,1.181E-11,1084.12818767715,-5.58425335071662,2.31976734681417,6.45374846704301
2700.0,238413.930084503,-4455735.0375836,-5018504.85715015,4260322.46715883,-1314251.31973943,-5021772.88144666,187.545631709665,7502.40783335011,-1849.12539242644,-5.60758671499324,1.72986394751667,6.60983461059305,6759053.07578964,1.22020656239826,1.4461380856869,0.0567796239143183,0.009598955984812,-1.85446072459287,0.897071753907199,-0.121769266408296,-1.9585614615E-5,-0.0012340256581413,-6.02958873275E-5,349170.212179849,1.10268E-11,1076.42083705051,-5.60758671499324,1.72986394751667,6.60983461059305
2760.0,645092.621828859,-4303444.52657258,-5117457.27073471,4261479.74550975,-861350.526996914,-5120743.48606463,-148.932063515461,7588.31283655987,-1448.65548146434,-5.60382639697612,1.13267200796172,6.73375429029991,6759053.07578968,1.22458183164864,1.44187965678904,0.0568072698135196,0.009674867132265,-1.76410536705595,0.910761630391881,-0.0053367456206256,-1.9585614615E-5,-0.0012053157683846,-6.38423742566E-5,351747.500475571,1.02699E-11,1068.7005857129,-5.60382639697612,1.13267200796172,6.73375429029991
2820.0,1050137.16653499,-4134423.35055054,-5192193.52198195,4242471.34319816,-404373.398384291,-5195482.37766702,-484.373959198257,7638.2429170959,-1041.72831349002,-5.57309201318033,0.531202210827275,6.82500811467302,6759053.07578968,1.22895710090188,1.43930997443541,0.0567969018101677,0.0095360326006422,-1.67279064811787,0.917387928761489,0.111391934525809,-1.9585614615E-5,-0.0011758807393405,-6.73458728109E-5,354408.309411127,9.5462E-12,1061.0286305526,-5.57309201318033,0.531202210827275,6.82500811467302
2880.0,1451786.6543832,-3949466.18130647,-5242385.19003754,4203407.82516546,54515.6783467763,-5245661.13888476,-817.168783162204,7652.03177314626,-630.314370399423,-5.51564618127355,-0.0715346227631284,6.8832747219349,6759053.07578964,1.23333237013798,1.43845773871329,0.0567696354334012,0.0091856305770274,-1.58276315565465,0.917217670403357,0.226213506233923,-1.9585614615E-5,-0.0011461013698817,-7.07582089153E-5,357135.044225889,8.8602E-12,1053.45817210126,-5.51564618127355,-0.0715346227631284,6.8832747219349
2940.0,1848293.41751326,-3749427.14846326,-5267822.48010651,4144495.87574793,513147.748718408,-5271070.05309789,-1145.72522139511,7629.69330268191,-216.398087947992,-5.43189086714175,-0.672545625167189,6.90841012752118,6759053.07578961,1.23770763938837,1.43932912733427,0.0567477172766008,0.0086310088964769,-1.49606531133161,0.910736733114183,0.337128232055943,-1.9585614615E-5,-0.0011163599249702,-7.40330093947E-5,359911.520204531,8.215E-12,1046.03175016943,-5.43189086714175,-0.672545625167189,6.90841012752118
3000.0,2237931.0937677,-3535215.41653448,-5268414.74309487,4066036.8529752,969360.060598164,-5271618.62336221,-1468.48014592941,7571.4199979333,198.032735029213,-5.32236280271628,-1.26887338101502,6.90044578680078,6759053.07578961,1.24208290863875,1.44190781261212,0.0567540612872088,0.0078836366912965,-1.41431450394479,0.898591870144153,0.442561914940407,-1.9585614615E-5,-0.001087036018594,-7.71265548911E-5,362723.091457414,7.6119E-12,1038.78010677182,-5.32236280271628,-1.26887338101502,6.90044578680078
3060.0,2619002.53430026,-3307790.57522503,-5244190.36441492,3968424.85796601,1421006.70586516,-5247335.46011733,-1783.90654191009,7477.58031147751,610.997374295233,-5.18772805519031,-1.8576126847488,6.85958544151392,6759053.07578961,1.2464581778777,1.4461552233421,0.0568117203035236,0.0069589879586915,-1.33859384103165,0.881517857363137,0.541476291860934,-1.9585614615E-5,-0.0010585025671277,-7.99986131615E-5,365556.737912572,7.0507E-12,1031.72292019121,-5.18772805519031,-1.8576126847488,6.85958544151392
3120.0,2989847.51392349,-3068157.87392603,-5195296.03326994,3852144.33894506,1865969.07438276,-5198367.54900418,-2090.52108554521,7348.71504243156,1020.53239419603,-5.02877583577407,-2.43592642588448,6.78620083147334,6759053.07578961,1.25083344713094,1.45201105224967,0.0569433081357386,0.005876349339002,-1.26945741449312,0.860267146803016,0.633364896812589,-1.9585614615E-5,-0.001031121738682,-8.26132471834E-5,368401.110388849,6.5306E-12,1024.87115242525,-5.02877583577407,-2.43592642588448,6.78620083147334
3180.0,3348850.20527658,-2817363.33107396,-5121995.40781298,3717767.25214146,2302166.06312483,-5124978.91420241,-2386.89133010043,7185.53279855908,1424.70157259345,-4.84641164171984,-3.00106048948432,6.68082636400989,6759053.07578952,1.25520871638133,1.45939401321406,0.0571703914968134,0.0046585445707814,-1.20701539689793,0.835554184711653,0.718169055690341,-1.9585614615E-5,-0.0010052408414918,-8.49395878142E-5,371246.53444881,6.0499E-12,1018.23026348946,-4.84641164171984,-3.00106048948432,6.68082636400989
3240.0,3694446.37966238,-2556488.74978713,-5024667.19532256,3565949.80422837,2727563.98684163,-5027548.69644716,-2671.64246284091,6988.90459626829,1821.60547720875,-4.64164982897184,-3.55035757879173,6.54415284234805,6759053.07578949,1.25958398563171,1.46820285432157,0.0575128745479428,0.0033315695493899,-1.15105350503284,0.8080189724938,0.796159454459562,-1.9585614615E-5,-9.811881252912E-4,-8.69525552162E-5,374084.974513825,5.6067E-12,1011.80341445376,-4.64164982897184,-3.55035757879173,6.54415284234805
3300.0,4025130.30212835,-2286646.66936177,-4903802.6699214,3397428.80301239,3140186.14052578,-4906568.66827063,-2943.46360172621,6759.85766546438,2209.39064011418,-4.41560571450021,-4.08126988692316,6.37702036051303,6759053.07578957,1.26395925488209,1.47831763230476,0.0579884014413536,0.0019241347572166,-1.10115107939419,0.778208487701328,0.867819010265007,-1.9585614615E-5,-9.592685100147E-4,-8.86335077503E-5,376909.960451696,5.1988E-12,1005.59400103525,-4.41560571450021,-4.08126988692316,6.37702036051303
3360.0,4339461.29046846,-2008975.28212923,-4760002.65336294,3213017.6447746,3538121.96807632,-4762640.21201323,-3201.11360661182,6499.56853000701,2586.25828370146,-4.16948730723985,-4.59137056447613,6.18041047649843,6759053.07578961,1.26833452412105,1.48960125071378,0.0586118036951615,4.671159823912E-4,-1.05677849666889,0.746571659679295,0.933746309086025,-1.9585614615E-5,-9.397593010333E-4,-8.99707924961E-5,379716.479513605,4.8238E-12,999.607231847027,-4.16948730723985,-4.59137056447613,6.18041047649843
3420.0,4636069.91144923,-1724633.34406502,-4593973.98700656,3013601.96800287,3919535.79588727,-4596470.78874719,-3443.42638559914,6209.35543712091,2950.47255822751,-3.90458676469899,-5.07836394947916,5.95543777732583,6759053.07578959,1.27270979337429,1.50190125823681,0.0593946192055183,-0.0010070805574904,-1.01736828232875,0.713463143148602,0.994585227953952,-1.9585614615E-5,-9.229059937535E-4,-9.09601688926E-5,382500.837092931,4.4796E-12,993.850785080148,-3.90458676469899,-5.07836394947916,5.95543777732583
3480.0,4913663.79135571,-1434795.10515625,-4406525.52529051,2800135.00424336,4282675.09453767,-4408869.92844369,-3669.31568290383,5890.67021055439,3300.36825785972,-3.62227166888233,-5.54009454489266,5.70334094941405,6759053.07578965,1.27708506262181,1.51505189530303,0.060344707941336,-0.0024652267492591,-0.982362158845172,0.679151970429676,1.05097849804941,-1.9585614615E-5,-9.089183070002E-4,-9.16050769616E-5,385260.490297581,4.1638E-12,988.334752828617,-3.62227166888233,-5.54009454489266,5.70334094941405
3540.0,5171033.02033063,-1140645.28600207,-4198563.68279266,2573632.65745131,4625878.23626266,-4200744.77349738,-3877.77934009408,5545.0896026313,3634.357988892,-3.32397621037046,-5.97455474653275,5.42547346549884,6759053.07578971,1.28146033186077,1.52887636717532,0.0614659857544154,-0.003874036965673,-0.951239319582702,0.643832352867888,1.10353991913764,-1.9585614615E-5,-8.979666089371E-4,-9.19167246216E-5,387993.858766445,3.8744E-12,983.07112639209,-3.32397621037046,-5.97455474653275,5.42547346549884
3600.0,5407055.13431988,-843374.123438251,-3971087.56835042,2335168.34355357,4947581.7203799,-3973095.20910278,-4067.9030277064,5174.30621967505,3950.93877036727,-3.01119236341237,-6.37989134055109,5.1232939953933,6759053.07578972,1.28583560110829,1.5431893111536,0.0627582923321098,-0.0052009652051993,-0.92353146216611,0.607634957661898,1.15283970234427,-1.9585614615E-5,-8.901789074115E-4,-9.19139747959E-5,390700.117512687,3.6094E-12,978.073042814266,-3.01119236341237,-6.37989134055109,5.1232939953933
3660.0,5620699.66102797,-544172.507003214,-3725183.7407066,2085867.62196979,5246326.84326992,-3727008.61497347,-4238.86344901354,4780.11909368659,4248.69805362129,-2.68546112793339,-6.75441080423406,4.79835664237041,6759053.07578978,1.29021087036154,1.55779941539979,0.064217402391595,-0.0064150078523375,-0.898829160899973,0.570637753449119,1.19939838375178,-1.9585614615E-5,-8.856385664713E-4,-9.16230219807E-5,393378.976838762,3.3668E-12,973.353952502506,-2.68546112793339,-6.75441080423406,4.79835664237041
3720.0,5811032.21936194,-244227.226699726,-3462020.62077796,1826902.65060036,5520765.79381341,-3463654.27352456,-4389.93102204541,4364.42397073914,4526.31915317071,-2.34836390665425,-7.09658345671684,4.45230110011653,6759053.07578971,1.29458613960906,1.572512138405,0.0658351812436658,-0.0074874826405601,-0.876782935577827,0.532876009576148,1.24368598505679,-1.9585614615E-5,-8.843828826152E-4,-9.10768588851E-5,396030.454536183,3.1449E-12,968.926808177047,-2.34836390665425,-7.09658345671684,4.45230110011653
3780.0,5977218.16495756,55283.6499993393,-3182842.5959317,1559486.49530577,5769667.15932609,-3184277.4699272,-4520.47204981062,3929.2033834191,4782.58608683257,-2.00151407727182,-7.40504651712275,4.08684281728847,6759053.0757897,1.29896140886516,1.58713247224049,0.0675998774868372,-0.0083927542373359,-0.857101294849305,0.494351318482495,1.28612418772363,-1.9585614615E-5,-8.864026107083E-4,-9.03145455489E-5,398654.645656367,2.942E-12,964.80332933419,-2.00151407727182,-7.40504651712275,4.08684281728847
3840.0,6118525.77698569,353195.256560708,-2888963.85163082,1284867.32420198,5991920.83096121,-2890193.31941931,-4629.9503920067,3476.51657091364,5016.38782792529,-1.64654881108113,-7.67860613658223,3.70376324796037,6759053.07578968,1.30333667810126,1.6014676901692,0.0694965375681916,-0.0091088789269479,-0.839547215822093,0.455039658550707,1.32709011343499,-1.9585614615E-5,-8.916424751341E-4,-8.93803047083E-5,401251.495112581,2.7566E-12,960.993365005309,-1.64654881108113,-7.67860613658223,3.70376324796037
3900.0,6234328.9839004,648360.245438953,-2581761.96550331,1004322.51621189,6186542.30124288,-2582780.35695025,-4717.92865432974,3008.48930613975,5226.72197682089,-1.28512118071169,-7.91623847753958,3.30490025690369,6759053.07578968,1.30771194735164,1.61533002026078,0.0715075199993516,-0.0096181449698178,-0.823933956969914,0.414898580640618,1.36692087649244,-1.9585614615E-5,-9.00002642872E-4,-8.83224768263E-5,403820.578251372,2.5873E-12,957.504358572599,-1.28512118071169,-7.91623847753958,3.30490025690369
3960.0,6324109.62809562,939652.935850129,-2262671.29833651,719152.712275027,6352676.34982107,-2263473.92368254,-4784.06891379319,2527.3036847457,5412.69786296459,-0.918892590997366,-8.11708991875737,2.89213873894447,6759053.07578971,1.31208721660202,1.62853919123651,0.0736130817698315,-0.0099074909452439,-0.810120735176098,0.373873622175766,1.40591844646519,-1.9585614615E-5,-9.113410785705E-4,-8.71923750934E-5,406360.894312488,2.4328E-12,954.340908056844,-0.918892590997366,-8.11708991875737,2.89213873894447
4020.0,6387459.27151295,1225973.27862696,-1933176.21573093,430675.836456563,6489600.11668557,-1933759.38410625,-4828.1330002531,2035.18792600776,5573.53909173785,-0.549525558554984,-8.2804764675477,2.46740150180001,6759053.07578965,1.31646248583812,1.64092480435655,0.0757920063892207,-0.0099687911278267,-0.798008572783106,0.33190405098043,1.44435458898386,-1.9585614615E-5,-9.254766537523E-4,-8.60430841409E-5,408870.677384565,2.2918E-12,951.504410422553,-0.549525558554984,-8.2804764675477,2.46740150180001
4080.0,6424080.54611915,1506250.63050523,-1594804.17320312,140221.112943857,6596725.56493027,-1595165.20657588,-4849.98235562592,1534.40623070539,5708.58555321062,-0.178676857557427,-8.40588246209598,2.03264045201248,6759053.07578962,1.3208377550885,1.65232849491347,0.0780222422030188,-0.0097990040020497,-0.787536489859557,0.288928030398065,1.48247578646417,-1.9585614615E-5,-9.421928481393E-4,-8.49282460069E-5,411347.229065871,2.1633E-12,948.992776600516,-0.178676857557427,-8.40588246209598,2.03264045201248
4140.0,6433788.05444515,1779447.33172932,-1249118.69643967,-150876.896397051,6673601.33771437,-1249255.93899142,-4849.57749310338,1027.24873608713,5817.2949119176,0.192008958425556,-8.49295864643136,1.58982811405046,6759053.07578961,1.32521302433889,1.66260585777773,0.0802815210973668,-0.0094001866900998,-0.778678146009171,0.244887284806801,1.52050811381169,-1.9585614615E-5,-9.612418638721E-4,-8.39008733089E-5,413786.776560072,2.0463E-12,946.800203468354,0.192008958425556,-8.49295864643136,1.58982811405046
4200.0,6416508.82728702,2044562.07987028,-897712.287209196,-441284.210584578,6719914.01632654,-897625.110148413,-4826.97707904761,516.021603133731,5899.2435983205,0.560905655684054,-8.54151969877883,1.14094950349418,6759053.07578955,1.32958829359213,1.67162812236237,0.0825479311425259,-0.0087793837638487,-0.771439001136397,0.199731334080582,1.55866208125271,-1.9585614615E-5,-9.823489739951E-4,-8.30122233186E-5,416184.359389576,1.9398E-12,944.916988853827,0.560905655684054,-8.54151969877883,1.14094950349418
4260.0,6372282.34623882,2300633.09742598,-542199.284167394,-729673.282245916,6735488.78822666,-541888.086010173,-4782.33666022377,3.03726656943554,5954.12732361199,0.926411044270019,-8.55154129086946,0.687994366592425,6759053.07578964,1.33396356284251,1.67928357232435,0.0848004216683551,-0.007948403218849,-0.765854049964286,0.153421358311688,1.59713747362804,-1.9585614615E-5,-0.0010052169436091,-8.23107586665E-5,418533.747302276,1.8431E-12,943.329374959308,0.926411044270019,-8.55154129086946,0.687994366592425
4320.0,6301260.14005773,2546741.08987926,-184208.706475219,-1014728.76389374,6720289.53562947,-183674.908838078,-4715.90705864183,-509.395126457674,5981.76114001016,1.28695233576198,-8.52315675145378,0.232949790486884,6759053.07578965,1.33833883208147,1.68547871348005,0.0870192251739912,-0.0069234951020788,-0.761986180785094,0.105933750542903,1.6361282230716,-1.9585614615E-5,-0.0010295303923587,-8.1841211828E-5,420827.391296068,1.7553E-12,942.019486146264,1.28695233576198,-8.52315675145378,0.232949790486884
4380.0,6203704.96451803,2782011.99285171,174622.893181224,-1295153.16846306,6674418.35662141,175376.854215604,-4628.0324555746,-1018.97906734474,5982.07906872938,1.64099114902446,-8.45665340192902,-0.222206818868421,6759053.07578965,1.34271410133185,1.69013919922821,0.0891861867992179,-0.0057249494167995,-0.759925208715083,0.0572634151081414,1.6758273559269,-1.9585614615E-5,-0.0010549600059334,-8.16437624147E-5,423056.409005298,1.6759E-12,940.973453019628,1.64099114902446,-8.45665340192902,-0.222206818868421
4440.0,6079989.57559865,3005619.50880914,532658.540901351,-1569672.40608202,6598114.53198347,533629.227770246,-4519.14818534236,-1523.43980886458,5955.13331743575,1.98702818223082,-8.35246862583439,-0.675514400541814,6759053.07578965,1.34708937058509,1.69321052599115,0.0912849983318528,-0.0043766296697948,-0.759787633718876,0.0074268719701113,1.71643205775644,-1.9585614615E-5,-0.0010811665469318,-8.17533294875E-5,425210.604996778,1.6044E-12,940.188263017868,1.98702818223082,-8.35246862583439,-0.675514400541814
4500.0,5930595.1070769,3216787.4326591,888267.895230565,-1837041.1802509,6491752.95185376,889450.886140313,-4389.77825825521,-2020.53324557319,5901.0931082552,2.32360757276663,-8.21118572714712,-1.12503455930004,6759053.07578963,1.35146463983547,1.69465851184735,0.0933013394963086,-0.0029054571060631,-0.761717171033764,-0.0435347673468333,1.75814890251764,-1.9585614615E-5,-0.0011078046567471,-8.21989762243E-5,427278.525830034,1.5404E-12,939.658020022022,2.32360757276663,-8.21118572714712,-1.12503455930004
4560.0,5756109.06313764,3414791.76839814,1239834.21942293,-2096048.22772631,6355842.01712531,1241224.12975934,-4240.53263072528,-2508.05454058831,5820.24313635021,2.64932096919514,-8.03352962499699,-1.5688575629815,6759053.07578963,1.35583990908586,1.69446956993846,0.0952229342789575,-0.0013408586951262,-0.76588609347598,-0.0955528794886559,1.80119929122502,-1.9585614615E-5,-0.0011345264755979,-8.3003421596E-5,429247.549058828,1.4836E-12,939.37251022218,2.64932096919514,-8.03352962499699,-1.5688575629815
4620.0,5557222.93700757,3598962.63879023,1585761.2507204,-2345521.38744375,6191021.03106641,1587351.75850678,-4072.10423905302,-2983.84649016187,5712.98167776781,2.96281134126017,-7.82036242475482,-2.00510804030599,6759053.07578956,1.36021517832195,1.69265078490991,0.0970395341174991,2.858102915696E-4,-0.772497407317892,-0.148528383361861,1.84582513696744,-1.9585614615E-5,-0.0011609851339357,-8.41826531939E-5,431104.004706017,1.4336E-12,939.317228685483,2.96281134126017,-7.82036242475482,-2.00510804030599
4680.0,5334729.46717373,3768685.98990125,1924479.94613978,-2584332.48475446,5998057.09709774,1926263.82141755,-3885.26581179838,-3445.80761963111,5579.81836374383,3.26277655494807,-7.57267889758771,-2.43195040585614,6759053.07578955,1.36459044757234,1.68922979624587,0.0987428428224729,0.0019418603607647,-0.781787849168657,-0.202328678021684,1.89229480901867,-1.9585614615E-5,-0.001186838182867,-8.5745636699E-5,432833.327143278,1.39E-12,939.472744470643,3.26277655494807,-7.57267889758771,-2.43195040585614
4740.0,5089519.54155098,3923405.09469637,2254455.08523937,-2811402.018098,5777841.53899276,2256424.22323567,-3680.86647401211,-3891.90000602086,5421.37163697546,3.5479727399584,-7.2916018926437,-2.84759404108206,6759053.07578959,1.36896571681986,1.68425448762921,0.100326400074744,0.0035938714311097,-0.794031629173828,-0.256784365262836,1.94090929631754,-1.9585614615E-5,-0.0012117510328455,-8.76941201517E-5,434420.234762489,1.3527E-12,939.81110415029,3.5479727399584,-7.2916018926437,-2.84759404108206
4800.0,4822578.76178691,4062621.85719435,2574191.71121485,-3025703.63597969,5531385.86001255,2576337.16915141,-3459.82815497006,-4320.15682378243,5238.36590360216,3.817217476578,-6.97837769815148,-3.25029826143497,6759053.07578963,1.37334098605596,1.67779247714643,0.101785441251866,0.0052082999244254,-0.809544737367927,-0.311685652857444,1.99200845025491,-1.9585614615E-5,-0.0012354004589315,-9.00225345124E-5,435848.934345908,1.3213E-12,940.304545905604,3.817217476578,-6.97837769815148,-3.25029826143497
4860.0,4534983.67829771,4185897.92148877,2882241.39244299,-3226268.39277224,5259817.25767271,2884553.42983094,-3223.14180945943,-4728.68961089919,5031.62839281141,4.06939282795441,-6.63437136001331,-3.63837710015156,6759053.07578963,1.37771625531206,1.66993039996251,0.103116751192018,0.006752083505521,-0.82868944632387,-0.366778338611533,2.04597698895678,-1.9585614615E-5,-0.0012574782087947,-9.27179952676E-5,437103.346633991,1.2962E-12,941.011755705914,4.06939282795441,-6.63437136001331,-3.63837710015156
4920.0,4227897.70662508,4292855.58945865,3177208.28725179,-3412188.77241816,4964373.71099474,3179676.40950793,-2971.86346115186,-5115.69525287926,4802.0857341624,4.30344824216331,-6.26106195903164,-4.01020393881892,6759053.0757896,1.38209152455673,1.66077297359488,0.104318528329131,0.0081932372681281,-0.851878341640872,-0.421759299244354,2.10324964709247,-1.9585614615E-5,-0.0012776947188705,-9.57604123622E-5,438167.349256229,1.2778E-12,941.992766268989,4.30344824216331,-6.26106195903164,-4.01020393881892
4980.0,3902566.73765606,4383178.54885807,3457754.99524704,-3582622.4695787,4646398.65724609,3460368.0004584,-2707.11007519663,-5479.46268200934,4550.7602609441,4.51840334630555,-5.86003784083879,-4.36421601368411,6759053.07578961,1.38646679380997,1.65044183652887,0.105390273464947,0.0095014342424987,-0.879576733625347,-0.476271469786026,2.16431437803354,-1.9585614615E-5,-0.0012957829081034,-9.91227169337E-5,439025.032934137,1.2666E-12,943.29649950029,4.51840334630555,-5.86003784083879,-4.36421601368411
5040.0,3560314.4511403,4456612.41700204,3722608.17897293,-3736795.9181649,4307335.2753445,3725354.20762784,-2430.05526591042,-5818.37928868756,4278.76604620003,4.71335065219902,-5.43299178598308,-4.69891882477168,6759053.0757896,1.39084206306035,1.63907415383916,0.106332714352569,0.0106485618897417,-0.912301578078676,-0.529898428781595,2.22971178857399,-1.9585614615E-5,-0.0013115019816072,-1.027712128147E-4,439660.966684121,1.2629E-12,944.96748355608,4.71335065219902,-5.43299178598308,-4.69891882477168
5100.0,3202537.34503801,4512965.10169011,3970563.94003485,-3874007.55750508,3948720.39332022,3973430.52753052,-2141.92484435868,-6130.93704071483,3987.30467650251,4.88745819009334,-4.98171610154284,-5.01289047227691,6759053.07578957,1.3952173322993,1.62682098866567,0.107147773370873,0.011609245048625,-0.950613999467564,-0.582158947860819,2.30002794890768,-1.9585614615E-5,-0.0013246411427233,-1.066660583813E-4,440060.467640371,1.2673E-12,947.048513006093,4.88745819009334,-4.98171610154284,-5.01289047227691
5160.0,2830699.49161139,4552106.98288643,4200492.93407504,-3993630.82666368,3572178.03751337,4203467.06580358,-1843.99220974185,-6415.73830513894,3677.66076718547,5.03997208328405,-4.50809761017104,-5.30478594145679,6759053.07578959,1.39959260154969,1.61384544553974,0.107838581058874,0.0123613249260416,-0.995101170904736,-0.632502283304572,2.37587637765446,-1.9585614615E-5,-0.0013350230856177,-1.107618801757E-4,440209.871078124,1.2804E-12,949.582320682857,5.03997208328405,-4.50809761017104,-5.30478594145679
5220.0,2446327.03153672,4573970.91800745,4411345.20917812,-4095116.87764015,3179412.64155461,4414413.37798506,-1537.57358784366,-6671.50136565298,3351.19722158384,5.17021907258351,-4.01411250768784,-5.57334135339219,6759053.07578958,1.40396787080293,1.60032060013156,0.10840953341767,0.0128862834561191,-1.04634186235194,-0.680305649481793,2.45786355398664,-1.9585614615E-5,-0.001342507125327,-1.150085141781E-4,440096.796241292,1.3029E-12,952.612728360996,5.17021907258351,-4.01411250768784,-5.57334135339219
5280.0,2051002.41888381,4578552.07258632,4602154.75240775,-4177996.99835832,2772201.93365167,4605303.01820931,-1224.0231193862,-6897.0656266918,3009.35023591516,5.27760899537301,-3.50182105630508,-5.81737819459184,6759053.07578958,1.40834314003902,1.58642723926419,0.108866386008623,0.0131696029016,-1.10484904476659,-0.724876252599832,2.54653138027851,-1.9585614615E-5,-0.0013469918205437,-1.193518642409E-4,439710.403658929,1.3358E-12,956.185237852692,5.27760899537301,-3.50182105630508,-5.81737819459184
5340.0,1646358.42935479,4565907.57868835,4772043.7292529,-4241884.73652159,2352389.52129701,4775257.78059053,-904.727800987179,-7091.39649329415,2653.62405080487,5.36163721946779,-2.97336207735214,-6.03580753350747,6759053.07578956,1.41271840928941,1.57235144416307,0.109216373360689,0.0132010520230808,-1.17098387779369,-0.765461384812891,2.64227095379203,-1.9585614615E-5,-0.0013484169573576,-1.237348607701E-4,439041.63976585,1.3802E-12,960.346771177118,5.36163721946779,-2.97336207735214,-6.03580753350747
5400.0,1234071.94402949,4536156.02325851,4920226.40081137,-4286477.71557339,1921877.19323429,4923491.61811463,-581.102281540384,-7253.58991355625,2285.58545013129,5.42188702733129,-2.43094720503572,-6.22763422668562,6759053.07578959,1.41709367853979,1.55828205800552,0.109468338434795,0.0129748924476215,-1.24484040510681,-0.801271004536719,2.74520699803833,-1.9585614615E-5,-0.001346764788855,-1.280984970402E-4,438083.464818973,1.4376E-12,965.144090016057,5.42188702733129,-2.43094720503572,-6.22763422668562
5460.0,815857.524012265,4489476.76720933,5046012.70357634,-4311559.13418248,1482616.95938217,5049314.2238975,-254.583517253146,-7382.87656814723,1906.85800787241,5.45803194133917,-1.87685486137106,-6.39196111156115,6759053.07578964,1.42146894779017,1.54440808509929,0.109632854229198,0.0124900018344307,-1.32611169938575,-0.831517123340223,2.85506371854467,-1.9585614615E-5,-0.0013420604633232,-1.323829162821E-4,436831.060315319,1.5096E-12,970.620352360946,5.45803194133917,-1.87685486137106,-6.39196111156115
5520.0,393460.789742846,4426109.09707177,5148811.4767423,-4316998.9408866,1036602.85041767,5152134.25971895,73.3747107206176,-7478.62568894837,1519.11608399599,5.46983797588145,-1.31342391201912,-6.52799317686719,6759053.07578968,1.4258442170377,1.53091607282667,0.109722318309446,0.0117499137494709,-1.41396618161909,-0.855471930943882,2.97104082732956,-1.9585614615E-5,-0.0013343716187776,-1.365285204611E-4,435282.012367868,1.5982E-12,976.809422082488,5.46983797588145,-1.31342391201912,-6.52799317686719
5580.0,-31348.3787310505,4346351.2100496,5228133.32202865,-4302754.6757922,585862.49987009,5231462.21682326,401.307411112601,-7540.34848647587,1124.07857116277,5.45716579717386,-0.743046963408232,-6.63504169537599,6759053.0757897,1.43021948627666,1.51798752847082,0.109751001249137,0.0107627774328593,-1.50698127465997,-0.872540906537173,3.09174691318096,-1.9585614615E-5,-0.0013238071685719,-1.404770717338E-4,433436.467776131,1.7055E-12,983.728088998179,5.45716579717386,-0.743046963408232,-6.63504169537599
5640.0,-456782.803432746,4250559.03342774,5283593.08115617,-4268871.97156272,132448.532867211,5286912.89411457,727.744123604831,-7567.70116341625,723.5023951215,5.41997276680387,-0.168163263252131,-6.71252829727648,6759053.07578976,1.4345947555299,1.5057964211303,0.109735031669821,0.009541243465678,-1.60318599868654,-0.882338884851199,-3.06794352643301,-1.9585614615E-5,-0.0013105153466817,-1.441727599424E-4,431297.25983833,1.8342E-12,991.367328931166,5.41997276680387,-0.168163263252131,-6.71252829727648
5700.0,-881045.114329857,4139144.87909367,5314911.91632789,-4215484.70634667,-321570.212897629,5318207.47909203,1051.21477831381,-7560.4874894098,319.175773170024,5.35831484034055,0.408748830564255,-6.75998895603285,6759053.07578971,1.43897002478028,1.49450681437508,0.109692303625229,0.0081022833567715,-1.70023890906463,-0.884749915513824,-2.94397113414051,-1.9585614615E-5,-0.0012946811169889,-1.47563213818E-4,428870.001290514,1.9867E-12,999.684866688521,5.35831484034055,0.408748830564255,-6.75998895603285
5760.0,-1302334.97871115,4012575.93389603,5321918.97938166,-4142814.80182097,-774117.606856177,5325175.21718555,1370.25566402565,-7518.66091023134,-87.0887630612362,5.27234828788179,0.98517984374614,-6.7770778521545,6759053.07578967,1.44334529401923,1.48427066863128,0.109642296227829,0.0064669520187124,-1.79571382821863,-0.879951477431574,-2.82191796491937,-1.9585614615E-5,-0.0012765230748217,-1.506004392389E-4,426163.142124003,2.1656E-12,1008.60192334121,5.27234828788179,0.98517984374614,-6.7770778521545
5820.0,-1718856.43346203,3871372.58670515,5304552.65572302,-4051171.66016633,-1223119.25712834,5307754.65559506,1683.41549340059,-7442.32616280485,-493.461571984002,5.16233119928641,1.5585976678318,-6.76357107405592,6759053.0757897,1.44772056326676,1.47522584423678,0.109605800332186,0.0046601018766612,-1.88741215012039,-0.868393242212485,-2.70395404682515,-1.9585614615E-5,-0.0012562899789445,-1.532416741398E-4,423187.990427843,2.3738E-12,1018.00635990393,5.16233119928641,1.5585976678318,-6.76357107405592
5880.0,-2128825.29752538,3716106.59287021,5262861.36973489,-3940951.23456841,-1666511.62341579,5265994.44832398,1989.26155101661,-7331.74036612428,-898.103322435635,5.02862473314016,2.12645655040485,-6.7193701092119,6759053.07578966,1.45209583251429,1.46749432752858,0.109604552412665,0.0027100560080119,-1.97360612056993,-0.850736184867637,-2.59177942224757,-1.9585614615E-5,-0.0012342570478024,-1.554501556588E-4,419958.694829125,2.6138E-12,1027.76232622331,5.02862473314016,2.12645655040485,-6.7193701092119
5940.0,-2530476.63927859,3547399.07738324,5197003.93911622,-3812634.7287617,-2102251.17885765,5200053.70985487,2286.38590756692,-7187.31355720241,-1299.17261594502,4.87169406533304,2.68620660526962,-6.64450507325177,6759053.07578965,1.45647110176467,1.46118069404986,0.109660781167345,6.482454573626E-4,-2.0531538980471,-0.827770397277953,-2.48650900970297,-1.9585614615E-5,-0.001210722136493,-1.57195800035E-4,416492.187562809,2.8884E-12,1037.72395453908,4.87169406533304,2.68620660526962,-6.64450507325177
6000.0,-2922072.27315067,3365918.37796698,5107249.46654593,-3666786.92221507,-2528323.58661059,5110201.90585916,2573.41168079923,-7009.608640702,-1694.83379345948,4.69210899058624,3.23530384598412,-6.5391376196215,6759053.07578963,1.46084637101505,1.45637081574505,0.109796677563945,-0.001491186947506,-2.1254860733628,-0.800332886654612,-2.38868590346209,-1.9585614615E-5,-0.0011860018835286,-1.584557989925E-4,412808.087695008,3.2002E-12,1047.74915327069,4.69210899058624,3.23530384598412,-6.5391376196215
6060.0,-3301908.25711314,3172377.72996558,4993976.75821931,-3504054.11880824,-2942752.8550347,4996818.27048536,2848.99932092644,-6799.34072098485,-2083.26490553557,4.49054412845696,3.77122073650229,-6.40356346811389,6759053.07578964,1.46522164025686,1.453130813404,0.110033803805655,-0.0036718169078814,-2.19050592625218,-0.76924068911373,-2.29838082200706,-1.9585614615E-5,-0.0011604278828497,-1.592151374344E-4,408928.564552963,3.552E-12,1057.71001566689,4.49054412845696,3.77122073650229,-6.40356346811389
6120.0,-3668322.36122741,2967532.79540428,4857673.26017529,-3325161.71827234,-3343610.43350745,4860390.74114204,3111.85289529696,-6557.37578600219,-2462.66582118508,4.26777868437706,4.29145724208502,-6.23821448707376,6759053.07578966,1.46959690949868,1.45150625194966,0.110392460888396,-0.005855406350953,-2.24845585788964,-0.735245454038842,-2.21532525669134,-1.9585614615E-5,-0.0011343429011826,-1.594670360767E-4,404878.161977747,3.9465E-12,1067.49823332605,4.26777868437706,4.29145724208502,-6.23821448707376
6180.0,-4019701.47591735,2752179.03892659,4698933.50494012,-3130911.41126963,-3729024.20909131,4701514.40330032,3360.72634413958,-6284.72871379936,-2831.2664465755,4.02469571623509,4.79355235221445,-6.04366026156809,6759053.07578968,1.47397217874906,1.45152157450272,0.110891037945195,-0.0080024136189881,-2.29978934429062,-0.699008352733778,-2.13903896772492,-1.9585614615E-5,-0.0011080971281179,-1.592133193228E-4,400683.584613745,4.3865E-12,1077.02589845274,4.02469571623509,4.79355235221445,-6.04366026156809
6240.0,-4354488.92664447,2527148.95425683,4518457.06286229,-2922178.00076734,-4097187.36258446,4520889.43969109,3594.42967625253,-5982.56057446354,-3187.33502067349,3.76228085798313,5.27509603514021,-5.82060907841393,6759053.07578967,1.47834744799087,1.45317977132257,0.111545369343212,-0.010072551952994,-2.34506821748515,-0.661090556845796,-2.06893201496161,-1.9585614615E-5,-0.0010820444202386,-1.584647036179E-4,396373.448076335,4.8746E-12,1086.22323015424,3.76228085798313,5.27509603514021,-5.82060907841393
6300.0,-4671191.66003667,2293309.14602131,4317045.99461132,-2699905.85431449,-4446367.04093412,4319318.58037166,3811.83507065136,-5652.17520314217,-3529.18645076276,3.48162045381498,5.73374157107986,-5.56990825881343,6759053.07578966,1.4827227172384,1.45646228132522,0.112368127414692,-0.0120254013357301,-2.38488984915576,-0.621953920170905,-2.00437674591369,-1.9585614615E-5,-0.0010565384844696,-1.57240995414E-4,391977.995490131,5.413E-12,1095.03492630214,3.48162045381498,5.73374157107986,-5.56990825881343
6360.0,-4968387.26588408,2051557.27149243,4095601.80365979,-2465104.99395183,-4774912.80163288,4097704.05248477,4011.88284749381,-5295.01502332417,-3855.19064664234,3.18389905968013,6.16721819819998,-5.29254377057524,6759053.07578974,1.48709798648878,1.46132912636507,0.113368279629804,-0.0138210764565047,-2.41984059238057,-0.581967432190617,-1.9447533855492,-1.9585614615E-5,-0.0010319289417124,-1.555711815581E-4,387528.783555799,6.0035E-12,1103.41641469427,3.18389905968013,6.16721819819998,-5.29254377057524
6420.0,-5244730.79721355,1802818.84921357,3855121.8901592,-2218846.83276086,-5081264.78359574,3857044.03112557,4193.58726913211,-4912.65610391698,-4163.78080830371,2.87039627331195,6.57334399256225,-4.98963905461074,6759053.07578976,1.49147325573631,1.46771928120135,0.114550638777479,-0.0154209497240753,-2.45046903095034,-0.541416365309062,-1.88947568172209,-1.9585614615E-5,-0.0010085572206997,-1.53493389374E-4,383058.341971045,6.6469E-12,1111.33070395432,2.87039627331195,6.57334399256225,-4.98963905461074
6480.0,-5498961.35036458,1548043.94165294,3596695.51044516,-1962259.56947397,-5363961.55817828,3598428.59555968,4356.04212997665,-4506.80243876542,-4453.46161808669,2.54248285957629,6.95003889049714,-4.66245300466147,6759053.07578974,1.49584852498669,1.47555128439284,0.11591553310223,-0.0167884230942789,-2.47727273308798,-0.500512236504245,-1.838002915501,-1.9585614615E-5,-9.867522534042E-4,-1.510546899312E-4,378599.81068598,7.3429E-12,1118.74607552562,2.54248285957629,6.95003889049714,-4.66245300466147
6540.0,-5729908.36614407,1288203.72009967,3321499.2494527,-1696523.25510244,-5621647.61348564,3323035.1980816,4498.42609206217,-4079.2794431193,-4722.81728481964,2.2016161447822,7.29533774966077,-4.31237704509638,6759053.0757898,1.50022379422564,1.4847240966669,0.1174586201468,-0.0178897363842294,-2.50069349061194,-0.459402571530519,-1.78984330338555,-1.9585614615E-5,-9.668259754295E-4,-1.483107168999E-4,374186.560095066,8.0898E-12,1125.634581749,2.2016161447822,7.29533774966077,-4.31237704509638
6600.0,-5936497.61246148,1024286.92217618,3030792.01656449,-1422864.54816798,-5853080.4249877,3032123.65604795,4620.00772186072,-3632.02666812878,-4970.51938435683,1.84933466159934,7.60740333364486,-3.94093125913118,6759053.07578981,1.50459906347603,1.49511821309793,0.1191708631241,-0.0186947932657091,-2.52111746919692,-0.418180013446897,-1.74455237431549,-1.9585614615E-5,-9.490686744329E-4,-1.453250756801E-4,369851.799838346,8.8842E-12,1131.97118862467,1.84933466159934,7.60740333364486,-3.94093125913118
6660.0,-6117756.80934368,757296.211600068,2725909.57882901,-1142551.17781939,-6057137.06573339,2727030.68103545,4720.1501830523,-3167.08974166729,-5195.33443833366,1.48725203533108,7.88453909476882,-3.54975952895246,6759053.07578982,1.50897433272355,1.50659703337258,0.121038681957346,-0.0191779799403723,-2.5388779068209,-0.376890636467791,-1.70172869147922,-1.9585614615E-5,-9.337442724738E-4,-1.421685235377E-4,365628.182379199,9.7207E-12,1137.73336705232,1.48725203533108,7.88453909476882,-3.54975952895246
6720.0,-6272820.85685495,488244.453680243,2408258.64903709,-856886.136843011,-6232820.31018615,2409163.96262754,4798.31553970711,-2686.6115515758,-5396.13117096129,1.11705011239196,8.12520162091006,-3.14062365991664,6759053.07578981,1.51334960196536,1.51900849038688,0.123044282827615,-0.0193189463357107,-2.55425888702251,-0.335541490920965,-1.66100839538077,-1.9585614615E-5,-9.210856691774E-4,-1.38917911226E-4,361547.40792108,1.05916E-11,1142.9009441434,1.11705011239196,8.12520162091006,-3.14062365991664
6780.0,-6400936.62781147,218150.918906751,2079310.54979678,-567201.629301236,-6379264.18691436,2079995.82798726,4854.06862470915,-2192.82269569014,-5571.88738237111,0.740471342795849,8.3280126052408,-2.71539647313228,6759053.0757898,1.51772487121575,1.53218693150603,0.125166160512736,-0.0191033162421673,-2.56749931733403,-0.294107476580176,-1.62205943386075,-1.9585614615E-5,-9.112903063954E-4,-1.356548894577E-4,357639.837499477,1.1487E-11,1147.45604316962,0.740471342795849,8.3280126052408,-2.71539647313228
6840.0,-6501467.2879933,-51962.5710144022,1740594.4784545,-274852.800215055,-6495738.93708984,1741056.50208386,4887.0804293055,-1688.03123163918,-5721.69637647356,0.359310440103685,8.491770192838,-2.27605386417612,6759053.0757898,1.52210014046327,1.54595523933548,0.12737975757496,-0.0185232917439346,-2.57879663087261,-0.252537660962631,-1.58457594679068,-1.9585614615E-5,-9.045161367007E-4,-1.32464398568E-4,353934.121214831,1.23945E-11,1151.38291240044,0.359310440103685,8.491770192838,-2.27605386417612
6900.0,-6573896.1081932,-321075.538255164,1393690.40142528,18788.7226959678,-6581655.33799074,1393926.99715799,4897.13097143501,-1174.61176825207,-5844.77288159378,-0.024594645598332,8.6154595555946,-1.8246658402402,6759053.07578981,1.52647540971366,1.56012717031762,0.129658254336924,-0.0175781189745257,-2.58830996632834,-0.210761152090368,-1.54827302205282,-1.9585614615E-5,-9.008781836918E-4,-1.29432975311E-4,350456.84853895,1.32996E-11,1154.66789259143,-0.024594645598332,8.6154595555946,-1.8246658402402
