time,gePosition_m_X,gePosition_m_Y,gePosition_m_Z,eiPosition_m_X,eiPosition_m_Y,eiPosition_m_Z,eiVelocity_m_s_X,eiVelocity_m_s_Y,eiVelocity_m_s_Z,eiAccel_m_s2_X,eiAccel_m_s2_Y,eiAccel_m_s2_Z,semiMajorAxis_m,gast_rad,eulerAngle_rad_Roll,eulerAngle_rad_Pitch,eulerAngle_rad_Yaw,eulerAngleWrtEi_rad_Roll,eulerAngleWrtEi_rad_Pitch,eulerAngleWrtEi_rad_Yaw,bodyAngularRateWrtEi_rad_s_Roll,bodyAngularRateWrtEi_rad_s_Pitch,bodyAngularRateWrtEi_rad_s_Yaw,altitudeMsl_m,airDensity_kg_m3,ambientTemperature_dgK,eiGravitation_m_s2_X,eiGravitation_m_s2_Y,eiGravitation_m_s2_Z
0.0,-1436381.4663574744,4185811.709981752,5163944.671561651,-4315967.74,960356.1999999998,5167269.529999999,129.09103699999832,-7491.513855000002,1452.515654000002,5.469414083491855,-1.2170122767063871,-6.548227058940051,6759053.075789573,1.0233194459853856,0.19689735485747226,1.4818059945046154,0.19765940137336116,-1.3731447582712453,-0.8677374786280413,3.0597725884990914,-1.958561461497245E-5,-9.475261846071607E-4,-1.3213713977167085E-19,434989.54081172694,1.6159166507157113E-12,978.0522572877376,5.469414083491855,-1.2170122767063871,-6.548227058940051
60.0,-1794950.035604563,3943126.0298632947,5239239.620398924,-4298383.754970491,509016.7255464293,5242568.014416208,456.87345327461253,-7547.421734026879,1056.4130595804866,5.4525792419892305,-0.6456971247228347,-6.650294426845274,6759053.075823281,1.027694715234372,0.2227229439726948,1.492634728197527,0.22357807349317463,-1.440486946401865,-0.8770801215481271,-3.137040970791329,-1.958561461497245E-5,-9.296916630233276E-4,-4.84016077769188E-6,433093.86499763327,1.7268595275371565E-12,985.1050726243584,5.4525792419892305,-0.6456971247228347,-6.650294426845274
120.0,-2147547.172627327,3685627.214099747,5290617.599709991,-4261177.841658559,55353.96857218295,5293934.335279837,782.9101130916994,-7568.915714045662,655.0733767057455,5.411226050441415,-0.07029343713486645,-6.72271293263895,6759053.075823526,1.0320699844833425,0.25681242700437673,1.5044737542704625,0.2577771392284085,-1.5082276546624829,-0.8828423800672531,-3.0506930613229875,-1.958561461497245E-5,-9.14339434244232E-4,-9.608412032841518E-6,430905.28080499155,1.8594904120836148E-12,992.8730189417888,5.411226050441415,-0.07029343713486645,-6.72271293263895
180.0,-2492684.253027655,3414408.9044734286,5317817.999323867,-4204498.849718085,-398561.36303361866,5321107.919295423,1105.7316026619326,-7555.824840266371,250.28944868039886,5.345427379299256,0.506714568951204,-6.765038349794059,6759053.07582338,1.0364452537322815,0.3058855144150391,1.517132644666488,0.3069951469448475,-1.5758017240015028,-0.8851278878652407,-2.9648454874306576,-1.958561461497245E-5,-9.016929711333435E-4,-1.4248005146927123E-5,428429.87957988,2.016417418293993E-12,1001.3073022223608,5.345427379299256,0.506714568951204,-6.765038349794059
240.0,-2828892.4937111354,3130615.6419104002,5320688.440232868,-4128583.6023501256,-850652.7947560895,5323936.492629891,1423.8758900978182,-7508.128143834895,-156.12277423374317,5.255356685345753,1.0828129650286642,-6.7769452998292286,6759053.0758233415,1.0408205229812044,0.3858367685038367,1.5303516978891967,0.38714486279358074,-1.6426857498678904,-0.8840482469813571,-2.8799315711227873,-1.958561461497245E-5,-8.919428975731212E-4,-1.870413213090968E-5,425676.596112821,2.2003118787391837E-12,1010.3226925669846,5.255356685345753,1.0828129650286642,-6.7769452998292286
300.0,-3154729.0436835424,2835438.4188789,5299185.944994885,-4033756.271418726,-1298847.133027279,5302377.251173589,1735.8944057456954,-7425.956170029432,-562.3314767243173,5.141289476401708,1.6554666784909706,-6.758230921022534,6759053.075823226,1.0451957922300796,0.5440196512844027,1.5436599556863597,0.5455970417341959,-1.7084132073913334,-0.8797151913898233,-2.7963264180526823,-1.958561461497245E-5,-8.852432891935144E-4,-2.2925054898751162E-5,422657.22305001965,2.4138521596697784E-12,1019.8018848102258,5.141289476401708,1.6554666784909706,-6.758230921022534
360.0,-3468783.080893292,2530110.0527316886,5253377.667424056,-3920427.385261585,-1741083.5887643518,5256497.589806522,2040.358202709488,-7309.591977158356,-966.496434168427,5.003604512481625,2.222128570497101,-6.708818318911365,6759053.075823588,1.049571061478955,0.9740011611802963,1.5554955892245574,0.97593480260137,-1.7725825969647744,-0.8722336658149721,-2.7143389288326025,-1.958561461497245E-5,-8.81708463357833E-4,-2.6863218279796964E-5,419386.38670468883,2.659703096591588E-12,1029.6061068664617,5.003604512481625,2.222128570497101,-6.708818318911365
420.0,-3769681.8927033585,2215900.3907892476,5183441.169167947,-3789092.4648853755,-2175322.9441897143,5186475.378263292,2335.8641804288113,-7159.471575181339,-1366.7766675377504,4.842784698800298,2.7802490350126234,-6.628759745328035,6759053.075823623,1.0539463307277828,2.080927015599286,1.5581012033351336,2.083318565802931,-1.8348590583912894,-0.861696449958551,-2.6342103833513533,-1.958561461497245E-5,-8.814104209926099E-4,-3.0476303735793933E-5,415881.4833809523,2.9405310411355767E-12,1039.5891367335603,4.842784698800298,2.7802490350126234,-6.628759745328035
480.0,-4056096.9160938356,1894111.3589408903,5089664.231749836,-3640330.285344971,-2599556.7283760714,5092598.77217157,2621.0413514224783,-6976.183772684787,-1761.3382794591005,4.659417623602753,3.32728612085339,-6.518239447810256,6759053.075823711,1.0583215999766105,2.7226384221525133,1.5478279154166985,2.725602597753557,-1.894970843594606,-0.8481806983349668,-2.556118172502028,-1.958561461497245E-5,-8.843770770384285E-4,-3.372817996750026E-5,412162.57582333015,3.2590351628477635E-12,1049.6107194015108,4.659417623602753,3.32728612085339,-6.518239447810256
540.0,-4326749.712242957,1566071.8666134481,4972444.193837382,-3474800.760384821,-3011816.365079228,4975265.5490224585,2894.5571284318034,-6760.46940101687,-2148.3624498012036,4.454195692124636,3.8607161687511242,-6.377576127034611,6759053.075823952,1.0626968692254064,2.934165861829535,1.5344604805364235,2.9378285867114458,-1.9527024775830308,-0.8317464904745858,-2.4801828093265605,-1.958561461497245E-5,-8.905913759880886E-4,-3.6589709588040194E-5,408252.249935675,3.617965373970895E-12,1059.5461553837595,4.454195692124636,3.8607161687511242,-6.377576127034611
600.0,-4580417.84872433,1233132.5821292368,4832286.804913607,-3293242.4498751797,-3410182.254571001,4834981.960246851,3155.1236062482185,-6513.2198851884905,-2526.0535653127454,4.227915807160064,4.378044944715185,-6.207224936577685,6759053.075824006,1.0670721384741706,3.03081580742166,1.5207570133706072,3.0353121748688583,-2.0078864074126317,-0.8124372494956854,-2.4064763805464513,-1.958561461497245E-5,-8.999913382465236E-4,-3.903937765884804E-5,404175.4324861281,4.020100211800543E-12,1069.290827114386,4.227915807160064,4.378044944715185,-6.207224936577685
660.0,-4815940.661233866,896660.5937161287,4669804.588172557,-3096469.691207981,-3792792.7494011624,4672361.092219525,3401.503809536186,-6235.475132611081,-2892.647453819083,3.9814785468373564,4.876819239412575,-6.0077789569748115,6759053.075824247,1.0714474077229348,3.085962293818457,1.5073757972106654,3.0914343652248824,-2.06039458512506,-0.7902817199388781,-2.335030953980004,-1.958561461497245E-5,-9.124710274751271E-4,-4.1063717499573586E-5,399959.17111687944,4.468169423614765E-12,1078.7603252908957,3.9814785468373564,4.876819239412575,-6.0077789569748115
720.0,-5032224.8655430395,558033.9727479097,4485714.707352369,-2885369.357626817,-4157852.982343366,4488120.730904464,3632.517875028002,-5928.42071292031,-3246.4196893620415,3.7158867913569447,5.354638891085102,-5.779970074853813,6759053.075824374,1.075822676973096,3.1218520198781885,1.4946342814326374,3.1284464853005347,-2.1101309304804614,-0.7652971062668731,-2.2658459598103304,-1.958561461497245E-5,-9.278823749951071E-4,-4.265752076867887E-5,395632.3786086344,4.964718022318862E-12,1087.8878064198586,3.7158867913569447,5.354638891085102,-5.779970074853813
780.0,-5228249.989311372,218636.25709564745,4280836.334359574,-2660897.248448725,-4503643.503258884,4283080.726997369,3847.049133634801,-5593.384305067111,-3585.693930508892,3.4322437527013996,5.809169176850466,-5.524669198001828,6759053.07582453,1.0801979462217968,-3.1359150860706655,1.4827574585832957,-3.1280493574303385,-2.157025121896748,-0.7374929530659812,-2.198894064494119,-1.958561461497245E-5,-9.46037750896706E-4,-4.382383108153274E-5,391225.54400452017,5.511916530810654E-12,1096.6202397241855,3.4322437527013996,5.809169176850466,-5.524669198001828
840.0,-5403073.592481517,-120149.12600941512,4056087.5169269415,-2424074.118283496,-4828528.680290552,4058159.8608115716,4044.0500553543784,-5231.831391547087,-3908.8502499456877,3.1317503647455722,6.238153504312901,-5.242885738696767,6759053.075824615,1.0845732154704657,-3.11683692325172,1.4719304342631943,-3.1075514112982576,-2.2010277637871223,-0.7068753797492209,-2.1341254603311453,-1.958561461497245E-5,-9.667131378723044E-4,-4.457373204838606E-5,386770.41386542964,6.111325822569056E-12,1104.9147187029548,3.1317503647455722,6.238153504312901,-5.242885738696767
900.0,-5555836.244334545,-456944.4770712256,3812481.548179034,-2175981.3546573287,-5130964.819720505,3814372.208787057,4222.548017435668,-4845.36018411744,-4214.333409491359,2.8157019958155516,6.639426322484071,-4.93576630060621,6759053.075824592,1.0889484847191346,-3.101906059618221,1.4623127948611117,-3.0910551654750353,-2.2421067147446236,-0.6734513473665785,-2.0714707613930403,-1.958561461497245E-5,-9.896517463724784E-4,-4.492595037011225E-5,382299.64759453933,6.7636265489667625E-12,1112.7354457040803,2.8157019958155516,6.639426322484071,-4.93576630060621
960.0,-5685766.224813577,-790383.4592603706,3551122.8428426576,-1917756.31588578,-5409507.958041416,3552823.016367254,4381.6508541501935,-4435.695770590428,-4500.6610309143825,2.4854844515789485,7.01092615836042,-4.604592509092572,6759053.07582489,1.0933237539677718,-3.0898505983107216,1.4540427999360916,-3.077294221772558,-2.2802442316736533,-0.6372327155892682,-2.0108428290926916,-1.958561461497245E-5,-0.0010145679097470497,-4.490630162920161E-5,377846.4514197657,7.468324764615598E-12,1120.0515691077105,2.4854844515789485,7.01092615836042,-4.604592509092572
1020.0,-5792183.917588678,-1119116.7279075428,3273202.3279202026,-1650587.3435924773,-5662821.279340298,3274704.0850709947,4520.552144801061,-4004.683478275874,-4766.431609502182,2.1425692431856,7.350708673413303,-4.2507779309251985,6759053.0758251855,1.0976990232163775,-3.079880193973699,1.4472383153078465,-3.0654862742961657,-2.315434563250925,-0.5982399302096273,-1.952137874330948,-1.958561461497245E-5,-0.0010411511146404264,-4.454701017280166E-5,373444.1962371717,8.223448125279973E-12,1126.83580610024,2.1425692431856,7.350708673413303,-4.2507779309251985
1080.0,-5874505.86247825,-1441817.5300251963,2979992.358917751,-1375708.4669140826,-5889682.111027395,2981288.6848630146,4638.536195333021,-3554.281456335693,-5010.332314318386,1.7885081037738788,7.656959623032119,-3.8758640371876685,6759053.075825151,1.1020742924649671,-3.0714753234247203,1.4419966181050594,-3.0551222984012694,-2.3476816755088143,-0.5565052557854636,-1.8952361339278756,-1.958561461497245E-5,-0.001069070052169286,-4.388593497288256E-5,369126.0250786291,9.025251001520202E-12,1133.0636778396326,1.7885081037738788,7.656959623032119,-3.8758640371876685
1140.0,-5932248.435323717,-1757187.248226189,2672841.176158011,-1094393.8181337207,-6088988.451294848,2673926.0063666347,4734.98266816957,-3086.5524866340816,-5231.146516583726,1.424926745738972,7.928007591948598,-3.4815151725694986,6759053.075825376,1.1064495617135248,-3.0642774364086383,1.4383938415933677,-3.045856572392219,-2.3769968770927394,-0.5120755284640071,-1.8400023323774533,-1.958561461497245E-5,-0.0010979766149463736,-4.2965730950270864E-5,364924.45644562546,9.867951382875672E-12,1138.7131596413296,1.424926745738972,7.928007591948598,-3.4815151725694986
1200.0,-5965031.124248333,-2063960.8624429847,2353166.9192815386,-807951.7822164792,-6259764.982495643,2354035.171037853,4809.370814747496,-2603.655040551345,-5427.760985729919,1.053517861417832,8.162336370179647,-3.0695125051777787,6759053.075825375,1.110824830962067,-3.058027608829995,1.4364843694091267,-3.0374451531076727,-2.4033962030935982,-0.46501444807092096,-1.786286044461846,-1.958561461497245E-5,-0.0011275098085853949,-4.183297067692308E-5,360870.99012584006,1.0743526465207882E-11,1143.764560393344,1.053517861417832,8.162336370179647,-3.0695125051777787
1260.0,-5972579.372444584,-2360912.3020656267,2022451.2217024283,-517718.90543990815,-6401168.525936165,2023098.8210849538,4861.28326571038,-2107.8336075650413,-5599.1726914870505,0.6760333809277306,8.358596827364817,-2.6417469433665763,6759053.075825457,1.115200100210593,-3.052530085426432,1.4363003154105005,-3.029709192407271,-2.426897495076039,-0.41540445647765134,-1.7339219891625002,-1.958561461497245E-5,-0.0011572995884433922,-4.0537245536743825E-5,356995.72236443707,1.1641595888160612E-11,1148.2004604184015,0.6760333809277306,8.358596827364817,-2.6417469433665763
1320.0,-5954726.959222103,-2646859.660517921,1682232.4104984016,-225053.59098407513,-6512492.895374523,1682656.3146336046,4890.409334893665,-1601.408330077328,-5744.495149959564,0.29427601264061315,8.515618138866966,-2.200211019738692,6759053.075825597,1.1195753694590873,-3.047629157403087,1.437851154635505,-3.0225115416356534,-2.4475171712091983,-0.3633482632515864,-1.6827302206167385,-1.958561461497245E-5,-0.0011869706678743317,-3.9130259311779934E-5,353326.9773585577,1.2549419216842987E-11,1152.0055072409127,0.29427601264061315,8.515618138866966,-2.200211019738692
1380.0,-5911417.893039685,-2920670.24393126,1334098.3409257864,68670.38807605539,-6593173.108858767,1334296.5553501535,4896.54779512749,-1086.763987840985,-5862.964252090246,-0.08990989604900296,8.63241821487922,-1.7469897571745978,6759053.075825625,1.123950638707566,-3.0431932198072897,1.4411235414344072,-3.015740492026464,-2.4652667120950356,-0.30897008298096346,-1.6325161401822637,-1.958561461497245E-5,-0.0012161463688289617,-3.766492168836383E-5,349890.96198785875,1.3452050985187115E-11,1155.166541258461,-0.08990989604900296,8.63241821487922,-1.7469897571745978
1440.0,-5842707.792616311,-3181265.425460238,979678.8984083903,362070.52548962744,-6642788.921402823,979650.4893962602,4879.609086515014,-566.3383842605039,-5953.943514267228,-0.4746481276198704,8.708213184307374,-1.2842505472794867,6759053.075825819,1.1283259079560126,-3.03910230856114,1.4460813392902732,-3.009296955811394,-2.480148897980325,-0.2524166452346969,-1.5830702327364496,-1.958561461497245E-5,-0.0012444525960570742,-3.6194445105032706E-5,346711.45044970274,1.433269186903371E-11,1157.6734417441273,-0.4746481276198704,8.708213184307374,-1.2842505472794867
1500.0,-5748764.734978432,-3427625.276943131,620638.2043982899,653762.3331110126,-6661067.6444019945,620383.3061390056,4839.616921215404,-42.61019565232309,-6016.928693130196,-0.8580409306241361,8.74242578852045,-0.8142320876917226,6759053.075825897,1.1327011772044275,-3.03523634806754,1.4526658829670158,-3.0030823254019645,-2.4921538273545107,-0.19385803157022669,-1.5341674255529338,-1.958561461497245E-5,-0.0012715220107042044,-3.477144620647117E-5,343809.5050450376,1.5173213186041267E-11,1159.5196570765772,-0.8580409306241361,8.74242578852045,-0.8142320876917226
1560.0,-5629869.552427905,-3658792.950063773,258666.56588714622,942366.1695549733,-6647886.221612751,258186.3824228573,4776.709252864995,481.9136469291677,-6051.551709908475,-1.2381798488593314,8.734692546314232,-0.33923244094897725,6759053.075825736,1.1370764464528427,-3.031461155080264,1.460796492217293,-2.996984064246211,-2.5012547323091554,-0.1334883875556888,-1.4855659746631904,-1.958561461497245E-5,-0.0012969984576260507,-3.34470531540361E-5,341203.2387527312,1.595483890098077E-11,1160.7023872147697,-1.2381798488593314,8.734692546314232,-0.33923244094897725
1620.0,-5486415.563886452,-3873878.7799267815,-104527.78849663054,1226514.1072666068,-6603272.535941477,-105230.98663178734,4691.1385835734445,1004.7109656363438,-6057.583833868044,-1.6131569578476725,8.684869560658864,0.13840370629291407,6759053.075825934,1.1414517157012258,-3.027607599946122,1.4703712539334994,-2.990854439605878,-2.5074035893475837,-0.07152655395803735,-1.4370057980008784,-1.958561461497245E-5,-0.0013205416648893408,-3.227002209678497E-5,338907.6244451871,1.6658954479693182E-11,1161.2225250385743,-1.6131569578476725,8.684869560658864,0.13840370629291407
1680.0,-5318907.729860386,-4072064.0850250553,-467227.1399971768,1504856.7975835637,-6527405.926172304,-468150.0244651269,4583.271586889617,1523.257648465066,-6034.9380796426485,-1.9810764125628146,8.593036849969522,0.6162984893298911,6759053.075825982,1.1458269849495775,-3.0234345878001436,1.481268082949561,-2.9844730699036557,-2.5105265123010443,-0.008216661721333056,-1.388206195658741,-1.958561461497245E-5,-0.00134183218703091,-3.12858698552779E-5,336934.3546545821,1.7267992667137963E-11,1161.0844329198935,-1.9810764125628146,8.593036849969522,0.6162984893298911
1740.0,-5127961.224332161,-4252604.638968461,-827712.8305054758,1776070.2922503748,-6420616.898073943,-828851.029176323,4453.588031176211,2035.0411749045807,-5983.670779333628,-2.340066201172726,8.45950110162828,1.0920549077622432,6759053.075825713,1.1502022541979289,-3.0185533072311994,1.4933460544582837,-2.977470744810009,-2.5105189137465738,0.056171259200724855,-1.3388629272458767,-1.958561461497245E-5,-0.0013605765106364982,-3.0536034695830085E-5,335291.75472419424,1.7766331391875606E-11,1160.295628540459,-2.340066201172726,8.45950110162828,1.0920549077622432
1800.0,-4914299.421176531,-4414833.79103785,-1184273.8821155955,2038862.779105084,-6283386.019996886,-1185621.9983680956,4302.678994385254,2537.574257302638,-5903.982297208078,-2.6882899918974683,8.28479676312512,1.5632713417748618,6759053.075825773,1.154577523446217,-3.0122492721700396,1.5064469542499028,-2.9691510546799473,-2.507240441538312,0.12134059717088452,-1.2886446605601576,-1.958561461497245E-5,-0.0013765121878164,-3.0057082164629704E-5,333984.7509956208,1.814113073880056E-11,1158.866452880322,-2.6882899918974683,8.28479676312512,1.5632713417748618
1860.0,-4678751.297174753,-4558165.214629264,-1535215.6332772826,2291981.1893255995,-6116341.999052134,-1536767.2705189192,4131.244368188012,3028.4084961581293,-5796.21686252569,-3.0239589541568463,8.069685406171018,2.027556408309026,6759053.075825879,1.1589527926945367,-3.002987532276626,1.5203968373260899,-2.9579952153103224,-2.500509749857211,0.18696732996177734,-1.2371888758774303,-1.958561461497245E-5,-0.001389412816982011,-2.987997743130099E-5,333014.89443773497,1.8383036244225477E-11,1156.8097879021911,-3.0239589541568463,8.069685406171018,2.027556408309026
1920.0,-4422248.258289356,-4682095.264950718,-1878868.3381395556,2534217.633715986,-5920258.940174618,-1880616.1294442627,3940.089656670136,3505.1479443255057,-5660.861504372258,-3.3453434312129033,7.815153321126422,2.482544013413838,6759053.0758258095,1.163328061942793,-2.986656468718256,1.5350066701256244,-2.9399055150588755,-2.490099267530707,0.25269896638382366,-1.1840974243038676,-1.958561461497245E-5,-0.0013990926575755155,-3.0029448603270603E-5,332380.4388524036,1.8486685382855885E-11,1154.1408803210168,-3.3453434312129033,7.815153321126422,2.482544013413838
1980.0,-4145820.4005246474,-4786204.929879759,-2213595.6749744946,2764415.62604912,-5696052.796736522,-2215531.3177030333,3730.122082238375,3965.462473256493,-5498.544081228697,-3.650784339672459,7.522407322662019,2.9259084496943166,6759053.075825955,1.1677033311910492,-2.9470256873430567,1.5500657341297135,-2.8986629056018898,-2.4757303069506165,0.31815317300772106,-1.1289321245664388,-1.958561461497245E-5,-0.0014054106515866765,-3.052346633001884E-5,332076.47153593233,1.8450972171949873E-11,1150.8773114985026,-3.650784339672459,7.522407322662019,2.9259084496943166
2040.0,-3850592.2213435136,-4870161.360692222,-2537803.109410439,2981476.0524644232,-5444777.027807636,-2539917.4046459384,3502.3460188618415,4407.100833994884,-5310.030407229724,-3.938704171612489,7.192868772230962,3.3553793829606806,6759053.075825967,1.1720786004407024,-2.690249020829422,1.5651822538695008,-2.640429756003164,-2.457069152950044,0.3829160184778556,-1.0712110797476273,-1.958561461497245E-5,-0.0014082736332820763,-3.137286330699117E-5,332095.0930791642,1.8279048898430115E-11,1147.0391336934254,-3.938704171612489,7.192868772230962,3.3553793829606806
2100.0,-3537777.8021546286,-4933718.972403866,-2849946.0586012783,3184362.8473496046,-5167617.483574673,-2852228.9552007834,3257.8577801560295,4827.90330673093,-5096.220486496345,-4.207617477783521,6.828165848149444,3.7687565701037316,6759053.075825947,1.176453869688895,-0.08480019491637858,1.5604619233551387,-0.03368533185601737,-2.4337252329821526,0.44653982403089393,-1.0104068555447165,-1.958561461497245E-5,-0.001407638540289539,-3.258111295848202E-5,332425.6418939733,1.797807053733865E-11,1142.6491719486407,-4.207617477783521,6.828165848149444,3.7687565701037316
2160.0,-3208675.48695993,-4976720.106523364,-3148537.8034253498,3372108.338002002,-4865886.546727697,-3150978.4464578265,2997.8397969723096,5225.813835326903,-4858.143876395653,-4.456140715342338,6.430124119309049,4.16392415100945,6759053.075825952,1.180829138937088,0.026726681085040657,1.5452847089299913,0.07897383528048482,-2.4052531547160165,0.5085407301091457,-0.9459483425755798,-1.958561461497245E-5,-0.0014035134916065592,-3.414427996253738E-5,333054.9580844743,1.7558712514337643E-11,1137.7334709815489,-4.456140715342338,6.430124119309049,4.16392415100945
2220.0,-2864662.0862557567,-4999095.252508884,-3432157.0973379654,3543818.2226504786,-4541016.5637268005,-3434743.880650296,2723.5542259420813,5598.891547330477,-4596.954209915349,-4.68300135077541,6.000755503176246,4.538864361000648,6759053.075825956,1.1852044081852489,0.05427479904748149,1.5303765326656027,0.10749168447233426,-2.3711613453987814,0.568396313000176,-0.8772290685935179,-1.958561461497245E-5,-0.0013959576658518318,-3.605114706511901E-5,333967.68048072077,1.7034512478935008E-11,1132.3218488820203,-4.68300135077541,6.000755503176246,4.538864361000648
2280.0,-2507186.6394916917,-5000862.827392899,-3699455.422583778,3698676.149097299,-4194552.605666967,-3702176.045209287,2436.336036717119,5945.321565544253,-4313.922916371601,-4.887046117996391,5.54224571222852,4.891670516840195,6759053.075825877,1.1895796774333782,0.06627674047293731,1.516003987047538,0.12030469510471994,-2.330931206166608,0.6255439582833208,-0.8036259000401921,-1.958561461497245E-5,-0.0013850799884721683,-3.828351375752665E-5,335146.57002493634,1.642109917869954E-11,1126.4485041383061,-4.887046117996391,5.54224571222852,4.891670516840195
2340.0,-2137763.772893146,-4982128.51657416,-3949163.847085654,3835947.864277565,-3828144.6038971283,-3952005.3731848337,2137.585631318895,6263.425024132174,-4010.4321882189643,-5.067248342821727,5.0569403147591965,5.220559138611994,6759053.075825675,1.1939549466814758,0.07259173025555467,1.5023688872594774,0.12727905189762906,-2.2840518799076532,0.6793812605737283,-0.7245332525801902,-1.958561461497245E-5,-0.001371036710799884,-4.081665390965354E-5,336572.85227278026,1.573537528822894E-11,1120.1526077881695,-5.067248342821727,5.0569403147591965,5.220559138611994
2400.0,-1757966.6927723878,-4943084.182125579,-4180099.4384320127,3954984.908390881,-3443538.9105306366,-4183048.360432695,1828.7610539609657,6551.6682103974335,-3687.9672496506614,-5.222714257919803,4.547329555562624,5.52388108163186,6759053.07582568,1.1983302159295892,0.07611239862308242,1.4896554682944703,0.13131725061520524,-2.230076312268894,0.7292704705085943,-0.6394185064591071,-1.958561461497245E-5,-0.0013540280281569303,-4.361991235314718E-5,338226.5715399258,1.499471660519016E-11,1113.478795330239,-5.222714257919803,4.547329555562624,5.52388108163186
2460.0,-1369419.8572878195,-4884006.348302392,-4391171.1949399095,4055227.830889863,-3042569.3384435233,-4394213.499524333,1511.369853838091,6808.670762621413,-3348.107989815127,-5.352688246598661,4.016032098934967,5.80013156666163,6759053.075825784,1.2027054851776549,0.07798640434496527,1.478032857635429,0.13357950192084636,-2.1687030363436737,0.774549829908167,-0.5479030692842495,-1.958561461497245E-5,-0.001334293931449369,-4.665741546659552E-5,340086.9491871893,1.4216239094115173E-11,1106.4774503450928,-5.352688246598661,4.016032098934967,5.80013156666163
2520.0,-973791.3719985676,-4805254.277149997,-4581385.457732037,4136208.9094618605,-2627147.739233563,-4584506.6943013705,1186.9606666204522,7033.21286453057,-2992.5200297045985,-5.456556969108597,3.465777870310198,6.047959012778639,6759053.075825701,1.207080754425705,0.07875215511343378,1.4676538860147519,0.13461917537525836,-2.0998831614683353,0.8145551679714326,-0.44986857528072316,-1.958561461497245E-5,-0.001312109512240284,-4.988886847285144E-5,342132.7386893455,1.341617038325964E-11,1099.2046430310593,-5.456556969108597,3.465777870310198,6.047959012778639
2580.0,-572785.1564430349,-4707267.650171058,-4749850.772065869,4197554.357158302,-2199254.1808534376,-4753036.1232987875,857.1145826932586,7224.241387871987,-2622.9452969881686,-5.533852341151519,2.8993901834167666,6.266172594915791,6759053.075825723,1.211456023673723,0.07868780200271061,1.4586534426984923,0.13473146810780365,-2.0239415834085546,0.8486546844994689,-0.345577244323516,-1.958561461497245E-5,-0.0012877799435716771,-5.327041247195437E-5,344342.5704510886,1.2609346404004769E-11,1091.7215583880427,-5.533852341151519,2.8993901834167666,6.266172594915791
2640.0,-168132.930354378,-4590563.874867271,-4895782.17073634,4238986.006953389,-1760926.7892023153,-4899016.524847489,523.4363715092856,7380.874946019683,-2241.1921871786444,-5.584253350623089,2.319767346878414,6.453748466912144,6759053.075825743,1.2158312929217412,0.07794305562854946,1.4511469373891468,0.13408485469485676,-1.9416858091840912,0.8762975009540239,-0.23577979830343074,-1.958561461497245E-5,-0.0012616353393530544,-5.675551688303847E-5,346695.2798058229,1.1808839721777339E-11,1084.093239227195,-5.584253350623089,2.319767346878414,6.453748466912144
2700.0,238413.93102633496,-4455735.037591032,-5018504.857169039,4260322.467190512,-1314251.3198326214,-5021772.881465563,187.5456317725896,7502.407833291564,-1849.125392492037,-5.607586714903485,1.7298639475987392,6.609834610462984,6759053.075825789,1.2202065621697118,0.07659613931521136,1.4452290080690957,0.13277764344300516,-1.854460724603741,0.8970717539040295,-0.12176926642073437,-1.958561461497245E-5,-0.0012340256581194883,-6.029588733041595E-5,349170.2122322316,1.1025716036139521E-11,1076.3865121591857,-5.607586714903485,1.7298639475987392,6.609834610462984
2760.0,645092.6227445492,-4303444.526489823,-5117457.270757767,4261479.745545314,-861350.5270930552,-5120743.486087714,-148.93206344805097,7588.312836506908,-1448.6554815367556,-5.603826396891528,1.1326720080615635,6.733754290172432,6759053.075825582,1.2245818314176822,0.07468048658132229,1.440972511110687,0.13086425690442252,-1.7641053670691862,0.9107616303891013,-0.005336745635783587,-1.958561461497245E-5,-0.0012053157683623423,-6.384237425906348E-5,351747.50052797445,1.0268910519699959E-11,1068.6671007003279,-5.603826396891528,1.1326720080615635,6.733754290172432
2820.0,1050137.1674322302,-4134423.350373094,-5192193.522009584,4242471.343237865,-404373.3984830214,-5195482.37769468,-484.37395912670206,7638.2429170495,-1041.7283135690561,-5.573092013102117,0.531202210944512,6.825008114549707,6759053.075825386,1.228957100665621,0.07219745202822274,1.4384277967544497,0.12836751646274536,-1.6727906481333525,0.9173879287594027,0.11139193450802518,-1.958561461497245E-5,-0.0011758807393179077,-6.734587281282176E-5,354408.3094634593,9.545215462575589E-12,1060.9961771227695,-5.573092013102117,0.531202210944512,6.825008114549707
2880.0,1451786.6551892187,-3949466.1810558103,-5242385.190070154,4203407.825209572,54515.678245883246,-5245661.138917407,-817.1687830869092,7652.031773107363,-630.3143704847752,-5.515646181202847,-0.07153462262910286,6.883274721817275,6759053.0758252675,1.2333323699135281,0.06912153598096302,1.4376222607495743,0.12528344193706625,-1.582763155672257,0.9172176704020667,0.22621350621361383,-1.958561461497245E-5,-0.0011461013698590013,-7.075820891677952E-5,357135.04427808843,8.859372078918787E-12,1053.4269139026921,-5.515646181202847,-0.07153462262910286,6.883274721817275
2940.0,1848293.4182832434,-3749427.148123519,-5267822.480144452,4144495.875796584,513147.748615832,-5271070.053135858,-1145.7252213165498,7629.693302651567,-216.39808803927002,-5.431890867079693,-0.6725456250172055,6.908410127410929,6759053.075825344,1.2377076391614352,0.06540069294283755,1.4385601589224124,0.12158114631227218,-1.496065311351186,0.9107367331137485,0.33712823203320286,-1.958561461497245E-5,-0.0011163599249474098,-7.40330093955884E-5,359911.5202564394,8.214257760425748E-12,1046.0018212723294,-5.431890867079693,-0.6725456250172055,6.908410127410929
3000.0,2237931.0944980285,-3535215.416105221,-5268414.743138426,4066036.8530286057,969360.0604944252,-5271618.6234058095,-1468.4801458481584,7571.4199979121895,198.03273493249483,-5.322362802663979,-1.2688733808501294,6.900445786699407,6759053.075825162,1.2420829084093103,0.06095235084211848,1.4412226711683016,0.11719846171701928,-1.4143145039660074,0.8985918701448011,0.44256191491558006,-1.958561461497245E-5,-0.001087036018571259,-7.712655489133653E-5,362723.09150891926,7.611152341848298E-12,1038.751612140974,-5.322362802663979,-1.2688733808501294,6.900445786699407
3060.0,2619002.5349496608,-3307790.5747361067,-5244190.364464403,3968424.8580243154,1421006.7057608322,-5247335.460166855,-1783.9065418266807,7477.580311466532,610.9973741936441,-5.187728055148684,-1.8576126845702543,6.859585441422844,6759053.075825244,1.246458177657154,0.05565438520034068,1.4455682022377665,0.11203254871375667,-1.3385938410541118,0.881517857365129,0.5414762918342767,-1.958561461497245E-5,-0.0010585025671052458,-7.999861316096859E-5,365556.73796358483,7.050054816381801E-12,1031.695937752465,-5.187728055148684,-1.8576126845702543,6.859585441422844
3120.0,2989847.5145378117,-3068157.8733434957,-5195296.03332557,3852144.3390083015,1865969.0742784794,-5198367.5490598595,-2090.5210854603147,7348.715042431421,1020.532394090221,-5.028775835744009,-2.435926425693835,6.786200831394051,6759053.075825241,1.2508334469049975,0.04932868498605139,1.4515329061654172,0.1059231321678519,-1.2694574145166222,0.8602671468066935,0.6333648967844501,-1.958561461497245E-5,-0.0010311217386598807,-8.261324718218506E-5,368401.1104391955,6.530012398686176E-12,1024.8457360376487,-5.028775835744009,-2.435926425693835,6.786200831394051
3180.0,3348850.2058433658,-2817363.3304058397,-5121995.407875038,3717767.252209704,2302166.0630212645,-5124978.914264513,-2386.8913300146987,7185.532798570448,1424.7015724841488,-4.846411641701937,-3.001060489283163,6.680826363943535,6759053.075825324,1.2552087161527934,0.04171224496365773,1.4590314156294035,0.09862330343635961,-1.2070153969219122,0.8355541847170358,0.7181690556611652,-1.958561461497245E-5,-0.0010052408414703102,-8.493958781223066E-5,371246.53449844394,6.04942410252051E-12,1018.2064461404818,-4.846411641701937,-3.001060489283163,6.680826363943535
3240.0,3694446.380178625,-2556488.7490344876,-5024667.195391151,3565949.8043016447,2727563.986739471,-5027548.696515804,-2671.6424627550905,6988.904596291589,1821.6054770967266,-4.64164982896675,-3.55035757858194,6.54415284229575,6759053.075825296,1.2595839854005895,0.03240522945199501,1.4679577400319919,0.08974733711832215,-1.151053505056988,0.8080189725008697,0.7961594544297125,-1.958561461497245E-5,-9.811881252703683E-4,-8.695255521339532E-5,374084.97456260957,5.606292250687049E-12,1011.7812112083167,-4.64164982896675,-3.55035757858194,6.54415284229575
3300.0,4025130.3025912996,-2286646.6685259277,-4903802.669996663,3397428.803090633,3140186.1404257403,-4906568.668345943,-2943.463601641086,6759.857665499929,2209.3906400003075,-4.4156057145083185,-4.08126988670668,6.377020360475777,6759053.075825252,1.2639592546483536,0.02077296945750638,1.4781862505469967,0.07867248610048867,-1.101151079417988,0.7782084877102161,0.867819010235179,-1.958561461497245E-5,-9.592685099946632E-4,-8.863350774674863E-5,376909.96049951564,5.198411811065252E-12,1005.5734115603796,-4.4156057145083185,-4.08126988670668,6.377020360475777
3360.0,4339461.290852605,-2008975.2812615081,-4760002.653444912,3213017.6448577354,3538121.9679791243,-4762640.212095268,-3201.113606528106,6499.56853005506,2586.2582835866265,-4.16948730726146,-4.59137056425505,6.1804104764770145,6759053.075825072,1.268334523896086,0.0057474494820085945,1.4895725522338392,0.06434031156723924,-1.0567784966919207,0.7465716596900595,0.9337463090565729,-1.958561461497245E-5,-9.397593010141019E-4,-8.997079249188415E-5,379716.4795603546,4.8235016026406266E-12,999.5882425156956,-4.16948730726146,-4.59137056425505,6.1804104764770145
3420.0,4636069.91178082,-1724633.3431148948,-4593973.98709526,3013601.9680908103,3919535.795793678,-4596470.788835953,-3443.4263855176832,6209.355437181623,2950.472558112658,-3.9045867647342156,-5.078363949255566,5.955437777320793,6759053.075824965,1.2727097931452471,-0.014615000561487205,1.5019537092676265,0.04481426258787255,-1.0173682823508483,0.7134631431611418,0.9945852279250468,-1.958561461497245E-5,-9.229059937352074E-4,-9.096016888782512E-5,382500.83713853353,4.479289140129151E-12,993.8333707257223,-3.9045867647342156,-5.078363949255566,5.955437777320793
3480.0,4913663.79162568,-1434795.1041462237,-4406525.525385953,2800135.004335858,4282675.094448435,-4408869.928539204,-3669.315682825358,5890.670210627778,3300.3682577458126,-3.622271668930994,-5.540094544668694,5.703340949425831,6759053.075824931,1.2770850623929477,-0.044255266989099346,1.515146193690045,0.01615804487874785,-0.9823621588668174,0.6791519704441334,1.0509784980208208,-1.958561461497245E-5,-9.089183069828657E-4,-9.160507695630406E-5,385260.4903419722,4.163562498538751E-12,988.3188782260654,-3.622271668930994,-5.540094544668694,5.703340949425831
3540.0,5171033.0205289535,-1140645.2849808582,-4198563.682894702,2573632.657548267,4625878.236178482,-4200744.773599494,-3877.7793400193677,5545.089602717337,3634.3579887799824,-3.323976210432549,-5.974554746310598,5.42547346552767,6759053.075824919,1.2814603316406326,-0.09252954803554117,1.528935475170851,-0.030982504111828253,-0.9512393196035688,0.6438323528840058,1.103539919109355,-1.958561461497245E-5,-8.979666089208227E-4,-9.191672461595877E-5,387993.85880952096,3.874200587251285E-12,983.0567474715313,-3.323976210432549,-5.974554746310598,5.42547346552767
3600.0,5407055.134458857,-843374.1223679648,-3971087.56845884,2335168.34365468,4947581.720301514,-3973095.2092112717,-4067.9030276362287,5174.306219773536,3950.9387702581653,-3.0111923634875373,-6.379891340333084,5.123293995439276,6759053.07582485,1.2858356008883016,-0.18804709451748813,1.5430261940938137,-0.12521714739928558,-0.9235314621858127,0.6076349576796914,1.1528397023168149,-1.958561461497245E-5,-8.901789073964137E-4,-9.191397478992478E-5,390700.1175543096,3.609190054971087E-12,978.0601077042354,-3.0111923634875373,-6.379891340333084,5.123293995439276
3660.0,5620699.661110949,-544172.5058561066,-3725183.740821286,2085867.6220747267,5246326.843198021,-3727008.615088237,-4238.863448948552,4780.119093797148,4248.698053516024,-2.685461128021056,-6.754410804022235,4.798356642433413,6759053.075824747,1.2902108701359387,-0.4705791279270437,1.5566765253335273,-0.4063201231425275,-0.8988291609181427,0.5706377534684001,1.1993983837254374,-1.958561461497245E-5,-8.856385664573372E-4,-9.162302197458554E-5,393378.9768789046,3.366634128931666E-12,973.3424023513016,-2.685461128021056,-6.754410804022235,4.798356642433413
3720.0,5811032.219384626,-244227.22551142485,-3462020.620898562,1826902.6507087818,5520765.793748755,-3463654.27364525,-4389.931021986377,4364.423970861238,4526.319153070276,-2.3483639067537485,-7.096583456513326,4.452301100196098,6759053.07582461,1.29458613938356,-1.85819390876921,1.5630055172797,-1.792365137194294,-0.8767829355942738,0.5328760095965264,1.2436859850313235,-1.958561461497245E-5,-8.843828826023672E-4,-9.107685887893453E-5,396030.45457479346,3.1447565416215737E-12,968.9165778134404,-2.3483639067537485,-7.096583456513326,4.452301100196098
3780.0,5977218.164920083,55283.65127523102,-3182842.596057859,1559486.4954173092,5769667.1592692705,-3184277.47005344,-4520.472049758104,3929.2033835522025,4782.586086737952,-2.001514077382474,-7.405046516929659,4.086842817384147,6759053.075824417,1.2989614086311496,-2.6816130279480475,1.5519330233623838,-2.614081548591949,-0.8571012948640399,0.4943513185040154,1.2861241876992013,-1.958561461497245E-5,-8.864026106964607E-4,-9.031454554282786E-5,398654.645693325,2.9419023200516646E-12,964.7943477856904,-2.001514077382474,-7.405046516929659,4.086842817384147
3840.0,6118525.77689089,353195.2577991009,-2888963.8517621686,1284867.3243162162,5991920.830912844,-2890193.3195507433,-4629.950391961395,3476.5165710569563,5016.3878278374,-1.6465488112020221,-7.678606136401425,3.703763248071452,6759053.075824317,1.3033366778787392,-2.859026103038912,1.5382006340110064,-2.78966893169949,-0.8395472158352164,0.45503965857317796,1.3270901134114472,-1.958561461497245E-5,-8.91642475123289E-4,-8.938030470235219E-5,401251.49514785,2.7565364192441678E-12,960.9855559051093,-1.6465488112020221,-7.678606136401425,3.703763248071452
3900.0,6234328.983746882,648360.2467209935,-2581761.9656394166,1004322.5163283765,6186542.301203563,-2582780.3570864494,-4717.928654292089,3008.4893062924743,5226.721976740464,-1.2851211808418026,-7.916238477372727,3.304900257029288,6759053.075824071,1.307711947126297,-2.9324677677042725,1.5245696746165083,-2.861173904739545,-0.8239339569815072,0.41489858066404406,1.3669208764698009,-1.958561461497245E-5,-9.000026428621615E-4,-8.832247682066653E-5,403820.57828494307,2.587240765467121E-12,957.4976404776287,-1.2851211808418026,-7.916238477372727,3.304900257029288
3960.0,6324109.627882954,939652.937171242,-2262671.2984769186,719152.7123933006,6352676.349791331,-2263473.923823044,-4784.068913763713,2527.303684906909,5412.697862892465,-0.9188925911356356,-8.117089918606009,2.892138739083587,6759053.075823992,1.312087216373823,-2.9740927536352264,1.5114967622666096,-2.9007650252725092,-0.8101207351861783,0.37387362220010234,1.405918446443363,-1.958561461497245E-5,-9.113410785615642E-4,-8.719237508804514E-5,406360.89434433763,2.432710074574818E-12,954.3351947009961,-0.9188925911356356,-8.117089918606009,2.892138739083587
4020.0,6387459.271258469,1225973.2798908514,-1933176.2158751187,430675.83657609473,6489600.116665882,-1933759.3842505256,-4828.1330002321865,2035.1879261764868,5573.539091674716,-0.5495255587002231,-8.280476467413203,2.467401501951484,6759053.0758238565,1.3164624856213492,-3.0021485868177855,1.4992205732312769,-2.92670527541967,-0.7980085727916839,0.33190405100545073,1.4443545889627714,-1.958561461497245E-5,-9.254766537442925E-4,-8.604308413597838E-5,408870.6774146876,2.2917467198410247E-12,951.4996109192413,-0.5495255587002231,-8.280476467413203,2.467401501951484
4080.0,6424080.545809295,1506250.6317974378,-1594804.1733505125,140221.11306413097,6596725.564920984,-1595165.2067233734,-4849.9823556139345,1534.4062308805742,5708.58555315727,-0.17867685770844632,-8.405882461979694,2.0326404521751287,6759053.075823867,1.3208377548688435,-3.0233015688404956,1.4879238576068938,-2.9456778085540254,-0.7875364898668091,0.28892803042375215,1.4824757864437874,-1.958561461497245E-5,-9.421928481320776E-4,-8.492824600249162E-5,411347.2290942006,2.163254879689079E-12,948.9887956042605,-0.17867685770844632,-8.405882461979694,2.0326404521751287
4140.0,6433788.054079962,1779447.333044778,-1249118.6965896746,-150876.89627657912,6673601.337715765,-1249255.9391415133,-4849.577493100584,1027.248736267652,5817.2949118745055,0.1920089582700291,-8.49295864633445,1.5898281142229747,6759053.075823662,1.325213024116306,-3.040563201928305,1.4777612362902204,-2.960712117360599,-0.7786781460153548,0.24488728483323255,1.5205081137917762,-1.958561461497245E-5,-9.612418638657253E-4,-8.390087330503661E-5,413786.7765865464,2.0462341662395796E-12,946.7969412983052,0.1920089582700291,-8.49295864633445,1.5898281142229747
4200.0,6416508.826861151,2044562.081221841,-897712.2873611632,-441284.21046446083,6719914.016338993,-897625.1103004745,-4826.977079054233,516.0216033184021,5899.243598288238,0.560905655525302,-8.54151969870184,1.14094950367504,6759053.07582382,1.3295882933637686,-3.055500946699029,1.4688657000914365,-2.9733945138903652,-0.7714390011414192,0.19973133410774016,1.5586620812331895,-1.958561461497245E-5,-9.823489739896616E-4,-8.301222331535045E-5,416184.3594143089,1.93977290538324E-12,944.9143415744506,0.560905655525302,-8.54151969870184,1.14094950367504
4260.0,6372282.3457578765,2300633.0987896365,-542199.2843206532,-729673.2821267305,6735488.788250351,-541888.086163526,-4782.336660239836,3.037266757037202,5954.12732359087,0.9264110441093494,-8.551541290813066,0.6879943667801444,6759053.075823868,1.3339635626111994,-3.0690222378098886,1.461350061733433,-2.9846518489933485,-0.7658540499680669,0.1534213583395271,1.5971374736087858,-1.958561461497245E-5,-0.0010052169436044957,-8.231075866394107E-5,418533.74732525717,1.843041201790387E-12,943.3272344066072,0.9264110441093494,-8.551541290813066,0.6879943667801444
4320.0,6301260.13955153,2546741.0911771227,-184208.70662910413,-1014728.7637760427,6720289.535664462,-183674.9089920553,-4715.907058667412,-509.3951262683871,5981.7611400005335,1.286952335600702,-8.523156751418513,0.23294979067996818,6759053.075823852,1.3383388318585985,-3.0817019904720553,1.4553069828630212,-2.9950787070559346,-0.7619861807876591,0.10593375057135856,1.6361282230526224,-1.958561461497245E-5,-0.0010295303923550882,-8.18412118261773E-5,420827.39131727064,1.7552846435072005E-12,942.0177470792394,1.286952335600702,-8.523156751418513,0.23294979067996818
4380.0,6203704.963961347,2782011.9941506796,174622.89302741102,-1295153.1683473992,6674418.356667889,175376.85406169915,-4628.032455609637,-1018.979067155005,5982.079068731438,1.6409911488637374,-8.456653401914727,-0.22220681867152065,6759053.075824069,1.3427141011059978,-3.0939374870576635,1.450808619384203,-3.00509196901894,-0.7599252087163925,0.05726341513697428,1.6758273559080055,-1.958561461497245E-5,-0.0010549600059308096,-8.16437624136284E-5,423056.40902488795,1.6758864449798605E-12,940.972141815786,1.6409911488637374,-8.456653401914727,-0.22220681867152065
4440.0,6079989.574983826,3005619.5101206354,532658.5407483215,-1569672.4059689676,6598114.532041277,533629.227617126,-4519.148185386778,-1523.4398086756892,5955.133317449674,1.987028182071989,-8.352468625841375,-0.6755144003426533,6759053.075824172,1.347089370353365,-3.1060299501028257,1.4479062365577862,-3.0150120545545693,-0.7597876337189835,0.007426871999062696,1.7164320577375582,-1.958561461497245E-5,-0.0010811665469302061,-8.175332948715037E-5,425210.60501466744,1.60440244418841E-12,940.1874533951445,1.987028182071989,-8.352468625841375,-0.6755144003426533
4500.0,5930595.106413125,3216787.4339592285,888267.8950790274,-1837041.1801409936,6491752.951922736,889450.8859886877,-4389.778258308796,-2020.533245386369,5901.093108281114,2.323607572610924,-8.211185727175295,-1.1250345591001871,6759053.07582426,1.3514646396007006,-3.1182326601490815,1.4466299214537754,-3.025110707192589,-0.7617171710325157,-0.04353476731800812,1.7581489024987584,-1.958561461497245E-5,-0.0011078046567465619,-8.219897622470531E-5,427278.52584622474,1.5404317403164235E-12,939.6577813145241,2.323607572610924,-8.211185727175295,-1.1250345591001871
4560.0,5756109.062426575,3414791.769680339,1239834.2192736014,-2096048.227620109,6355842.017205305,1241224.12960993,-4240.532630787775,-2508.054540404805,5820.243136387877,2.649320969043706,-8.033529625045881,-1.5688575627824748,6759053.075824205,1.3558399088480522,-3.13078376237204,1.446988437313841,-3.035643472344357,-0.7658860934733299,-0.09555287946012,1.8011992912059411,-1.958561461497245E-5,-0.0011345264755983097,-8.300342159709663E-5,429247.54907339986,1.4836045638662456E-12,939.3729071240496,2.649320969043706,-8.033529625045881,-1.5688575627824748
4620.0,5557222.936302277,3598962.63996883,1585761.2505739618,-2345521.3873417974,6191021.0311571555,1587351.7583602595,-4072.1042391241267,-2983.84648998294,5712.981677817258,2.962811341114122,-7.820362424823838,-2.005108040109242,6759053.075824377,1.360215178095356,3.1392518705575516,1.4489692295971457,-3.0468765493388497,-0.7724974073138893,-0.14852838333363214,1.8458251369480438,-1.958561461497245E-5,-0.001160985133937022,-8.418265319568431E-5,431104.0047190248,1.4335824532733163E-12,939.3183205085661,2.962811341114122,-7.820362424823838,-2.005108040109242
4680.0,5334729.46642715,3768685.9910522294,1924479.94599694,-2584332.4846572224,5998057.097198867,1926263.821274628,-3885.2658118776562,-3445.8076194578744,5579.8183638047085,3.2627765548084375,-7.572678897676189,-2.431950405663142,6759053.075824335,1.3645904473426438,3.1252131931430727,1.4525385752681124,-3.059114707390137,-0.7817878491632895,-0.20232867799383902,1.8922948089987661,-1.958561461497245E-5,-0.0011868381828692507,-8.574563670137125E-5,432833.3271547621,1.390053523201193E-12,939.4745827063888,3.2627765548084375,-7.572678897676189,-2.431950405663142
4740.0,5089519.5407818025,3923405.0957915606,2254455.0851008007,-2811402.0180058912,5777841.53910379,2256424.2230970273,-3680.866474099071,-3891.9000058544057,5421.371637047383,3.5479727398261636,-7.291601892750911,-2.847594040894264,6759053.075824031,1.3689657165913447,3.109918843343702,1.4576418507246036,-3.0727369959040782,-0.7940316291668538,-0.2567843652354563,1.9409092962969199,-1.958561461497245E-5,-0.001211751032848656,-8.769412015469016E-5,434420.2347724323,1.3527076107024768E-12,939.8137194363649,3.5479727398261636,-7.291601892750911,-2.847594040894264
4800.0,4822578.7610390745,4062621.858181611,2574191.7110811775,-3025703.635893183,5531385.860133063,2576337.169017673,-3459.828155064218,-4320.156823623758,5238.365903684685,3.8172174764539974,-6.978377698276286,-3.2502982612535893,6759053.075823711,1.373340985838585,3.09287251867624,1.4642038679108957,-3.088249893907998,-0.8095447373589191,-0.3116856528306154,1.9920084502333155,-1.958561461497245E-5,-0.0012354004589355894,-9.002253451582219E-5,435848.934354435,1.3212983074056225E-12,940.3080378875122,3.8172174764539974,-6.978377698276286,-3.2502982612535893
4860.0,4534983.677493368,4185897.922460773,2882241.3923148513,-3226268.392691782,5259817.257802206,2884553.4297027327,-3223.141809560281,-4728.6896107493385,5031.628392904216,4.069392827839336,-6.634371360154438,-3.6383770999777045,6759053.075823717,1.3777162550858253,3.0733602306591012,1.472129174358977,-3.1063751539036986,-0.8286894463127501,-0.3667783385853651,2.0459769889339876,-1.958561461497245E-5,-0.0012574782087997759,-9.271799527142947E-5,437103.3466412339,1.2962131319778614E-12,941.0163137098554,4.069392827839336,-6.634371360154438,-3.6383770999777045
4920.0,4227897.705814317,4292855.590357682,3177208.2871297803,-3412188.772344077,4964373.711132697,3179676.4093858507,-2971.863461258836,-5115.695252739131,4802.085734264945,4.303448242057663,-6.261061959187819,-4.010203938653587,6759053.075823745,1.3820915243330338,3.0502924718893345,1.4813020901437999,-3.128207468229118,-0.851878341627439,-0.421759299219101,2.1032496470681923,-1.958561461497245E-5,-0.0012776947188765176,-9.576041236631219E-5,438167.3492623132,1.2778702807938138E-12,941.9985528950315,4.303448242057663,-6.261061959187819,-4.010203938653587
4980.0,3902566.7368048853,4383178.5497153625,3457754.99513171,-3582622.4695113515,4646398.657391938,3460368.00034301,-2707.1100753090914,-5479.462681879689,4550.760261055755,4.51840334620978,-5.860037841008646,-4.364216013528121,6759053.075823761,1.3864667935802266,3.021897664855767,1.4915859532427116,3.1276644065934867,-0.8795767336094927,-0.4762714697618431,2.1643143780077034,-1.958561461497245E-5,-0.001295782908110396,-9.912271693807086E-5,439025.0329392095,1.266657832591572E-12,943.3036693291082,4.51840334620978,-5.860037841008646,-4.364216013528121
5040.0,3560314.4502635296,4456612.417799721,3722608.178864769,-3736795.9181045787,4307335.275497552,3725354.207519632,-2430.055266027771,-5818.3792885691755,4278.7660463202,4.713350652113581,-5.432991786165305,-4.698918824625872,6759053.075823823,1.3908420628273876,2.9850704507559045,1.5028202294935225,3.0917647791484515,-0.9123015780604464,-0.5298984287586617,2.229711788546662,-1.958561461497245E-5,-0.0013115019816151493,-1.0277121281918215E-4,439660.9666882543,1.2630018304156246E-12,944.9761869275336,4.713350652113581,-5.432991786165305,-4.698918824625872
5100.0,3202537.344190011,4512965.102385875,3970563.9399343394,-3874007.5574521055,3948720.393479745,3973430.5274299686,-2141.924844480247,-6130.937040608336,3987.3046766305233,4.887458190018576,-4.98171610173596,-5.012890472141914,6759053.075823873,1.3952173320745327,2.933822486050247,1.5148116347973581,3.0412936790553884,-0.9506139994469014,-0.582158947839328,2.3000279488787903,-1.958561461497245E-5,-0.0013246411427322,-1.0666605838577702E-4,440060.4676436875,1.2674058823567515E-12,947.0588969426392,4.887458190018576,-4.98171610173596,-5.012890472141914
5160.0,2830699.490744091,4552106.983515415,4200492.93398261,-3993630.826618186,3572178.0376786157,4203467.065711113,-1843.9922098669836,-6415.738305044964,3677.66076732062,5.039972083220158,-4.508097610373749,-5.304785941333278,6759053.0758239655,1.399592601321678,2.8550223733045916,1.527306251494844,2.963125521270884,-0.9951011708818943,-0.632502283284814,2.375876377624058,-1.958561461497245E-5,-0.0013350230856272436,-1.1076188018021347E-4,440209.87108067865,1.2804856920585646E-12,949.5945281922766,5.039972083220158,-4.508097610373749,-5.304785941333278
5220.0,2446327.0306398254,4573970.918571473,4411345.2090941565,-4095116.8776023234,3179412.6417247737,4414413.377901063,-1537.5735879716535,-6671.501365571935,3351.197221725405,5.1702190725306405,-4.014112507898675,-5.573341353280629,6759053.075823921,1.4039678705687753,2.7141792248284276,1.5398873922744454,2.822777884976207,-1.0463418623269285,-0.6803056494639629,2.4578635539545686,-1.958561461497245E-5,-0.0013425071253371581,-1.1500851418268447E-4,440096.7962431928,1.3030032903829818E-12,952.6268961839809,5.1702190725306405,-4.014112507898675,-5.573341353280629
5280.0,2051002.418038936,4578552.0730428435,4602154.752332559,-4177996.99832832,2772201.933825935,4605303.018134087,-1224.0231195164063,-6897.065626624114,3009.3502360623693,5.277608995331234,-3.501821056522616,-5.817378194492559,6759053.0758239385,1.4083431398158728,2.3967366145108726,1.5514826667385646,2.505705320625601,-1.1048490447393042,-0.72487625258415,2.5465313802447005,-1.958561461497245E-5,-0.0013469918205542743,-1.1935186424540601E-4,439710.403660272,1.3359021022173511E-12,956.2014923587317,5.277608995331234,-3.501821056522616,-5.817378194492559
5340.0,1646358.4284996113,4565907.579067607,4772043.729186892,-4241884.736499492,2352389.521474603,4775257.7805245,-904.7278011189034,-7091.396493240054,2653.624050956941,5.361637219436839,-2.973362077574914,-6.035807533420603,6759053.075823977,1.4127184090629386,1.5796452181449647,1.55767341976525,1.6888717950799357,-1.170983877764185,-0.7654613847995692,2.6422709537565408,-1.958561461497245E-5,-0.001348416957368526,-1.2373486077453438E-4,439041.6397668362,1.3803419322256002E-12,960.3652219770004,5.361637219436839,-2.973362077574914,-6.035807533420603
5400.0,1234071.94316708,4536156.02355601,4920226.400754741,-4286477.715559265,1921877.193414351,4923491.618057978,-581.1022816729883,-7253.589913516024,2285.5854502874445,5.421887027311103,-2.430947205262397,-6.227634226611303,6759053.07582411,1.4170936783099726,0.746897361659984,1.551811486838923,0.856284997852325,-1.2448404050752702,-0.801271004525791,2.745206998001235,-1.958561461497245E-5,-0.0013467647888660214,-1.2809849704440977E-4,438083.4648196864,1.4377308401977422E-12,965.1648209023499,5.421887027311103,-2.430947205262397,-6.227634226611303
5460.0,815857.5231460765,4489476.767420781,5046012.703529271,-4311559.134176325,1482616.9595638532,5049314.223850415,-254.58351738596878,-7382.8765681209325,1906.8580080318986,5.45803194132957,-1.8768548616003984,-6.391961111499447,6759053.075824082,1.4214689475570224,0.4206809159500621,1.5403919423714518,0.530149951840427,-1.326111699352135,-0.8315171233320009,2.85506371850569,-1.958561461497245E-5,-0.0013420604633342758,-1.323829162861638E-4,436831.0603158459,1.509748496541113E-12,970.6434095100997,5.45803194132957,-1.8768548616003984,-6.391961111499447
5520.0,393460.788888811,4426109.097192137,5148811.476704961,-4316998.940888385,1036602.8506001291,5152134.2596816085,73.37471058820859,-7478.625688936005,1519.1160841579972,5.469837975882135,-1.3134239122498903,-6.527993176817986,6759053.075823966,1.4258442168040246,0.2765267468008738,1.5280056027382714,0.3860161427176021,-1.4139661815840576,-0.8554719309386125,2.971040827289318,-1.958561461497245E-5,-0.0013343716187885245,-1.36528520464892E-4,435282.01236834336,1.5983535721060016E-12,976.8348001184836,5.469837975882135,-1.3134239122498903,-6.527993176817986
5580.0,-31348.37953252361,4346351.210077986,5228133.32200106,-4302754.67580189,585862.5000524935,5231462.216795676,401.30741098121814,-7540.348486477498,1124.0785713265407,5.457165797184638,-0.7430469636393365,-6.635041695339166,6759053.075823863,1.430219486051027,0.1957223775804734,1.5157599020517056,0.305190831190231,-1.5069812746242877,-0.8725409065349767,3.0917469131402737,-1.958561461497245E-5,-0.0013238071685826847,-1.4047707173720102E-4,433436.46777662256,1.7057674998284516E-12,983.755716555004,5.457165797184638,-0.7430469636393365,-6.635041695339166
5640.0,-456782.80424114247,4250559.033364126,5283593.081138438,-4268871.971580253,132448.53304871393,5286912.8940968495,727.7441234750643,-7567.701163431789,723.5023952862987,5.4199727668243,-0.16816326348248803,-6.712528297251715,6759053.075823911,1.4345947552979816,0.14272875716734376,1.5040750087856893,0.2521554478745464,-1.6031859986512385,-0.8823388848519265,-3.0679435264732633,-1.958561461497245E-5,-0.001310515346692162,-1.4417275994526996E-4,431297.25983900815,1.834430520559847E-12,991.3970565136956,5.4199727668243,-0.16816326348248803,-6.712528297251715
5700.0,-881045.1151291657,4139144.8789352686,5314911.916319986,-4215484.7063719025,-321570.2127178557,5318207.47908413,1051.2147781862097,-7560.487489439035,319.17577333511116,5.358314840370334,0.40874883033560155,-6.759988956019934,6759053.075823619,1.4389700245449362,0.10408127025145225,1.4932015789942088,0.21346621578755576,-1.7002389090304122,-0.8847499155174063,-2.9439711341795647,-1.958561461497245E-5,-0.001294681116998922,-1.47563213820284E-4,428870.00129143795,1.9869343113705753E-12,999.7164603614334,5.358314840370334,0.40874883033560155,-6.759988956019934
5760.0,-1302334.979451911,4012575.933655251,5321918.9793836465,-4142814.8018537182,-774117.6066789457,5325175.217187563,1370.255663900781,-7518.660910274175,-87.08876289656537,5.272348287920311,0.9851798435200291,-6.777077852153014,6759053.075823663,1.443345293791875,0.07364992614761416,1.4833271069956928,0.1830139448546854,-1.7957138281863485,-0.8799514774376627,-2.8219179649563766,-1.958561461497245E-5,-0.0012765230748312511,-1.5060043924049193E-4,426163.1421253585,2.1659464977361465E-12,1008.6350673771642,5.272348287920311,0.9851798435200291,-6.777077852153014
5820.0,-1718856.4341770832,3871372.5863747224,5304552.655734943,-4051171.660206411,-1223119.256954465,5307754.65560701,1683.4154932789497,-7442.326162861045,-493.4615718204201,5.162331199333071,1.5585976676089335,-6.7635710740653625,6759053.07582397,1.447720563038782,0.048248267148930636,1.4746048363662263,0.15763254791540116,-1.8874121500902914,-0.868393242220497,-2.7039540468600256,-1.958561461497245E-5,-0.0012562899789535294,-1.5324167414075958E-4,423187.9904298289,2.3741496572352443E-12,1018.0406696114359,5.162331199333071,1.5585976676089335,-6.7635710740653625
5880.0,-2128825.298212107,3716106.592450821,5262861.36975665,-3940951.2346156193,-1666511.6232460623,5265994.448345778,1989.2615508986385,-7331.740366193433,-898.1033222737921,5.028624733194506,2.1264565501858192,-6.719370109231849,6759053.075824025,1.4520958322856732,0.026043009038957884,1.4671629955821326,0.13550829927331595,-1.973606120542216,-0.8507361848772745,-2.5917794222801116,-1.958561461497245E-5,-0.001234257047810752,-1.5545015565909953E-4,419958.6948318678,2.6142139042760208E-12,1027.7973692844441,5.028624733194506,2.1264565501858192,-6.719370109231849
5940.0,-2530476.639944499,3547399.0768687017,5197003.939147551,-3812634.7288157432,-2102251.17869281,5200053.709886242,2286.3859074530715,-7187.313557284393,-1299.1726157855464,4.871694065394885,2.6862066050550615,-6.64450507328203,6759053.075824185,1.4564711015325642,0.005886209016577935,1.4611078643217195,0.11551163920148239,-2.0531538980219155,-0.8277703972890107,-2.4865090097331795,-1.958561461497245E-5,-0.0012107221365007632,-1.5719580003464303E-4,416492.18756628735,2.888806522479752E-12,1037.75927666204,4.871694065394885,2.6862066050550615,-6.64450507328203
6000.0,-2922072.2737923493,3365918.377356511,5107249.466586786,-3666786.9222757164,-2528323.586451405,5110201.905900055,2573.41168068991,-7009.608640796324,-1694.8337933029609,4.6921089906549875,3.2353038457743457,-6.539137619661486,6759053.075824359,1.4608463707794237,-0.012999542481508116,1.4565246431488617,0.09688202852773163,-2.1254860733395735,-0.8003328866669446,-2.3886859034903853,-1.958561461497245E-5,-0.001186001883535726,-1.5845579899160652E-4,412808.08769944636,3.2006222774254756E-12,1047.7843030534355,4.6921089906549875,3.2353038457743457,-6.539137619661486
6060.0,-3301908.2576999986,3172377.7292871373,4993976.758269389,-3504054.118875234,-2942752.854881906,4996818.270535477,2848.9993208220376,-6799.340721091211,-2083.2649053825776,4.490544128532366,3.771220736297743,-6.403563468163228,6759053.075824614,1.4652216400262512,-0.031184948341318464,1.4534775042588433,0.07906381791221295,-2.190505926231171,-0.7692406891271126,-2.2983808220333515,-1.958561461497245E-5,-0.0011604278828561366,-1.5921513743286775E-4,408928.5645584275,3.5524056255948868E-12,1057.7445646075325,4.490544128532366,3.771220736297743,-6.403563468163228
6120.0,-3668322.361755202,2967532.7946695117,4857673.260234296,-3325161.718345247,-3343610.433361745,4860390.741201099,3111.8528951978874,-6557.375786120238,-2462.665821036161,4.267778684458813,4.291457241886165,-6.238214487132291,6759053.075824806,1.4695969092745076,-0.04912817651751537,1.4520093599208042,0.061611810930046286,-2.248455857870924,-0.7352454540530172,-2.2153252567154547,-1.958561461497245E-5,-0.0011343429011884318,-1.5946703607465804E-4,404878.16198423994,3.946936842130149E-12,1067.5317890646616,4.267778684458813,4.291457241886165,-6.238214487132291
6180.0,-4019701.4764146167,2752179.0381028214,4698933.505007747,-3130911.411348177,-3729024.2089533005,4701514.403368003,3360.726344046144,-6284.728713928644,-2831.266446431144,4.024695716322997,4.793552352021529,-6.043660261635493,6759053.075824831,1.4739721785212876,-0.0672360698803677,1.452141572841949,0.04412983282029318,-2.2997893442744215,-0.6990083527484349,-2.1390389677468264,-1.958561461497245E-5,-0.0011080971281230425,-1.5921331932023915E-4,400683.58462132886,4.386964594536814E-12,1077.0581114213562,4.024695716322997,4.793552352021529,-6.043660261635493
