time,gePosition_m_X,gePosition_m_Y,gePosition_m_Z,eiPosition_m_X,eiPosition_m_Y,eiPosition_m_Z,eiVelocity_m_s_X,eiVelocity_m_s_Y,eiVelocity_m_s_Z,eiAccel_m_s2_X,eiAccel_m_s2_Y,eiAccel_m_s2_Z,semiMajorAxis_m,gast_rad,eulerAngle_rad_Roll,eulerAngle_rad_Pitch,eulerAngle_rad_Yaw,eulerAngleWrtEi_rad_Roll,eulerAngleWrtEi_rad_Pitch,eulerAngleWrtEi_rad_Yaw,bodyAngularRateWrtEi_rad_s_Roll,bodyAngularRateWrtEi_rad_s_Pitch,bodyAngularRateWrtEi_rad_s_Yaw,altitudeMsl_m,airDensity_kg_m3,ambientTemperature_dgK,eiGravitation_m_s2_X,eiGravitation_m_s2_Y,eiGravitation_m_s2_Z
0.0,-1436381.46529,4185811.71036,5163944.67155,-4315967.74,960356.2,5167269.53,129.091037,-7491.513855,1452.515654,5.46941408349,-1.21701227671,-6.54822705894,6759053.07579,1.02334780893,0.1968951984172613,1.481806032846006,0.1976572363801104,-1.3731447128742889,-0.8677376710085247,3.059772528969102,-1.9585614615013217E-5,-9.475261846067414E-4,0.0,434989.540812,1.61790350067E-12,978.31253865,5.46941408349,-1.21701227671,-6.54822705894
60.0,-1794950.03461,3943126.0299,5239239.62072,-4298383.75497,509016.725548,5242568.01442,456.873453274,-7547.42173401,1056.41305958,5.45257924199,-0.645697124725,-6.65029442685,6759053.07579,1.02772307802,0.22272051018149247,1.4926347713686812,0.2235756433137472,-1.4404869267980738,-0.8770803144763175,-3.1370410106377937,-1.9585614615013217E-5,-9.296916629843123E-4,-4.8401181625547135E-6,433093.864999,1.72931058094E-12,985.41174162,5.45257924199,-0.645697124725,-6.65029442685
120.0,-2147547.17171,3685627.21378,5290617.60031,-4261177.84166,55353.9685753,5293934.33528,782.91011309,-7568.91571403,655.073376703,5.41122605044,-0.0702934371387,-6.72271293264,6759053.07579,1.03209834711,0.25680964203201617,1.5044738028953422,0.2577743698456482,-1.5082276613964012,-0.8828425695395306,-3.0506930806673087,-1.9585614615013217E-5,-9.14339434230724E-4,-9.608327220302512E-6,430905.280808,1.86248837629E-12,993.229374722,5.41122605044,-0.0702934371387,-6.72271293264
180.0,-2492684.25219,3414408.9038,5317818.00015,-4204498.84972,-398561.363029,5321107.91929,1105.73160266,-7555.82484025,250.289448679,5.3454273793,0.506714568946,-6.7650383498,6759053.07579,1.0364736162,0.3058822535872533,1.5171327000787618,0.3069919132836622,-1.5758017561919173,-0.8851280699483364,-2.9648454869562064,-1.9585614615013217E-5,-9.016929712144636E-4,-1.4247879304244469E-5,428429.879583,2.0200445447E-12,1001.71491968,5.3454273793,0.506714568946,-6.7650383498
240.0,-2828892.49297,3130615.64088,5320688.44124,-4128583.60235,-850652.79475,5323936.49263,1423.8758901,-7508.12814382,-156.122774235,5.25535668535,1.08281296502,-6.77694529983,6759053.07579,1.04084888529,0.3858328106898765,1.5303517630976544,0.38714094311667924,-1.6426858052853586,-0.8840484179700284,-2.8799315529222147,-1.9585614615013217E-5,-8.919428978173045E-4,-1.8703967162804875E-5,425676.596117,2.20464493186E-12,1010.78109632,5.25535668535,1.08281296502,-6.77694529983
300.0,-3154729.04304,2835438.4175,5299185.94612,-4033756.27142,-1298847.13302,5302377.25117,1735.89440574,-7425.95617001,-562.331476725,5.14128947641,1.65546667848,-6.75823092103,6759053.07579,1.04522415437,0.5440146397097717,1.5436600381831846,0.5455920784629936,-1.7084132826528693,-0.879715347944455,-2.7963263854437574,-1.9585614615013217E-5,-8.852432896635773E-4,-2.2924853420313262E-5,422657.223054,2.41895697489E-12,1020.30840998,5.14128947641,1.65546667848,-6.75823092103
360.0,-3468783.08035,2530110.05102,5253377.66861,-3920427.38526,-1741083.58876,5256497.58981,2040.35820271,-7309.59197714,-966.496434168,5.00360451249,2.22212857049,-6.70881831892,6759053.07579,1.04959942346,0.9739959406880548,1.5554957071672353,0.9759296395947029,-1.7725826878192745,-0.8722338050744061,-2.714338886034182,-1.9585614615013217E-5,-8.817084641088651E-4,-2.6862983574358554E-5,419386.386708,2.66562931551E-12,1030.15596761,5.00360451249,2.22212857049,-6.70881831892
420.0,-3769681.89227,2215900.38876,5183441.17035,-3789092.46489,-2175322.94418,5186475.37826,2335.86418043,-7159.47157517,-1366.77666754,4.84278469881,2.780249035,-6.62875974534,6759053.07579,1.05397469255,2.0809317728328764,1.558101310830694,2.083323388553345,-1.8348591600886723,-0.8616965696212755,-2.634210335152843,-1.9585614615013217E-5,-8.81410422072521E-4,-3.047603969732714E-5,415881.483384,2.94730746813E-12,1040.17567346,4.84278469881,2.780249035,-6.62875974534
480.0,-4056096.91578,1894111.35661,5089664.23286,-3640330.28535,-2599556.72836,5092598.77217,2621.04135142,-6976.18377267,-1761.33827946,4.65941762361,3.32728612084,-6.51823944782,6759053.07579,1.05834996164,2.7226424811862713,1.5478279567215034,2.725606729032157,-1.8949709511886363,-0.8481807966990627,-2.5561181239110295,-1.9585614615013217E-5,-8.843770784815012E-4,-3.372789103041631E-5,412162.575825,3.26666590153E-12,1050.22576068,4.65941762361,3.32728612084,-6.51823944782
540.0,-4326749.71204,1566071.86402,4972444.19482,-3474800.76039,-3011816.36507,4975265.54902,2894.55712843,-6760.469401,-2148.3624498,4.45419569214,3.86071616874,-6.37757612705,6759053.07579,1.06272523073,2.934167986188481,1.5344604966344106,2.937830788610989,-1.9527025862952803,-0.8317465664572871,-2.480182765181743,-1.9585614615013217E-5,-8.905913778125488E-4,-3.658940064357315E-5,408252.249936,3.62642665043E-12,1060.18042342,4.45419569214,3.86071616874,-6.37757612705
600.0,-4580417.84864,1233132.57931,4832286.8057,-3293242.44988,-3410182.25456,4834981.96025,3155.12360624,-6513.21988518,-2526.05356531,4.22791580717,4.37804494471,-6.20722493659,6759053.07579,1.06710049981,3.030816887487321,1.5207570193246949,3.035313336234321,-2.0078865128753884,-0.8124373026126894,-2.406476345269335,-1.9585614615013217E-5,-8.999913404551205E-4,-3.9039053961719435E-5,404175.432484,4.02933770337E-12,1069.93433334,4.22791580717,4.37804494471,-6.20722493659
660.0,-4815940.66127,896660.590704,4669804.5887,-3096469.69121,-3792792.74939,4672361.09222,3401.50380953,-6235.4751326,-2892.64745382,3.98147854685,4.87681923941,-6.00777895699,6759053.07579,1.0714757689,3.0859627501294122,1.507375798895973,3.0914349049838274,-2.0603946835568445,-0.7902817502685563,-2.3350309313699515,-1.9585614615013217E-5,-9.124710300566337E-4,-4.106338456749323E-5,399959.171112,4.47809600146E-12,1079.40272871,3.98147854685,4.87681923941,-6.00777895699
720.0,-5032224.8657,558033.969581,4485714.70755,-2885369.35763,-4157852.98233,4488120.73091,3632.51787503,-5928.42071291,-3246.41968936,3.71588679137,5.35463889108,-5.77997007488,6759053.07579,1.07585103799,3.1218520614272975,1.4946342817510092,3.128446610785226,-2.1101310188718974,-0.7652971143971979,-2.265845952848193,-1.9585614615013217E-5,-9.27882377920369E-4,-4.265718427553542E-5,395632.378601,4.97521200478E-12,1088.51872962,3.71588679137,5.35463889108,-5.77997007488
780.0,-5228249.98959,218636.253829,4280836.33417,-2660897.24845,-4503643.50324,4283080.727,3847.04913363,-5593.38430506,-3585.69393051,3.43224375272,5.80916917685,-5.52466919803,6759053.07579,1.08022630708,-3.135915342786722,1.482757459205212,-3.1280495313983434,-2.1570251980214543,-0.7374929400262696,-2.1988940753347,-1.9585614615013217E-5,-9.460377541198059E-4,-4.382349674982058E-5,391225.543994,5.52282073613E-12,1097.22954879,3.43224375272,5.80916917685,-5.52466919803
840.0,-5403073.59288,-120149.129324,4056087.51628,-2424074.11829,-4828528.68027,4058159.86081,4044.05005535,-5231.83139154,-3908.85024995,3.13175036477,6.23815350432,-5.24288573872,6759053.07579,1.08460157617,-3.1168374069546343,1.4719304362382175,-3.107551815144534,-2.201027826198009,-0.7068753469346276,-2.1341254902043993,-1.9585614615013217E-5,-9.667131413292517E-4,-4.457340554057522E-5,386770.413852,6.1224476576E-12,1105.49276648,3.13175036477,6.23815350432,-5.24288573872
900.0,-5555836.24484,-456944.480378,3812481.54702,-2175981.35466,-5130964.8197,3814372.20879,4222.54801744,-4845.36018411,-4214.33340949,2.81570199584,6.6394263225,-4.93576630063,6759053.07579,1.08897684525,-3.1019067234859743,1.4623127988697586,-3.0910557540379004,-2.242106762761959,-0.6734512964674769,-2.0714708107060544,-1.9585614615013217E-5,-9.89651749987153E-4,-4.4925637184014015E-5,382299.647578,6.77474051576E-12,1113.27333253,2.81570199584,6.6394263225,-4.93576630063
960.0,-5685766.22542,-790383.462502,3551122.84112,-1917756.31589,-5409507.95802,3552823.01637,4381.65085415,-4435.69577058,-4500.66103092,2.4854844516,7.01092615838,-4.60459250912,6759053.07579,1.09335211434,-3.089851409868288,1.454042806409113,-3.0772949641385337,-2.2802442652197286,-0.6372326485140761,-2.010842897471942,-1.9585614615013217E-5,-0.0010145679134241832,-4.490600699747046E-5,377846.4514,7.47917593203E-12,1120.54132281,2.4854844516,7.01092615838,-4.60459250912
1020.0,-5792183.91829,-1119116.73102,3273202.32557,-1650587.3436,-5662821.27932,3274704.08507,4520.5521448,-4004.68347826,-4766.43160951,2.14256924321,7.35070867344,-4.25077793096,6759053.07579,1.09772738343,-3.07988112963378,1.4472383244871772,-3.065487148418956,-2.3154345827986984,-0.5982398490219272,-1.9521379607456337,-1.9585614615013217E-5,-0.0010411511182717972,-4.4546738969965924E-5,373444.196214,8.23375872327E-12,1127.27057955,2.14256924321,7.35070867344,-4.25077793096
1080.0,-5874505.86327,-1441817.53295,2979992.3559,-1375708.46692,-5889682.11101,2981288.68486,4638.53619534,-3554.28145632,-5010.33231432,1.78850810379,7.65695962306,-3.87586403722,6759053.07579,1.10210265252,-3.071476365529121,1.4419966300804987,-3.05512328799073,-2.3476816819166735,-0.556505162639765,-1.8952362367494433,-1.9585614615013217E-5,-0.0010690700556349718,-4.388569163014656E-5,369126.025053,9.03472926469E-12,1133.43790615,1.78850810379,7.65695962306,-3.87586403722
1140.0,-5932248.43619,-1757187.2509,2672841.17243,-1094393.81814,-6088988.45127,2673926.00637,4734.98266817,-3086.55248662,-5231.14651659,1.42492674576,7.92800759199,-3.4815151726,6759053.07579,1.10647792161,-3.0642785713721215,1.4383938563272791,-3.04585766506856,-2.376996871504355,-0.5120754255573198,-1.8400024495683576,-1.9585614615013217E-5,-0.0010979766181126117,-4.296551937962396E-5,364924.456417,9.87630264167E-12,1139.02268004,1.42492674576,7.92800759199,-3.4815151726
1200.0,-5965031.12518,-2063960.8648,2353166.91479,-807951.782221,-6259764.98247,2354035.17104,4809.37081475,-2603.65504054,-5427.76098574,1.05351786143,8.16233637022,-3.06951250521,6759053.07579,1.11085319069,-3.0580288259974515,1.4364843867515136,-3.037446339311312,-2.403396186809152,-0.4650143376008442,-1.7862861736200173,-1.9585614615013217E-5,-0.0011275098113090432,-4.183279420559641E-5,360870.990095,1.07504659866E-11,1144.00668727,1.05351786143,8.16233637022,-3.06951250521
1260.0,-5972579.37343,-2360912.30404,2022451.21642,-517718.905445,-6401168.52591,2023098.82109,4861.28326571,-2107.83360755,-5599.1726915,0.676033380941,8.35859682742,-2.64174694339,6759053.07579,1.11522845978,-3.052531376382894,1.436300335114733,-3.029710464613965,-2.426897469424437,-0.4154043406070694,-1.7339221276850987,-1.9585614615013217E-5,-0.0011572995905738542,-4.053710685146853E-5,356995.722332,1.16468626054E-11,1148.37400724,0.676033380941,8.35859682742,-2.64174694339
1320.0,-5954726.96024,-2646859.66204,1682232.4044,-225053.590989,-6512492.89535,1682656.31463,4890.4093349,-1601.40833006,-5744.49514997,0.29427601265,8.51561813893,-2.20021101976,6759053.07579,1.11960372887,-3.047630515544865,1.437851176373114,-3.02251289385911,-2.447517137470497,-0.3633481440888078,-1.6827303657398704,-1.9585614615013217E-5,-0.0011869706692579627,-3.913016041448719E-5,353326.977325,1.25527894343E-11,1152.1107562,0.29427601265,8.51561813893,-2.20021101976
1380.0,-5911417.89408,-2920670.24494,1334098.33399,68670.3880714,-6593173.10883,1334296.55535,4896.54779513,-1086.76398782,-5862.9642521,-0.089909896044,8.63241821494,-1.7469897572,6759053.07579,1.12397899796,-3.043194640002898,1.4411235648054452,-3.015741919604167,-2.465266671408992,-0.30896996256169185,-1.6325162890879752,-1.9585614615013217E-5,-0.0012161463693148634,-3.766486386274326E-5,349890.961953,1.34533530949E-11,1155.20522554,-0.089909896044,8.63241821494,-1.7469897572
1440.0,-5842707.79365,-3181265.4259,979678.890618,362070.525485,-6642788.92137,979650.489396,4879.60908652,-566.338384237,-5953.94351428,-0.47464812762,8.70821318438,-1.2842505473,6759053.07579,1.12835426705,-3.0391037870815847,1.4460813638373116,-3.009298455231443,-2.480148851305075,-0.2524165255138523,-1.583070382597548,-1.9585614615013217E-5,-0.0012444525955008546,-3.619442889482798E-5,346711.450415,1.43318190858E-11,1157.64867445,-0.47464812762,8.70821318438,-1.2842505473
1500.0,-5748764.736,-3427625.27674,620638.195746,653762.333106,-6661067.64437,620383.306138,4839.61692122,-42.6101956251,-6016.92869314,-0.85804093063,8.7424257886,-0.814232087702,6759053.07579,1.13272953613,-3.0352378826138846,1.4526659081912963,-3.0030838942982294,-2.492153775417207,-0.19385791442219383,-1.5341675735894216,-1.9585614615013217E-5,-0.0012715220089721535,-3.477147140436598E-5,343809.50501,1.51701321286E-11,1159.43578558,-0.85804093063,8.7424257886,-0.814232087702
1560.0,-5629869.55341,-3658792.94917,258666.556372,942366.16955,-6647886.22158,258186.382422,4776.70925287,481.91364696,-6051.55170992,-1.23817984887,8.7346925464,-0.339232440952,6759053.07579,1.13710480522,-3.031462744884052,1.4607965175914812,-2.996985701569737,-2.5012546755782905,-0.1334882747671434,-1.4855661181722004,-1.9585614615013217E-5,-0.001296998454609248,-3.3447118804142177E-5,341203.238719,1.59495931367E-11,1160.56478921,-1.23817984887,8.7346925464,-0.339232440952
1620.0,-5486415.56481,-3873878.77828,-104527.798867,1226514.10726,-6603272.53591,-105230.986633,4691.13858358,1004.71096567,-6057.58383388,-1.61315695787,8.68486956074,0.138403706297,6759053.07579,1.14148007431,-3.027609246251582,1.4703712789187924,-2.990856146077437,-2.507403528024212,-0.07152644723865337,-1.4370059343830135,-1.9585614615013217E-5,-0.0013205416605044048,-3.227012650779682E-5,338907.624413,1.66516624802E-11,1161.03736011,-1.61315695787,8.68486956074,0.138403706297
1680.0,-5318907.73071,-4072064.08257,-467227.151208,1504856.79758,-6527405.92614,-468150.024467,4583.27158689,1523.2576485,-6034.93807966,-1.98107641259,8.59303685006,0.616298489342,6759053.07579,1.1458553434,-3.0234362947003173,1.4812681070098987,-2.984474848849139,-2.5105264463354837,-0.008216562706010627,-1.3882063224419354,-1.9585614615013217E-5,-0.001341832181228038,-3.12860106278981E-5,336934.354625,1.72588401533E-11,1160.8583641,-1.98107641259,8.59303685006,0.616298489342
1740.0,-5127961.22508,-4252604.63566,-827712.842534,1776070.29225,-6420616.89804,-828851.029179,4453.58803118,2035.04117495,-5983.67077935,-2.3400662012,8.45950110172,1.09205490778,6759053.07579,1.15023061249,-3.018555083407326,1.4933460770834535,-2.977472603929714,-2.510518842808598,0.056171348944910465,-1.338863042098669,-1.9585614615013217E-5,-0.0013605765034054645,-3.0536208761773026E-5,335291.754697,1.77555586388E-11,1160.03552918,-2.3400662012,8.45950110172,1.09205490778
1800.0,-4914299.42181,-4414833.78684,-1184273.89493,2038862.7791,-6283386.01996,-1185621.99837,4302.67899439,2537.57425735,-5903.98229722,-2.68828999194,8.28479676321,1.56327134181,6759053.07579,1.15460588158,-3.0122511347034338,1.5064469749729499,-2.9691530098679704,-2.5072403651162376,0.1213406761383285,-1.2886447613081435,-1.9585614615013217E-5,-0.0013765121791927452,-3.0057285838772482E-5,333984.750972,1.81290159625E-11,1158.57911406,-2.68828999194,8.28479676321,1.56327134181
1860.0,-4678751.29767,-4558165.2095,-1535215.64684,2291981.18932,-6116341.99901,-1536767.27052,4131.24436819,3028.40849621,-5796.21686253,-3.0239589542,8.06968540626,2.02755640835,6759053.07579,1.15898115066,-3.0029895161774336,1.52039685575985,-2.957997300207819,-2.500509667248484,0.18696739670247492,-1.2371889605239543,-1.9585614615013217E-5,-0.0013894128070484361,-2.988020647575093E-5,333014.894418,1.83698766295E-11,1156.5016412,-3.0239589542,8.06968540626,2.02755640835
1920.0,-4422248.25862,-4682095.25886,-1878868.35241,2534217.63371,-5920258.94013,-1880616.12945,3940.08965667,3505.14794438,-5660.86150438,-3.34534343127,7.81515332121,2.48254401346,6759053.07579,1.16335641975,-2.9866586563662607,1.5350066860320584,-2.9399078104965684,-2.49009917790583,0.2526990195009758,-1.184097491060563,-1.9585614615013217E-5,-0.0013990926464591796,-3.0029698303993605E-5,332380.438837,1.84727775671E-11,1153.81774951,-3.34534343127,7.81515332121,2.48254401346
1980.0,-4145820.40067,-4786204.92279,-2213595.68989,2764415.62604,-5696052.79669,-2215531.31771,3730.12208223,3965.46247332,-5498.54408123,-3.65078433973,7.52240732274,2.92590844975,6759053.07579,1.16773168884,-2.947028342086628,1.5500657477052306,-2.898665673273172,-2.4757302094233955,0.31815321115472067,-1.1289321718928869,-1.9585614615013217E-5,-0.0014054106394627889,-3.052373158219583E-5,332076.471525,1.8436594037E-11,1150.54420514,-3.65078433973,7.52240732274,2.92590844975
2040.0,-3850592.22128,-4870161.3526,-2537803.12491,2981476.05246,-5444777.02776,-2539917.40465,3502.34601885,4407.10083406,-5310.03040723,-3.93870417168,7.1928687723,3.35537938303,6759053.07579,1.17210695793,-2.6902540919581206,1.5651822694466313,-2.6404349434229615,-2.4570690466975114,0.38291604036717164,-1.071211106411181,-1.9585614615013217E-5,-0.0014082736203628488,-3.1373138710671814E-5,332095.093073,1.826444434E-11,1146.7000883,-3.93870417168,7.1928687723,3.35537938303
2100.0,-3537777.80187,-4933718.96329,-2849946.07462,3184362.84734,-5167617.48352,-2852228.9552,3257.85778014,4827.9033068,-5096.22048649,-4.20761747786,6.82816584821,3.76875657018,6759053.07579,1.17648222702,-0.08479945693679977,1.5604619235782544,-0.033684711726442704,-2.433725117330173,0.44653982844160833,-1.0104068607039638,-1.9585614615013217E-5,-0.0014076385268252578,-3.258139291994028E-5,332425.641892,1.79634385026E-11,1142.307153,-4.20761747786,6.82816584821,3.76875657018
2160.0,-3208675.48644,-4976720.09638,-3148537.81989,3372108.33799,-4865886.54667,-3150978.44646,2997.83979695,5225.8138354,-4858.14387639,-4.45614071542,6.43012411936,4.1639241511,6759053.07579,1.1808574961,0.026726003007086437,1.5452847102147214,0.078973039648354,-2.4052530293009395,0.5085407159151593,-0.9459483259011214,-1.9585614615013217E-5,-0.0014035134778703686,-3.4144558800065014E-5,333054.958087,1.75442010788E-11,1137.39033624,-4.45614071542,6.43012411936,4.1639241511
2220.0,-2864662.08548,-4999095.24134,-3432157.11416,3543818.22264,-4541016.56366,-3434743.88065,2723.55422592,5598.8915474,-4596.9542099,-4.68300135086,6.00075550322,4.5388643611,6759053.07579,1.18523276519,0.05427376478768341,1.530376537042822,0.1074905347967868,-2.371161210364189,0.5683962792034979,-0.8772290304161722,-1.9585614615013217E-5,-0.0013959576521362733,-3.6051419117150915E-5,333967.680488,1.70202181435E-11,1131.97837515,-4.68300135086,6.00075550322,4.5388643611
2280.0,-2507186.63844,-5000862.81521,-3699455.43968,3698676.14909,-4194552.6056,-3702176.04521,2436.33603669,5945.32156562,-4313.92291635,-4.88704611809,5.54224571226,4.89167051695,6759053.07579,1.18960803428,0.06627554438652783,1.516003994792795,0.12030338753984754,-2.3309310623918815,0.625543904074408,-0.803625841536665,-1.9585614615013217E-5,-0.001385079975077046,-3.828377348909546E-5,335146.570036,1.64070709884E-11,1126.1044755,-4.88704611809,5.54224571226,4.89167051695
2340.0,-2137763.77156,-4982128.50339,-3949163.86436,3835947.86426,-3828144.60383,-3952005.37318,2137.58563129,6263.42502421,-4010.43218819,-5.06724834292,5.05694031478,5.22055913873,6759053.07579,1.19398330337,0.07259044267353669,1.5023688983225285,0.12727765849515865,-2.2840517292223814,0.6793811854154478,-0.7245331759893661,-1.9585614615013217E-5,-0.0013710366980252647,-4.081689601685269E-5,336572.852288,1.57216228739E-11,1119.80695984,-5.06724834292,5.05694031478,5.22055913873
2400.0,-1757966.69114,-4943084.16797,-4180099.45578,3954984.90837,-3443538.91046,-4183048.36043,1828.76105392,6551.66821047,-3687.96724962,-5.22271425802,4.54732955557,5.52388108175,6759053.07579,1.19835857246,0.07611105375805717,1.4896554824707784,0.13131580719714414,-2.2300761577181336,0.7292703742456187,-0.639418415290692,-1.9585614615013217E-5,-0.0013540280162919532,-4.362013186048629E-5,338226.571559,1.49812208898E-11,1113.12980628,-5.22271425802,4.54732955557,5.52388108175
2460.0,-1369419.85535,-4884006.3332,-4391171.21226,4055227.83087,-3042569.33836,-4394213.49952,1511.36985379,6808.67076269,-3348.10798978,-5.3526882467,4.01603209892,5.80013156679,6759053.07579,1.20273384154,0.07798502214687165,1.4780328746179967,0.13357802990484646,-2.168702882341069,0.7745497129115257,-0.5479029684626623,-1.9585614615013217E-5,-0.0013342939207667875,-4.665760781838407E-5,340086.949208,1.42029642211E-11,1106.12296679,-5.3526882467,4.01603209892,5.80013156679
2520.0,-973791.369751,-4805254.26115,-4581385.47492,4136208.90944,-2627147.73915,-4584506.69429,1186.96066657,7033.2128646,-2992.52002966,-5.45655696921,3.46577787028,6.04795901291,6759053.07579,1.20710911063,0.07875074884948126,1.4676539054172335,0.134617689327691,-2.099883013835751,0.8145550312976145,-0.44986847113956574,-1.9585614615013217E-5,-0.0013121095029911332,-4.9889029614604256E-5,342132.738713,1.34030754251E-11,1098.84232518,-5.45655696921,3.46577787028,6.04795901291
2580.0,-572785.153879,-4707267.63332,-4749850.78901,4197554.35713,-2199254.18077,-4753036.12329,857.114582639,7224.24138794,-2622.94529694,-5.53385234125,2.89939018337,6.26617259505,6759053.07579,1.21148437972,0.07868638148854575,1.458653464069154,0.13472997895049876,-2.0239414490821637,0.8486545300356306,-0.3455771443214076,-1.9585614615013217E-5,-0.00128777993597858,-5.327053892186067E-5,344342.570476,1.25963955879E-11,1091.34912753,-5.53385234125,2.89939018337,6.26617259505
2640.0,-168132.927473,-4590563.85722,-4895782.18731,4238986.00693,-1760926.78911,-4899016.52483,523.436371451,7380.87494608,-2241.19218712,-5.58425335072,2.31976734681,6.45374846704,6759053.07579,1.21585964881,0.07794162881666253,1.4511469602296905,0.13408337127389772,-1.9416856956383364,0.8762973315169923,-0.23577971038888568,-1.9585614615013217E-5,-0.0012616353336094305,-5.675560579182808E-5,346695.279831,1.17960102269E-11,1083.70870943,-5.58425335072,2.31976734681,6.45374846704
2700.0,238413.934224,-4455735.01921,-5018504.87327,4260322.46716,-1314251.31974,-5021772.88145,187.545631709,7502.40783335,-1849.12539243,-5.60758671499,1.72986394752,6.60983461059,6759053.07579,1.2202349179,0.07659471317094067,1.4452290318485508,0.13277617339079886,-1.8544606388283684,0.8970715732380291,-0.12176919804323415,-1.9585614615013217E-5,-0.0012340256543879654,-6.0295936530389445E-5,349170.212256,1.10130028406E-11,1075.98838947,-5.60758671499,1.72986394752,6.60983461059
2760.0,645092.626255,-4303444.50744,-5117457.28626,4261479.74551,-861350.526996,-5120743.48606,-148.932063516,7588.31283656,-1448.65548146,-5.60382639698,1.13267200796,6.7337542903,6759053.07579,1.22461018698,0.07467906762963272,1.440972535278078,0.13086280717496845,-1.7641053144747143,0.9107614430096918,-0.005336702570198621,-1.9585614615013217E-5,-0.0012053157667718205,-6.384238230033668E-5,351747.500551,1.02563282286E-11,1068.25453652,-5.60382639698,1.13267200796,6.7337542903
2820.0,1050137.17125,-4134423.33074,-5192193.5368,4242471.3432,-404373.398384,-5195482.37767,-484.373959199,7638.2429171,-1041.72831349,-5.57309201318,0.531202210826,6.82500811467,6759053.07579,1.22898545607,0.07219604674032767,1.4384278207574086,0.12836609371324936,-1.6727906314690422,0.9173877396641131,0.11139194917965527,-1.9585614615013217E-5,-0.001175880739961252,-6.734583898852374E-5,354408.309484,9.53279747709E-12,1060.56906823,-5.57309201318,0.531202210826,6.82500811467
2880.0,1451786.6593,-3949466.16093,-5242385.20403,4203407.82517,54515.6783473,-5245661.13888,-817.168783163,7652.03177315,-630.314370399,-5.51564618127,-0.071534622764,6.88327472194,6759053.07579,1.23336072516,0.06912015109622076,1.4376222840461146,0.12528205284930313,-1.582763174561466,0.917217484677046,0.22621349262105073,-1.9585614615013217E-5,-0.001146101372796688,-7.075813327514496E-5,357135.044295,8.84716777566E-12,1052.98594874,-5.51564618127,-0.071534622764,6.88327472194
2940.0,1848293.42267,-3749427.12758,-5267822.49316,4144495.87575,513147.748719,-5271070.0531,-1145.7252214,7629.69330268,-216.398087947,-5.43189086714,-0.672545625168,6.90841012752,6759053.07579,1.23773599425,0.06539933578117083,1.4385601809969317,0.12157979790883992,-1.4960653624378735,0.9107365555360922,0.33712819335304756,-1.9585614615013217E-5,-0.001116359930203854,-7.403289274058095E-5,359911.520269,8.20232848813E-12,1045.5484784,-5.43189086714,-0.672545625168,6.90841012752
3000.0,2237931.09915,-3535215.39525,-5268414.75509,4066036.85298,969360.060599,-5271618.62336,-1468.48014593,7571.41999793,198.03273503,-5.32236280272,-1.26887338102,6.9004457868,6759053.07579,1.24211126334,0.06095102966009248,1.441222691548257,0.11719716172579148,-1.4143145816560097,0.8985917048766973,0.4425618566357101,-1.9585614615013217E-5,-0.0010870360261348575,-7.712639877097766E-5,362723.091517,7.59956698499E-12,1038.28812062,-5.32236280272,-1.26887338102,6.9004457868
3060.0,2619002.53985,-3307790.55367,-5244190.37524,3968424.85797,1421006.70587,-5247335.46012,-1783.90654191,7477.58031148,610.997374296,-5.18772805519,-1.85761268475,6.85958544151,6759053.07579,1.24648653242,0.055653109652377235,1.445568220501976,0.11203130604208586,-1.3385939385376209,0.881517707768819,0.5414762207261048,-1.9585614615013217E-5,-0.0010585025769263218,-7.999841984283387E-5,365556.737966,7.03888547715E-12,1031.22520936,-5.18772805519,-1.85761268475,6.85958544151
3120.0,2989847.51966,-3068157.85218,-5195296.04281,3852144.33894,1865969.07438,-5198367.549,-2090.52108555,7348.71504243,1020.5323942,-5.02877583577,-2.43592642589,6.78620083147,6759053.07579,1.25086180151,0.049327466775710455,1.4515329219669761,0.10592195756974201,-1.2694575247360504,0.8602670153993751,0.6333648199203593,-1.9585614615013217E-5,-0.001031121750651992,-8.261301961777532E-5,368401.110435,6.51933050856E-12,1024.37127668,-5.02877583577,-2.43592642589,6.78620083147
3180.0,3348850.21116,-2817363.30924,-5121995.41597,3717767.25214,2302166.06313,-5124978.9142,-2386.8913301,7185.53279856,1424.70157259,-4.84641164172,-3.00106048949,6.68082636401,6759053.07579,1.2552370706,0.041711098833105524,1.4590314287060615,0.09862221052232638,-1.207015513315591,0.8355540732205067,0.7181689796733575,-1.9585614615013217E-5,-0.0010052408555057551,-8.493932958759721E-5,371246.534488,6.03929708197E-12,1017.73225072,-4.84641164172,-3.00106048949,6.68082636401
3240.0,3694446.38566,-2556488.72799,-5024667.202,3565949.80423,2727563.98684,-5027548.69645,-2671.64246284,6988.90459627,1821.60547721,-4.64164982897,-3.55035757879,6.54415284235,6759053.07579,1.25961233969,0.03240417477374713,1.4679577502282815,0.08974634396894642,-1.1510536219869658,0.8080188819427656,0.7961593850535602,-1.9585614615013217E-5,-9.811881411799935E-4,-8.695227048900629E-5,374084.974545,5.59678072794E-12,1011.31164377,-4.64164982897,-3.55035757879,6.54415284235
3300.0,4025130.30821,-2286646.64772,-4903802.67502,3397428.80301,3140186.14053,-4906568.66827,-2943.46360173,6759.85766546,2209.39064011,-4.4156057145,-4.08126988692,6.37702036051,6759053.07579,1.26398760878,0.02077203296829662,1.4781862578405427,0.0786716180250378,-1.1011511923490696,0.7782084185401338,0.8678189521192727,-1.9585614615013217E-5,-9.592685275736677E-4,-8.86332011847482E-5,376909.960475,5.18956737259E-12,1005.11307205,-4.4156057145,-4.08126988692,6.37702036051
3360.0,4339461.29657,-2008975.26081,-4760002.6568,3213017.64477,3538121.96808,-4762640.21201,-3201.11360661,6499.56853001,2586.2582837,-4.16948730724,-4.59137056448,6.1804104765,6759053.07579,1.26836287786,0.005746670339790388,1.4895725567711826,0.06433960618789186,-1.0567786022000953,0.7465716118904204,0.9337462657347113,-1.9585614615013217E-5,-9.397593200142387E-4,-8.9970469172393E-5,379716.479529,4.81536504639E-12,999.141821614,-4.16948730724,-4.59137056448,6.1804104765
3420.0,4636069.91756,-1724633.32314,-4593973.9887,3013601.968,3919535.79589,-4596470.78875,-3443.4263856,6209.35543712,2950.47255823,-3.9045867647,-5.07836394948,5.95543777733,6759053.07579,1.27273814695,-0.014615560571242327,1.5019537114500894,0.0448137800733426,-1.017368378021464,0.7134631163429105,0.9945852018993564,-1.9585614615013217E-5,-9.229060138753542E-4,-9.095983421623635E-5,382500.8371,4.47188921313E-12,993.405495471,-3.9045867647,-5.07836394948,5.95543777733
3480.0,4913663.79742,-1434795.08476,-4406525.52516,2800135.00424,4282675.09454,-4408869.92844,-3669.3156829,5890.67021055,3300.36825786,-3.62227166888,-5.54009454489,5.70334094941,6759053.07579,1.27711341604,-0.04425550029336864,1.5151461943349311,0.016157891132375937,-0.982362243150011,0.6791519639158606,1.0509784908773385,-1.9585614615013217E-5,-9.089183279443686E-4,-9.160473656129588E-5,385260.490297,4.15691511046E-12,987.913952513,-3.62227166888,-5.54009454489,5.70334094941
3540.0,5171033.0263,-1140645.26632,-4198563.68078,2573632.65745,4625878.23626,-4200744.7735,-3877.77934009,5545.08960263,3634.35798889,-3.32397621037,-5.97455474653,5.4254734655,6759053.07579,1.28148868513,-0.0925292394911828,1.5289354759803548,-0.030982115639332244,-0.9512393916650628,0.6438323657046532,1.1035399316465033,-1.9585614615013217E-5,-8.979666303615348E-4,-9.191638424270882E-5,387993.858759,3.86830849711E-12,982.678793087,-3.32397621037,-5.97455474653,5.4254734655
3600.0,5407055.14017,-843374.104545,-3971087.5644,2335168.34355,4947581.72038,-3973095.2091,-4067.90302771,5174.30621967,3950.93877037,-3.01119236341,-6.37989134055,5.12329399539,6759053.07579,1.28586395422,-0.18804571412873305,1.5430261993034518,-0.12521568839938527,-0.9235315217627514,0.6076349887089103,1.1528397346704773,-1.9585614615013217E-5,-8.901789289463176E-4,-9.191364018841136E-5,390700.117498,3.60404302282E-12,977.712612646,-3.01119236341,-6.37989134055,5.12329399539
3660.0,5620699.6667,-544172.488993,-3725183.73478,2085867.62197,5246326.84327,-3727008.61497,-4238.86344901,4780.11909369,4248.69805362,-2.68546112793,-6.75441080423,4.79835664237,6759053.07579,1.2902392233,-0.4705749888862893,1.5566765508641878,-0.40631590846031584,-0.898829208185242,0.5706378013887521,1.199398435474799,-1.9585614615013217E-5,-8.856385877342638E-4,-9.162269878798597E-5,393378.976818,3.36220951557E-12,973.028183925,-2.68546112793,-6.75441080423,4.79835664237
3720.0,5811032.22481,-244227.209725,-3462020.61283,1826902.6506,5520765.79381,-3463654.27352,-4389.93102205,4364.42397074,4526.31915317,-2.34836390665,-7.09658345672,4.45230110012,6759053.07579,1.29461449239,-1.8581964248289957,1.5630056028010273,-1.7923675821803184,-0.8767829710516398,0.5328760729510407,1.2436860552971392,-1.9585614615013217E-5,-8.843829032124471E-4,-9.107655253365576E-5,396030.45451,3.14102032076E-12,968.637667816,-2.34836390665,-7.09658345672,4.45230110012
3780.0,5977218.17013,55283.6658695,-3182842.58594,1559486.49531,5769667.15933,-3184277.46993,-4520.47204981,3929.20338342,4782.58608683,-2.00151407727,-7.40504651712,4.08684281729,6759053.07579,1.29898976148,-2.6816180808905514,1.5519330785332468,-2.6140865365275583,-0.8571013192409245,0.49435139570852216,1.2861242752142765,-1.9585614615013217E-5,-8.864026302496467E-4,-9.031426114358876E-5,398654.645627,2.93881044967E-12,964.551906322,-2.00151407727,-7.40504651712,4.08684281729
3840.00000001,6118525.78184,353195.271091,-2888963.83958,1284867.3242,5991920.83096,-2890193.31942,-4629.95039201,3476.51657091,5016.38782793,-1.64654881108,-7.67860613658,3.70376324796,6759053.07579,1.30336503057,-2.859029865482452,1.5382006787284699,-2.7896726365945432,-0.8395472300052531,0.4550397479477004,1.3270902165968188,-1.9585614615013217E-5,-8.916424932334718E-4,-8.938004693523195E-5,401251.49508,2.75403650206E-12,960.779819016,-1.64654881108,-7.67860613658,3.70376324796
3900.00000001,6234328.98838,648360.258604,-2581761.95138,1004322.51621,6186542.30124,-2582780.35695,-4717.92865433,3008.48930614,5226.72197682,-1.28512118071,-7.91623847754,3.3049002569,6759053.07579,1.30774029966,-2.932470858252944,1.524569715457926,-2.8611769464375496,-0.8239339618954137,0.4148986804459508,1.3669209934863962,-1.9585614615013217E-5,-9.000026591596659E-4,-8.832224986579578E-5,403820.578217,2.5852739158E-12,957.327904974,-1.28512118071,-7.91623847754,3.3049002569
3960.00000001,6324109.63215,939652.947543,-2262671.28216,719152.712275,6352676.34982,-2263473.92368,-4784.06891379,2527.30368474,5412.69786296,-0.918892590997,-8.11708991876,2.89213873894,6759053.07579,1.31211556874,-2.9740954399283788,1.51149680108508,-2.9007676725656766,-0.8101207318106517,0.3738737305687387,1.4059185752487635,-1.9585614615013217E-5,-9.1134109270086E-4,-8.719218254530116E-5,406360.894278,2.43121290224E-12,954.199841583,-0.918892590997,-8.11708991876,2.89213873894
4020.00000001,6387459.2751,1225973.28866,-1933176.19752,430675.836456,6489600.11669,-1933759.38411,-4828.13300025,2035.18792601,5573.53909174,-0.549525558554,-8.28047646755,2.4674015018,6759053.07579,1.31649083783,-3.0021509952356067,1.4992206105457855,-2.9267076555562324,-0.7980085620610187,0.33190416610280904,1.4443547273530761,-1.9585614615013217E-5,-9.254766654076607E-4,-8.60429289632818E-5,408870.677352,2.29065334057E-12,951.396166651,-0.549525558554,-8.28047646755,2.4674015018
4080.00000001,6424080.54918,1506250.63887,-1594804.15299,140221.112943,6596725.56493,-1595165.20658,-4849.98235563,1534.4062307,5708.58555321,-0.178676857557,-8.4058824621,2.03264045201,6759053.07579,1.32086610692,-3.0233037666665856,1.4879238934367667,-2.945679989596156,-0.7875364726383937,0.2889281503696122,1.4824759320955876,-1.9585614615013217E-5,-9.421928570406119E-4,-8.492813047004522E-5,411347.229036,2.16249886658E-12,948.914028522,-0.178676857557,-8.4058824621,2.03264045201
4140.00000001,6433788.05692,1779447.33834,-1249118.67426,-150876.896397,6673601.33771,-1249255.93899,-4849.5774931,1027.24873609,5817.29491192,0.192008958426,-8.49295864643,1.58982811405,6759053.07579,1.32524137601,-3.0405652280762205,1.4777612704382082,-2.9607141387310554,-0.7786781230354511,0.24488740774695808,1.5205082643060683,-1.9585614615013217E-5,-9.612418697789899E-4,-8.390079896255503E-5,413786.776534,2.04575036608E-12,946.746988592,0.192008958426,-8.49295864643,1.58982811405
4200.00000001,6416508.82913,2044562.08466,-897712.26312,-441284.210585,6719914.01633,-897625.110148,-4826.97707905,516.021603133,5899.24359832,0.560905655685,-8.54151969878,1.14094950349,6759053.07579,1.3296166451,-3.055502824671875,1.4688657322688805,-2.9733963994346397,-0.7714389730208275,0.199731458124015,1.558662234161751,-1.9585614615013217E-5,-9.823489767173616E-4,-8.301219097549772E-5,416184.35937,1.93949905692E-12,944.884860768,0.560905655685,-8.54151969878,1.14094950349
4260.00000001,6372282.3474,2300633.10031,-542199.258236,-729673.282246,6735488.78823,-541888.08601,-4782.33666022,3.0372665686,5954.12732361,0.92641104427,-8.55154129087,0.687994366592,6759053.07579,1.33399191418,-3.0690239820168608,1.4613500916203108,-2.984653613202937,-0.7658540171563744,0.15342148162541167,1.5971376264931645,-1.9585614615013217E-5,-0.0010052169430044915,-8.231076839897401E-5,418533.747289,1.84291930919E-12,943.313572165,0.92641104427,-8.55154129087,0.687994366592
4320.00000001,6301260.14053,2546741.09072,-184208.67878,-1014728.76389,6720289.53563,-183674.908838,-4715.90705864,-509.395126458,5981.76114001,1.28695233576,-8.52315675145,0.232949790486,6759053.07579,1.33836718327,-3.0817036094025765,1.455307010150044,-2.995080358315352,-0.761986143566324,0.10593387133574364,1.636128373450188,-1.9585614615013217E-5,-0.001029530388342676,-8.18412629776566E-5,420827.391292,1.75526320067E-12,942.015248625,1.28695233576,-8.52315675145,0.232949790486
4380.00000001,6203704.96422,2782011.99167,174622.922551,-1295153.16846,6674418.35662,175376.854216,-4628.03245557,-1018.97906735,5982.07906873,1.64099114902,-8.45665340193,-0.222206818869,6759053.07579,1.34274245236,-3.093938985061266,1.4508086437993228,-3.0050935113237505,-0.759925167185454,0.05726353164199223,1.6758275014213966,-1.9585614615013217E-5,-0.0010549599984811912,-8.164385361494048E-5,423056.40901,1.67593472608E-12,940.977980295,1.64099114902,-8.45665340193,-0.222206818869
4440.00000001,6079989.57449,3005619.50557,532658.571844,-1569672.40608,6598114.53198,533629.227771,-4519.14818534,-1523.43980887,5955.13331744,1.98702818223,-8.35246862583,-0.675514400542,6759053.07579,1.34711772145,-3.1060313283174006,1.4479062578851558,-3.015013488481409,-0.7597875878006025,0.007426982566226152,1.7164321960371456,-1.9585614615013217E-5,-0.0010811665360806518,-8.175345869586214E-5,425210.605012,1.60449935919E-12,940.199593815,1.98702818223,-8.35246862583,-0.675514400542
4500.00000001,5930595.10512,3216787.42732,888267.927635,-1837041.18025,6491752.95185,889450.886141,-4389.77825825,-2020.53324557,5901.09310825,2.32360757277,-8.21118572715,-1.1250345593,6759053.07579,1.35149299054,-3.1182339169887068,1.4466299395520872,-3.025112030379559,-0.7617171204754264,-0.043534664303336086,1.758149031343562,-1.9585614615013217E-5,-0.0011078046425968833,-8.219914076523985E-5,427278.525857,1.54056156379E-12,939.674593845,2.32360757277,-8.21118572715,-1.1250345593
4560.00000001,5756109.0603,3414791.76093,1239834.25317,-2096048.22773,6355842.01713,1241224.12976,-4240.53263072,-2508.05454059,5820.24313635,2.6493209692,-8.033529625,-1.56885756298,6759053.07579,1.35586825962,-3.1307848936419833,1.4469884521279621,-3.0356446796449763,-0.7658860378726574,-0.09555278554662035,1.8011994084736402,-1.9585614615013217E-5,-0.0011345264583154462,-8.300361821195083E-5,429247.549098,1.48375757831E-12,939.393347274,2.6493209692,-8.033529625,-1.56885756298
4620.00000001,5557222.93331,3598962.6291,1585761.28567,-2345521.38744,6191021.03107,1587351.75851,-4072.10423905,-2983.84649016,5712.98167777,2.96281134126,-7.82036242475,-2.00510804031,6759053.07579,1.36024352871,3.1392508718365773,1.4489692411697463,-3.046877632621086,-0.7724973461264094,-0.14852830000448644,1.8458252406680722,-1.9585614615013217E-5,-0.0011609851137519057,-8.41828781042885E-5,431104.004758,1.43375555586E-12,939.342115213,2.96281134126,-7.82036242475,-2.00510804031
4680.00000001,5334729.46254,3768685.97806,1924479.98215,-2584332.48475,5998057.0971,1926263.82142,-3885.2658118,-3445.80761963,5579.81836374,3.26277655495,-7.57267889759,-2.43195040586,6759053.07579,1.3646187978,3.1252123371690046,1.4525385837589906,-3.0591156551588523,-0.781787781743547,-0.2023286066673213,1.8922948973273743,-1.9585614615013217E-5,-0.0011868381600772773,-8.574588566559678E-5,432833.327208,1.39025113144E-12,939.502461981,3.26277655495,-7.57267889759,-2.43195040586
4740.00000001,5089519.53598,3923405.08071,2254455.12217,-2811402.0181,5777841.53899,2256424.22324,-3680.86647401,-3891.90000602,5421.37163698,3.54797273996,-7.29160189264,-2.84759404108,6759053.07579,1.36899406689,3.10991814443008,1.457641856418598,-3.07273779238489,-0.7940315548095863,-0.2567843072654359,1.9409093676194489,-1.9585614615013217E-5,-0.0012117510078076077,-8.769438855042985E-5,434420.23484,1.35294485201E-12,939.847978113,3.54797273996,-7.29160189264,-2.84759404108
4800.00000001,4822578.7553,4062621.84102,2574191.74889,-3025703.63598,5531385.86001,2576337.16915,-3459.82815497,-4320.15682378,5238.3659036,3.81721747658,-6.97837769815,-3.25029826144,6759053.07579,1.37336933598,3.092871996680629,1.4642038712457837,-3.0882505176772836,-0.8095446553512596,-0.3116856095085054,1.9920085031732555,-1.9585614615013217E-5,-0.001235400432056921,-9.002281740982845E-5,435848.934436,1.32158367151E-12,940.350092943,3.81721747658,-6.97837769815,-3.25029826144
4860.00000001,4534983.6708,4185897.90326,2882241.43071,-3226268.39277,5259817.25767,2884553.42983,-3223.14180946,-4728.6896109,5031.62839281,4.06939282795,-6.63437136001,-3.63837710015,6759053.07579,1.37774460506,3.0733599134085137,1.472129175951627,-3.1063755755057207,-0.8286893560102243,-0.3667783111354945,2.045977022360501,-1.9585614615013217E-5,-0.0012574781805464268,-9.271828750278245E-5,437103.346736,1.29653599366E-12,941.064712002,4.06939282795,-6.63437136001,-3.63837710015
4920.00000001,4227897.69816,4292855.56917,3177208.32593,-3412188.77242,4964373.71099,3179676.40951,-2971.86346115,-5115.69525288,4802.08573416,4.30344824216,-6.26106195903,-4.01020393882,6759053.07579,1.38211987415,3.0502923992524624,1.4813020908428538,-3.1282076460636294,-0.8518782425371392,-0.42175928878989083,2.103249660238667,-1.9585614615013217E-5,-0.00127769468974909,-9.576070863102974E-5,438167.34937,1.27822735007E-12,942.052794687,4.30344824216,-6.26106195903,-4.01020393882
4980.00000001,3902566.72819,4383178.5266,3457755.03415,-3582622.46958,4646398.65725,3460368.00046,-2707.1100752,-5479.46268201,4550.76026094,4.51840334631,-5.86003784084,-4.36421601368,6759053.07579,1.38649514324,3.0218978961001226,1.491585954223497,3.1276645335296096,-0.8795766255085697,-0.4762714774125598,2.164314370601865,-1.9585614615013217E-5,-0.0012957828786420147,-9.912301187687376E-5,439025.033059,1.26705098924E-12,943.363942476,4.51840334631,-5.86003784084,-4.36421601368
5040.00000001,3560314.44069,4456612.39282,3722608.21792,-3736795.91817,4307335.27534,3725354.20763,-2430.05526591,-5818.37928869,4278.7660462,4.7133506522,-5.43299178598,-4.69891882477,6759053.07579,1.39087041233,2.9850710783321888,1.5028202324525424,3.0917653050440217,-0.9123014611358062,-0.5298984554310443,2.2297117607908654,-1.9585614615013217E-5,-0.0013115019523565867,-1.0277150110621166E-4,439660.966818,1.26343843622E-12,945.043435177,4.7133506522,-5.43299178598,-4.69891882477
5100.00000001,3202537.33366,4512965.07563,3970563.97883,-3874007.55751,3948720.39332,3973430.52753,-2141.92484436,-6130.93704071,3987.3046765,4.88745819009,-4.98171610154,-5.01289047228,6759053.07579,1.39524568142,2.9338236637066566,1.5148116423563578,3.0412947593672723,-0.9506138744680793,-0.5821589943127313,2.300027901721981,-1.9585614615013217E-5,-0.00132464111424072,-1.066663348185106E-4,440060.467783,1.27553912472E-12,947.134897068,4.88745819009,-4.98171610154,-5.01289047228
5160.00000001,2830699.47928,4552106.95507,4200492.97253,-3993630.82666,3572178.03751,4203467.0658,-1843.99220974,-6415.73830514,3677.66076719,5.03997208328,-4.50809761017,-5.30478594146,6759053.07579,1.39962095051,2.8550243773129855,1.5273062682220646,2.963127433884295,-0.9951010393929933,-0.6325023501133341,2.3758763128603215,-1.9585614615013217E-5,-0.0013350230584511862,-1.1076213976704816E-4,440209.871228,1.28932716212E-12,949.681935827,5.03997208328,-4.50809761017,-5.30478594146
5220.00000001,2446327.01826,4573970.88854,4411345.24709,-4095116.87764,3179412.64155,4414413.37799,-1537.57358784,-6671.50136565,3351.19722158,5.17021907258,-4.01411250769,-5.57334135339,6759053.07579,1.40399621959,2.7141825792856555,1.5398874275923706,2.8227811555312106,-1.0463417268563633,-0.6803057368859083,2.457863474443967,-1.9585614615013217E-5,-0.0013425071000078962,-1.1500875222921817E-4,440096.796396,1.31256729091E-12,952.729244057,5.17021907258,-4.01411250769,-5.57334135339
5280.00000001,2051002.40477,4578552.04154,4602154.78958,-4177996.99836,2772201.93365,4605303.01821,-1224.02311939,-6897.06562669,3009.35023591,5.27760899537,-3.5018210563,-5.81737819459,6759053.07579,1.40837148868,2.3967419293186336,1.5514827438381038,2.50571056046492,-1.1048489089802156,-0.7248763604048171,2.5465312900348174,-1.9585614615013217E-5,-0.0013469917975682346,-1.1935207643485498E-4,439710.403817,1.33671748245E-12,956.323129023,5.27760899537,-3.5018210563,-5.81737819459
5340.00000001,1646358.41437,4565907.54622,4772043.76549,-4241884.73652,2352389.5213,4775257.78059,-904.727800987,-7091.39649329,2653.6240508,5.36163721947,-2.97336207735,-6.03580753351,6759053.07579,1.41274675777,1.5796464381575355,1.557673563844646,1.6888729503070223,-1.1709837466768527,-0.7654615122443003,2.6422708582127408,-1.9585614615013217E-5,-0.0013484169371822503,-1.2373504324330307E-4,439041.639926,1.38134194824E-12,960.511179722,5.36163721947,-2.97336207735,-6.03580753351
5400.00000001,1234071.92822,4536155.98949,4920226.43591,-4286477.71557,1921877.19323,4923491.61811,-581.10228154,-7253.58991356,2285.58545013,5.42188702733,-2.43094720504,-6.22763422668,6759053.07579,1.41712202686,0.7468918314189078,1.5518116062649725,0.8562794141075936,-1.2448402847981952,-0.801271150083882,2.7452069036269293,-1.9585614615013217E-5,-0.0013467647718813421,-1.2809864644993914E-4,438083.464979,1.43896898493E-12,965.340602005,5.42188702733,-2.43094720504,-6.22763422668
5460.00000001,815857.507434,4489476.73228,5046012.73733,-4311559.13418,1482616.95938,5049314.2239,-254.583517253,-7382.87656815,1906.85800787,5.45803194134,-1.87685486137,-6.39196111156,6759053.07579,1.42149729595,0.42067606724499795,1.5403920275986136,0.5301450618167166,-1.326111596838496,-0.8315172846234131,2.855063632630203,-1.9585614615013217E-5,-0.0013420604498930453,-1.3238302986554395E-4,436831.060473,1.51128740948E-12,970.854682908,5.45803194134,-1.87685486137,-6.39196111156
5520.00000001,393460.772461,4426109.06113,5148811.50896,-4316998.94089,1036602.85042,5152134.25972,73.3747107207,-7478.62568895,1519.116084,5.46983797588,-1.31342391202,-6.52799317687,6759053.07579,1.42587256503,0.2765228721826262,1.5280056690878971,0.38601223965807224,-1.413966103871613,-0.8554721046374529,2.971040757288796,-1.9585614615013217E-5,-0.0013343716091678847,-1.3652859608365899E-4,435282.012521,1.60026441777E-12,977.087008924,5.46983797588,-1.31342391202,-6.52799317687
5580.00000001,-31348.3966172,4346351.17324,5228133.35252,-4302754.67579,585862.49987,5231462.21682,401.307411113,-7540.34848648,1124.07857116,5.45716579717,-0.743046963408,-6.63504169538,6759053.07579,1.43024783412,0.19571918834334975,1.515759956430479,0.3051876268549141,-1.5069812278055343,-0.8725410884266813,3.091746865396128,-1.9585614615013217E-5,-0.0013238071629914996,-1.404771079271595E-4,433436.467924,1.70812841677E-12,984.053613051,5.45716579717,-0.743046963408,-6.63504169538
5640.00000001,-456782.821916,4250558.99592,5283593.10973,-4268871.97156,132448.532868,5286912.89411,727.744123605,-7567.70116342,723.502395121,5.4199727668,-0.168163263252,-6.71252829728,6759053.07579,1.43462310321,0.1427260589559273,1.504075054364575,0.2521527481479025,-1.6031859867396794,-0.8823390700384302,-3.067943547724386,-1.9585614615013217E-5,-0.001310515345266494,-1.4417275593089514E-4,431297.259978,1.83732391632E-12,991.744204928,5.4199727668,-0.168163263252,-6.71252829728
5700.00000001,-881045.133323,4139144.84105,5314911.94281,-4215484.70635,-321570.212897,5318207.47909,1051.21477831,-7560.48748941,319.17577317,5.35831484034,0.408748830564,-6.75998895603,6759053.07579,1.4389983723,0.10407894598813172,1.493201617406487,0.21346390359358658,-1.7002389331042596,-0.8847500987751709,-2.9439711276549785,-1.9585614615013217E-5,-0.0012946811198032927,-1.4756316953327305E-4,428870.001421,1.99044295216E-12,1000.11477243,5.35831484034,0.408748830564,-6.75998895603
5760.00000001,-1302334.99809,4012575.89551,5321919.00359,-4142814.80182,-774117.606856,5325175.21719,1370.25566403,-7518.66091023,-87.0887630613,5.27234828788,0.985179843746,-6.77707785215,6759053.07579,1.44337364139,0.07364790349656582,1.4833271391882297,0.18301194762531814,-1.7957138861424842,-0.8799516536586814,-2.8219179326652277,-1.9585614615013217E-5,-0.0012765230818580643,-1.5060035532232872E-4,426163.142244,2.17014860834E-12,1009.08444902,5.27234828788,0.985179843746,-6.77707785215
5820.00000001,-1718856.45317,3871372.54814,5304552.67748,-4051171.66017,-1223119.25713,5307754.6556,1683.4154934,-7442.3261628,-493.461571984,5.16233119929,1.55859766783,-6.76357107406,6759053.07579,1.44774891047,0.04824649997333265,1.4746048629639246,0.1576308190500807,-1.887412237062038,-0.8683934068204691,-2.7039539935681645,-1.9585614615013217E-5,-0.0012562899901250983,-1.5324155193307463E-4,423187.990535,2.37911350702E-12,1018.53884588,5.16233119929,1.55859766783,-6.76357107406
5880.00000001,-2128825.31747,3716106.55431,5262861.38889,-3940951.23457,-1666511.62342,5265994.44832,1989.26155102,-7331.74036612,-898.103322436,5.02862473314,2.1264565504,-6.71937010921,6759053.07579,1.45212417956,0.026041467406500977,1.4671630170771321,0.13550680815761054,-1.9736062299349753,-0.8507363340919446,-2.5917793546223327,-1.9585614615013217E-5,-0.001234257062980582,-1.5544999718393484E-4,419958.694923,2.61999247036E-12,1028.33991707,5.02862473314,2.1264565504,-6.71937010921
5940.00000001,-2530476.65938,3547399.03901,5197003.95552,-3812634.72876,-2102251.17886,5200053.70986,2286.38590757,-7187.3135572,-1299.17261595,4.87169406533,2.68620660527,-6.64450507325,6759053.07579,1.45649944865,0.005884873659045203,1.4611078811587737,0.11551036567604173,-2.0531540225251663,-0.8277705282999219,-2.4865089350162464,-1.9585614615013217E-5,-0.0012107221554523214,-1.5719560796294803E-4,416492.187642,2.89543271277E-12,1038.33984445,4.87169406533,2.68620660527,-6.64450507325
6000.00000001,-2922072.2933,3365918.33996,5107249.48006,-3666786.92222,-2528323.58661,5110201.90586,2573.4116808,-7009.6086407,-1694.83379346,4.69210899059,3.23530384598,-6.53913761962,6759053.07579,1.46087471774,-0.013000683327589963,1.4565246557880456,0.09688095974804865,-2.1254862059812574,-0.8003329975906825,-2.3886858287834345,-1.9585614615013217E-5,-0.0011860019059900273,-1.584555766017117E-4,412808.08776,3.20810492466E-12,1048.39495786,4.69210899059,3.23530384598,-6.53913761962
6060.00000001,-3301908.27719,3172377.69254,4993976.76872,-3504054.11881,-2942752.85503,4996818.27049,2848.99932093,-6799.34072098,-2083.26490554,4.49054412846,3.7712207365,-6.40356346811,6759053.07579,1.46524998683,-0.031185900744260156,1.4534775131994693,0.07906294655849254,-2.190506060910526,-0.7692407789100162,-2.2983807535410494,-1.9585614615013217E-5,-0.001160427908469574,-1.5921488855958577E-4,408928.564602,3.56072619455E-12,1058.37619421,4.49054412846,3.7712207365,-6.40356346811
6120.00000001,-3668322.38111,2967532.75876,4857673.26755,-3325161.71827,-3343610.43351,4860390.74114,3111.8528953,-6557.375786,-2462.66582118,4.26777868438,4.29145724208,-6.23821448707,6759053.07579,1.46962525591,-0.04912894184024984,1.4520093657265687,0.061611134241117756,-2.2484559896874248,-0.7352455223195153,-2.2153251994419305,-1.9585614615013217E-5,-0.0011343429295583656,-1.5946676504844138E-4,404878.162011,3.95604667122E-12,1068.17450198,4.26777868438,4.29145724208,-6.23821448707
6180.00000001,-4019701.49553,2752179.00322,4698933.50908,-3130911.41127,-3729024.20909,4701514.4033,3360.72634414,-6284.7287138,-2831.26644658,4.02469571624,4.79355235221,-6.04366026157,6759053.07579,1.474000525,-0.06723664520246884,1.4521415761540097,0.04412935219796923,-2.299789469570152,-0.6990083996528111,-2.1390389254590105,-1.9585614615013217E-5,-0.0011080971587881705,-1.5921303089902323E-4,400683.584632,4.39678255559E-12,1077.70160269,4.02469571624,4.79355235221,-6.04366026157
6240.00000001,-4354488.94584,2527148.91971,4518457.06368,-2922178.00077,-4097187.36258,4520889.43969,3594.42967625,-5982.56057446,-3187.33502067,3.76228085798,5.27509603514,-5.82060907841,6759053.07579,1.47837579409,-0.08591172313775877,1.453873702807027,0.026223078568761615,-2.3450683337037246,-0.6610905829573607,-2.068931990286188,-1.9585614615013217E-5,-0.0010820444526886022,-1.584644029071446E-4,396373.44808,4.88549049784E-12,1086.88766956,3.76228085798,5.27509603514,-5.82060907841
6300.00000001,-4671191.67872,2293309.11279,4317045.99205,-2699905.85431,-4446367.04093,4319318.58037,3811.83507065,-5652.17520314,-3529.18645076,3.48162045382,5.73374157108,-5.56990825881,6759053.07579,1.48275106318,-0.10559812754530254,1.4571833061549786,0.007453949607134413,-2.384889954726946,-0.6219539263212814,-2.00437674041555,-1.9585614615013217E-5,-0.0010565385181377628,-1.5724068779137432E-4,391977.99548,5.42438726395E-12,1095.67763864,3.48162045382,5.73374157108,-5.56990825881
6360.00000001,-4968387.28395,2051557.23974,4095601.79765,-2465104.99395,-4774912.80163,4097704.05249,4011.88284749,-5295.01502332,-3855.19064664,3.18389905968,6.1672181982,-5.29254377058,6759053.07579,1.48712633227,-0.1268356960370998,1.4620257958419658,-0.012714961005280655,-2.419840686508905,-0.5819674194464273,-1.9447533999700293,-1.9585614615013217E-5,-0.001031928975997263,-1.5557087257543585E-4,387528.783533,6.01512279009E-12,1104.02742957,3.18389905968,6.1672181982,-5.29254377058
6420.00000001,-5244730.81453,1802818.81913,3855121.88067,-2218846.83276,-5081264.7836,3857044.03113,4193.58726913,-4912.65610392,-4163.7808083,2.87039627331,6.57334399256,-4.98963905461,6759053.07579,1.49150160135,-0.15033896369283561,1.4683342372903883,-0.03499797879758569,-2.4504691134177197,-0.5414163348997986,-1.889475716117646,-1.9585614615013217E-5,-0.0010085572549651013,-1.534930846636261E-4,383058.341937,6.6585164414E-12,1111.90077376,2.87039627331,6.57334399256,-4.98963905461
6480.00000001,-5498961.36682,1548043.91339,3596695.49745,-1962259.56947,-5363961.55818,3598428.59556,4356.04212998,-4506.80243877,-4453.46161809,2.54248285958,6.9500388905,-4.66245300466,6759053.07579,1.49587687044,-0.17712614474828425,1.4760189267254884,-0.06041578705355812,-2.4772728041441776,-0.500512189787943,-1.838002969362772,-1.9585614615013217E-5,-9.867522869933375E-4,-1.5105439510642937E-4,378599.810642,7.354267715E-12,1119.26688618,2.54248285958,6.9500388905,-4.66245300466
6540.00000002,-5729908.3816,1288203.69389,3321499.23295,-1696523.2551,-5621647.61349,3323035.19808,4498.42609206,-4079.27944312,-4722.81728482,2.20161614478,7.29533774966,-4.3123770451,6759053.07579,1.50025213953,-0.208751171603644,1.484966299269446,-0.09052739727165576,-2.5006935508100576,-0.4594025099648037,-1.7898433757513443,-1.9585614615013217E-5,-9.668260076721997E-4,-1.4831043745237385E-4,374186.560044,8.10065508751E-12,1126.09894085,2.20161614478,7.29533774966,-4.3123770451
6600.00000002,-5936497.62682,1024286.8981,3030791.99657,-1422864.54817,-5853080.42499,3032123.65605,4620.00772186,-3632.02666813,-4970.51938436,1.8493346616,7.60740333364,-3.94093125913,6759053.07579,1.50462740862,-0.24775845326894877,1.495036133309635,-0.12788479703495384,-2.521117519293335,-0.418179938569982,-1.7445524638525458,-1.9585614615013217E-5,-9.490687046605932E-4,-1.4532481687658708E-4,369851.799781,8.89424042943E-12,1132.37318547,1.8493346616,7.60740333364,-3.94093125913
6660.00000002,-6117756.82249,757296.189822,2725909.55538,-1142551.17782,-6057137.06573,2727030.68104,4720.15018305,-3167.08974167,-5195.33443833,1.48725203533,7.88453909477,-3.54975952895,6759053.07579,1.50900267771,-0.2986603481045725,1.5060543647407276,-0.17701027400254313,-2.538877947716647,-0.3768905498854308,-1.7017287965518895,-1.9585614615013217E-5,-9.337443000332066E-4,-1.421682903169178E-4,365628.182319,9.72960085183E-12,1138.06849711,1.48725203533,7.88453909477,-3.54975952895
6720.00000002,-6272820.86867,488244.434371,2408258.62218,-856886.136844,-6232820.31019,2409163.96263,4798.31553971,-2686.61155158,-5396.13117096,1.11705011239,8.12520162091,-3.14062365992,6759053.07579,1.51337794679,-0.37028235577379387,1.5177936693704241,-0.24674142507428573,-2.5542589196396976,-0.3355413942995633,-1.6610085141169977,-1.9585614615013217E-5,-9.21085693445362E-4,-1.3891770810086688E-4,361547.40786,1.05991140046E-11,1143.16619028,1.11705011239,8.12520162091,-3.14062365992
6780.00000002,-6400936.63819,218150.902138,2079310.5196,-567201.629302,-6379264.18691,2079995.82799,4854.06862471,-2192.82269569,-5571.88738237,0.740471342797,8.32801260524,-2.71539647313,6759053.07579,1.51775321588,-0.4821988536868011,1.529914990478228,-0.35666668010047703,-2.567499342624549,-0.294107371630268,-1.6220595641966906,-1.9585614615013217E-5,-9.112903267906182E-4,-1.3565472042256308E-4,357639.83744,1.14928253511E-11,1147.64990563,0.740471342797,8.32801260524,-2.71539647313
6840.00000002,-6501467.29684,-51962.5851118,1740594.445,-274852.800216,-6495738.93709,1741056.50208,4887.08042931,-1688.03123164,-5721.69637647,0.359310440104,8.49177019284,-2.27605386418,6759053.07579,1.52212848497,-0.6851324568528974,1.5417582627744895,-0.5575244230808708,-2.578796649712451,-0.25253754943496703,-1.584576086510352,-1.9585614615013217E-5,-9.045161526978932E-4,-1.3246426701458977E-4,353934.12116,1.23984242754E-11,1151.50538093,0.359310440104,8.49177019284,-2.27605386418
6900.00000002,-6573896.1154,-321075.549599,1393690.36482,18788.7226954,-6581655.33799,1393926.99716,4897.13097144,-1174.61176825,-5844.77288159,-0.0245946455977,8.61545955559,-1.82466584024,6759053.07579,1.52650375406,-1.121941155070984,1.5514493214164828,-0.9921898684251228,-2.5883099795010014,-0.21076103575731533,-1.5482731688299132,-1.9585614615013217E-5,-9.008781948383199E-4,-1.294328839560812E-4,350456.84849,1.33013681762E-11,1154.72042737,-0.0245946455977,8.61545955559,-1.82466584024
6960.00000002,-6617829.7401,-588172.777936,1040221.57054,312341.442733,-6636568.35348,1040231.66368,4884.11160299,-654.993949339,-5940.45840334,-0.409372393753,8.69826254692,-1.36338656342,6759053.07579,1.53087902315,-1.9189270985116096,1.5536340388889351,-1.7869835666800222,-2.596162727448994,-0.16869249774292902,-1.5128820358209452,-1.9585614615013217E-5,-9.004458755503985E-4,-1.2664687607144193E-4,347232.22738,1.4185200058E-11,1157.28569793,-0.409372393753,8.69826254692,-1.36338656342
7020.00000002,-6633000.89028,-852248.248998,681846.932095,604420.728618,-6660180.07678,681630.438658,4848.02671944,-131.650389452,-6008.22595132,-0.793127958138,8.73956629052,-0.894443443813,6759053.07579,1.53525429223,-2.5160374233163956,1.5460413564279054,-2.3818719343165506,-2.602444435142975,-0.12623739715904417,-1.4781456379306686,-1.9585614615013217E-5,-9.032412558901219E-4,-1.241904150618162E-4,344281.798482,1.50320407847E-11,1159.19521735,-0.793127958138,8.73956629052,-0.894443443813
7080.00000002,-6619270.45538,-1112309.05084,320252.887976,893645.632714,-6652341.93454,319810.830462,4788.99483915,392.915870195,-6047.68408435,-1.17395391808,8.73897056345,-0.42012534244,6759053.07579,1.53962956132,-2.788696532115727,1.5345159422767771,-2.6522992254133086,-2.6072120173858804,-0.08329699652712258,-1.4438145503179958,-1.9585614615013217E-5,-9.092382872704446E-4,-1.221436308969682E-4,341624.190274,1.58232410406E-11,1160.44655368,-1.17395391808,8.73897056345,-0.42012534244
7140.00000002,-6576628.9665,-1367379.26759,-42854.7855899,1178645.75438,-6613056.12594,-43520.3172491,4707.24902451,916.184309292,-6058.58022307,-1.54994145227,8.69629384202,0.0572300400434,6759053.07579,1.54400483041,-2.9286078947348466,1.5221041050551958,-2.789989012829478,-2.610490335275894,-0.03977317748368663,-1.4096430570747114,-1.9585614615013217E-5,-9.183631172185321E-4,-1.2058076606222842E-4,339274.920048,1.65401662713E-11,1161.04074865,-1.54994145227,8.69629384202,0.0572300400434
7200.00000002,-6505197.42188,-1616503.81656,-405759.381045,1458068.1083,-6542476.27466,-406645.237269,4603.13662233,1435.63019564,-6040.80318364,-1.91919184085,8.61157789123,0.535249496953,6759053.07579,1.5483800995,-3.0135851956351387,1.5097764735053234,-2.872775008592342,-2.6122721147693855,0.004426892229943149,-1.3753852745175892,-1.9585614615013217E-5,-9.304954305862432E-4,-1.1956845870411391E-4,337246.244864,1.71650681808E-11,1160.98208495,-1.91919184085,8.61157789123,0.535249496953
7260.00000002,-6405227.44953,-1858752.21584,-766741.793526,1730583.9563,-6440907.27775,-767843.778199,4477.1183068,1948.73808135,-5994.38489244,-2.27982819195,8.48509079267,1.01153826498,6759053.07579,1.55275536859,-3.0719062110641553,1.4979692086884528,-2.928954609033331,-2.6125171929604725,0.049386204921671645,-1.3407911534227286,-1.9585614615013217E-5,-9.454707488521216E-4,-1.1916421195423399E-4,335547.065491,1.76819806954E-11,1160.27776526,-2.27982819195,8.48509079267,1.01153826498
