time,gePosition_m_X,gePosition_m_Y,gePosition_m_Z,eiPosition_m_X,eiPosition_m_Y,eiPosition_m_Z,eiVelocity_m_s_X,eiVelocity_m_s_Y,eiVelocity_m_s_Z,eiAccel_m_s2_X,eiAccel_m_s2_Y,eiAccel_m_s2_Z,semiMajorAxis_m,gast_rad,eulerAngle_rad_Roll,eulerAngle_rad_Pitch,eulerAngle_rad_Yaw,eulerAngleWrtEi_rad_Roll,eulerAngleWrtEi_rad_Pitch,eulerAngleWrtEi_rad_Yaw,bodyAngularRateWrtEi_rad_s_Roll,bodyAngularRateWrtEi_rad_s_Pitch,bodyAngularRateWrtEi_rad_s_Yaw,altitudeMsl_m,airDensity_kg_m3,ambientTemperature_dgK,eiGravitation_m_s2_X,eiGravitation_m_s2_Y,eiGravitation_m_s2_Z
0.0,-1428622.31101,4163200.46562,5136049.67203,-4292653.41,955168.47,5139356.57,109.649663,-7527.72649,1484.521489,5.52898656936,-1.23026788741,-6.61954989995,6758662.11723,1.02334780893,5.666859310097427E-17,-0.2024581932313422,-1.0271182499535224E-16,-2.471593905353287,-0.03718896447605677,-1.4289931348888525,0.0,0.0,0.0,398252.763838,3.11591362917E-12,976.47737094,5.52898656936,-1.23026788741,-6.61954989995
60.0,-1789712.64868,3920255.31305,5213136.6043,-4276130.76361,501640.150639,5216447.94771,440.899504426,-7584.0430456,1084.18939672,5.50841669093,-0.646201702282,-6.71971240616,6758662.11723,1.02772307802,-2.3648081824083186E-6,-0.20245604259998598,-1.0060057579396246E-4,-2.4720592963860404,0.01612042366569264,-1.3866611796765804,-7.049068603766561E-7,-0.001134477987848274,-3.302852372534542E-6,398335.16147,3.20687244874E-12,983.702829946,5.50841669093,-0.646201702282,-6.71971240616
120.0,-2144732.03326,3662345.31178,5266057.24147,-4239785.46485,45786.4492663,5269357.6801,770.149856361,-7605.20775889,678.7772427,5.46236021842,-0.058989324127,-6.78881750198,6758662.11723,1.03209834711,-2.511899647706835E-5,-0.20244904674264,-4.0025750264491473E-4,-2.470307948697733,0.06928029515548614,-1.3441021824376438,-1.5682193695747527E-6,-0.0011344959082205722,-6.615080444266568E-6,398280.483171,3.31726588913E-12,991.661468685,5.46236021842,-0.058989324127,-6.78881750198
180.0,-2492166.12293,3390599.00166,5294562.85755,-4183783.25764,-410279.480789,5297837.08957,1095.87688043,-7591.11290731,270.159254332,5.39101509823,0.528665740843,-6.82652947799,6758662.11723,1.0364736162,-9.179690910129048E-5,-0.20243641348053673,-8.945341280206758E-4,-2.4663158457375527,0.12219457297341439,-1.3010762842746364,-2.5897433371880404E-6,-0.0011345075693185744,-9.935939052561712E-6,398085.378679,3.44775481373E-12,1000.300609,5.39101509823,0.528665740843,-6.82652947799
240.0,-2830524.93281,3106195.85057,5298517.62797,-4108380.89026,-864442.894078,5301750.4708,1416.572094,-7541.8131943,-139.774483848,5.29469509567,1.11405482452,-6.83265572643,6758662.11723,1.04084888529,-2.2590163209394297E-4,-0.20241740163866534,-0.0015773854989644415,-2.4600313118668202,0.17476349162007102,-1.2573391714524293,-3.7692476844597157E-6,-0.0011345124437282144,-1.3264676401906132E-5,397748.768109,3.59852917815E-12,1009.53002767,5.29469509567,1.11405482452,-6.83265572643
300.0,-3158349.2707,2810361.12396,5277899.32319,-4013924.98617,-1314597.20057,5281075.7838,1730.7492879,-7457.52569377,-549.126655788,5.17382866283,1.69447627941,-6.80714795491,6758662.11723,1.04522415437,-4.50791257846533E-4,-0.20239134369840017,-0.0024411868488160384,-2.4513746395741123,0.22688152919940394,-1.212638578679881,-5.106463907715847E-6,-0.0011345099435632596,-1.6600533489169586E-5,397271.88372,3.76928395326E-12,1019.22714303,5.17382866283,1.69447627941,-6.80714795491
360.0,-3474217.08765,2504360.5957,5232799.48317,-3900850.50203,-1758653.68795,5235904.82755,2036.95136094,-7338.62906256,-956.001393646,5.02895729882,2.26724769265,-6.75010277495,6758662.11723,1.04959942346,-7.895653599349433E-4,-0.20235766593510943,-0.0034767697023917053,-2.440237430159686,0.27843520853324666,-1.1667109306425738,-6.601085475827106E-6,-0.0011344994211529684,-1.9942743536966846E-5,396658.271822,3.95927497991E-12,1029.24864764,5.02895729882,2.26724769265,-6.75010277495
420.0,-3776749.71579,2189495.12225,5163423.07076,-3769678.779,-2194551.17459,5166442.89226,2333.75704093,-7185.6620202,-1358.51297384,4.86073340379,2.82971808105,-6.66176165595,6758662.11723,1.05397469255,-0.0012649521690816944,-0.2023159053548305,-0.004673465428249566,-2.4264817776195184,0.32930071575502307,-1.1192781943573564,-8.252767163976442E-6,-0.0011344801697995635,-2.3290531437403787E-5,395913.75464,4.16743259548E-12,1039.44538411,4.86073340379,2.82971808105,-6.66176165595
480.0,-4064617.96598,1867095.10307,5070087.60404,-3621015.19486,-2620265.54951,5073007.89024,2619.78746171,-6999.32109896,-1754.79449109,4.66991762971,3.37928001561,-6.54251023745,6758662.11723,1.05834996164,-0.001899196957590115,-0.20226572268301005,-0.006019156023634435,-2.40993949275919,0.37934129187713267,-1.070045087132488,-1.0061124325786983E-5,-0.0011344514246142464,-2.664311320769178E-5,395046.35254,4.39248786984E-12,1049.67618037,4.66991762971,3.37928001561,-6.54251023745
540.0,-4336548.05782,1538514.85011,4953221.77021,-3455546.42661,-3033819.15549,4956028.96803,2893.71256637,-6780.45766981,-2143.0064719,4.4573757334,3.91338162297,-6.39287699509,6758662.11723,1.06272523073,-0.0027139521540761164,-0.20220691085727635,-0.007500331877741155,-2.3904116628473107,0.42840436585028874,-1.018696889844619,-1.2025732106073805E-5,-0.001134412363442219,-2.9999695459375573E-5,394066.16769,4.63306699777E-12,1059.81737392,4.4573757334,3.91338162297,-6.39287699509
600.0,-4591327.35534,1205126.8898,4813363.52578,-3274037.33485,-3433289.97225,4816044.60446,3154.25730682,-6530.07425328,-2521.34538841,4.22407493918,4.42953841007,-6.21353125793,6758662.11723,1.06710049981,-0.00373016972241735,-0.20213939852682422,-0.009102156224751643,-2.367668984746518,0.47631842124721674,-0.964898263413571,-1.4146124597064531E-5,-0.001134362107854033,-3.335947488424658E-5,392985.230813,4.88772979641E-12,1069.76694871,4.22407493918,4.42953841007,-6.21353125793
660.0,-4827809.88176,868316.221086,4651157.69009,-3077327.483,-3816820.55719,4653700.20187,3400.20761071,-6249.32012759,-2888.05203397,3.97107982106,4.92534485816,-6.00528057771,6758662.11723,1.0714757689,-0.00496799634704345,-0.20206324820062083,-0.01080853596725391,-2.3414535056176056,0.5228896292502554,-0.908293668414397,-1.642179394093355E-5,-0.0011342997242294386,-3.672163775762219E-5,391817.313346,5.15495300749E-12,1079.44416186,3.97107982106,4.92534485816,-6.00528057771
720.0,-5044921.58748,529474.553226,4467353.04181,-2866327.30621,-4182626.70184,4469745.1799,3630.4160871,-5939.48624934,-3241.41972145,3.69954771645,5.39848573122,-5.76906745355,6758662.11723,1.07585103799,-0.006446671969576092,-0.2019786487843777,-0.01260219852708582,-2.3114826627458736,0.5678983472276622,-0.848510249623177,-1.885218938147738E-5,-0.0011342242249250088,-4.0085359460649106E-5,390577.707882,5.43307543139E-12,1088.78644481,3.69954771645,5.39848573122,-5.76906745355
780.0,-5241665.34627,189994.547074,4262798.92999,-2642013.94644,-4529005.7634,4265029.58367,3843.80744331,-5601.99950563,-3579.8022658,3.41072368629,5.84674704438,-5.50596541829,6758662.11723,1.08022630708,-0.008184432218186832,-0.201885902445203,-0.014464774360941665,-2.277456823660206,0.6110956857896566,-0.7851643614906788,-2.143671626894539E-5,-0.0011341345695115796,-4.344980402669232E-5,389282.980377,5.72022664279E-12,1097.7452932,3.41072368629,5.84674704438,-5.50596541829
840.0,-5417125.65531,-148735.916456,4038441.41394,-2405426.77194,-4854344.63194,4040500.22042,4039.38358617,-5238.41631976,-3901.62171297,3.10593503834,6.26802663725,-5.21717449618,6758662.11723,1.08460157617,-0.010198415261172614,-0.2017854058266225,-0.016376884764902313,-2.239071852014994,0.6522004999647085,-0.7178732380682341,-2.4174735020120254E-5,-0.0011340296661233877,-4.681412370814437E-5,387950.698132,6.01425775883E-12,1106.28229852,3.10593503834,6.26802663725,-5.21717449618
900.0,-5570473.01589,-485339.417195,3795318.94811,-2157662.60064,-5157127.29515,3797196.34098,4216.22838204,-4850.41563555,-4205.37577766,2.78658543362,6.66034429836,-4.90401604459,6758662.11723,1.08897684525,-0.01250457359789321,-0.20167762578675777,-0.01831823458236317,-2.196038465612824,0.6908973697244394,-0.6462735555547374,-2.7065560040001193E-5,-0.0011339083728613177,-5.017745857220708E-5,386599.138075,6.31268818241E-12,1114.36594672,2.78658543362,6.66034429836,-4.90401604459
960.0,-5700967.97255,-818454.602498,3534557.63056,-1899870.6489,-5435941.96416,3536244.8846,4373.51205129,-4439.79130921,-4489.64495351,2.45414859808,7.02185138673,-4.56792699599,6758662.11723,1.09335211434,-0.01511759127471556,-0.20156307005236024,-0.02026770942552324,-2.148110124636627,0.7268363965044108,-0.5700486092861767,-3.0108458605857893E-5,-0.0011337694993095895,-5.353893612198061E-5,385246.980295,6.61267311837E-12,1121.96917921,2.45414859808,7.02185138673,-4.56792699599
1020.0,-5807964.78976,-1146741.697,3257366.03583,-1633247.22809,-5689487.726,3258855.30789,4510.49517421,-4008.44394013,-4753.09926035,2.11016166425,7.35083989866,-4.2104535197,6758662.11723,1.09772738343,-0.018050806979837904,-0.20144225319012662,-0.022203477015606828,-2.09512058408405,0.7596359203553936,-0.4889652254875631,-3.330264972089827E-5,-0.0011336118081309936,-5.6897670947746615E-5,383912.992165,6.91099941407E-12,1129.0678263,2.11016166425,7.35083989866,-4.2104535197
1080.0,-5890914.74666,-1468887.89283,2965029.65483,-1359030.21298,-5916580.68979,2966314.02071,4626.53228704,-3558.37217567,-4994.50459422,1.75621817019,7.64575092852,-3.83324412651,6758662.11723,1.10210265252,-0.021316143430444738,-0.20131565857946523,-0.02410309225035808,-2.0370306703018306,0.7888894703331418,-0.40291995598085667,-3.664730294018546E-5,-0.0011334340167389126,-6.025276441071464E-5,382615.708702,7.20410831208E-12,1135.63958297,1.75621817019,7.64575092852,-3.83324412651
1140.0,-5949369.03175,-1783612.59828,2658904.96671,-1078493.30727,-6116159.59655,2659978.45374,4721.07504834,-3091.66352777,-5212.72864769,1.39396074566,7.90518247478,-3.43804224265,6758662.11723,1.10647792161,-0.02492404341708861,-0.20118369705866465,-0.025943605601187383,-1.9739809588099893,0.8141782427665314,-0.31199122237648286,-4.0141537173516505E-5,-0.0011332347990845408,-6.360330435870796E-5,381373.114964,7.48814599554E-12,1141.66340206,1.39396074566,7.90518247478,-3.43804224265
1200.0,-5982981.22111,-2089672.52353,2340413.16932,-792940.132318,-6287290.8642,2341270.78449,4793.67495799,-2610.48474187,-5406.7463694,1.02507351745,8.12789654441,-3.02667828318,6758662.11723,1.11085319069,-0.028883412819300902,-0.2010466631520362,-0.02770167444283741,-1.906342893843701,0.835089944884598,-0.21648994137984995,-4.3784419471894915E-5,-0.0011330127875121684,-6.694836487850138E-5,380202.336435,7.7590399177E-12,1147.11912903,1.02507351745,8.12789654441,-3.02667828318
1260.0,-5991509.32546,-2385866.58275,2011033.59675,-503698.166694,-6429173.04247,2011671.35038,4843.98561294,-2117.07176185,-5575.64493382,0.651274268517,8.31282551192,-2.6010612582,6758662.11723,1.11522845978,-0.03320157084704024,-0.20090468976116643,-0.02935367691587101,-1.8347564423309244,0.851243752447137,-0.11699671566313904,-4.757496380021514E-5,-0.0011327665747156955,-7.028700608411275E-5,379119.343262,8.01259721908E-12,1151.98723184,0.651274268517,8.31282551192,-2.6010612582
1320.0,-5974817.39318,-2671040.59285,1672296.85424,-212112.564554,-6541140.65464,1672711.77894,4871.76448598,-1613.71933672,-5718.62819429,0.274306387484,8.45907769192,-2.16316994869,6758662.11723,1.11960372887,-0.03788420770616073,-0.2007577024058748,-0.03087582790781426,-1.7601397529808154,0.8623194042314907,-0.014371054008297298,-5.15121298029657E-5,-0.0011324947157841587,-7.36182739450626E-5,378138.674091,8.24461890324E-12,1156.24846939,0.274306387484,8.45907769192,-2.16316994869
1380.0,-5932876.65821,-2944091.74979,1325777.7021,80460.1180873,-6622667.40622,1325967.86694,4876.87421622,-1102.77031762,-5835.0205947,-0.104069352975,8.56594208807,-1.71504369194,6758662.11723,1.12397899796,-0.04293534982255204,-0.20060537405509274,-0.032244296732330334,-1.683658332990719,0.8680864723403127,0.09027987352975848,-5.5594821569408794E-5,-0.0011321957303362675,-7.694120015547445E-5,377273.184958,8.45103891031E-12,1159.884107,-0.104069352975,8.56594208807,-1.71504369194
1440.0,-5865766.22415,-3203972.86468,973087.721764,372658.259633,-6673368.74336,973052.241649,4859.28340212,-586.604695271,-5924.27051757,-0.482083148433,8.6328922848,-1.25877281965,6758662.11723,1.12835426705,-0.04835733270541111,-0.20044708168910916,-0.0334353260615398,-1.6066497274966174,0.868428418294561,0.1956769660676331,-5.9821886401028724E-5,-0.0011318681047544266,-8.025480204419036E-5,376533.828253,8.62808654921E-12,1162.87683742,-0.482083148433,8.6328922848,-1.25877281965
1500.0,-5773673.27738,-3449696.34278,615867.798494,663121.541664,-6693003.74703,615606.838617,4819.06689047,-67.628430542,-5985.95304931,-0.857964603813,8.65958945283,-0.796488794607,6758662.11723,1.13272953613,-0.0541507814705895,-0.20028186573462792,-0.03442535164565893,-1.5305129958303005,0.8633561132684352,0.30048011965294963,-6.419211358962692E-5,-0.0011315102944972973,-8.355808253148673E-5,375929.466258,8.77244310479E-12,1165.21147632,-0.857964603813,8.65958945283,-0.796488794607
1560.0,-5656892.82478,-3680337.88969,255780.45603,950497.319819,-6681476.35219,255295.231438,4756.40555737,451.73786822,-6019.77214562,-1.22995122007,8.64588444371,-0.330354094469,6758662.11723,1.13710480522,-0.06031459899783621,-0.20010839350012014,-0.035191122323758914,-1.4565848510577377,0.8530075085816866,0.4034124909902382,-6.870423321112489E-5,-0.0011311207265135874,-8.685003012959792E-5,375466.723086,8.88138327436E-12,1166.8754629,-1.22995122007,8.64588444371,-0.330354094469
1620.0,-5515826.9535,-3895039.93044,-105497.920298,1233446.96624,-6638835.88436,-106205.150078,4671.58557971,969.070365641,-6025.5621838,-1.59629688217,8.59181895409,0.137448106468,6758662.11723,1.14148007431,-0.06684596164967961,-0.19992492771975495,-0.03570981978930634,-1.3860294783382345,0.8376335257598128,0.503371086758925,-7.335691494170737E-5,-0.0011306978017431083,-9.012961899141096E-5,375149.878085,8.95289368482E-12,1167.85924417,-1.59629688217,8.59181895409,0.137448106468
1680.0,-5350983.61252,-4093014.72833,-466284.934963,1510652.15306,-6565276.90947,-467210.876186,4564.99719846,1481.95346136,-6003.28889111,-1.95528030342,8.497625745,0.604724404555,6758662.11723,1.1458553434,-0.0737403224467049,-0.19972930124787072,-0.03595917754203118,-1.3197637698206797,0.8175735940690751,0.5995019456914294,-7.814876690119264E-5,-0.0011302398977068428,-9.339580900837845E-5,374980.802908,8.98576118952E-12,1168.15658401,-1.95528030342,8.497625745,0.604724404555
1740.0,-5162974.91824,-4273547.19177,-824900.070469,1780821.04651,-6461138.39612,-826040.410293,4437.13297779,1987.99123664,-5953.04964202,-2.30521338067,8.36372790759,1.06928172851,6758662.11723,1.15023061249,-0.08099142156832762,-0.19951889887438964,-0.03591759840757754,-1.258427085458133,0.7932262108681627,0.6912308089177335,-8.307833453288025E-5,-0.0011297453711773013,-9.664754595782443E-5,374958.943572,8.97962539549E-12,1167.76482406,-2.30521338067,8.36372790759,1.06928172851
1800.0,-4952514.9884,-4435997.35904,-1179672.57443,2042694.38164,-6326902.19296,-1181022.00084,4288.58556662,2484.81882823,-5875.0731203,-2.64444941491,8.19073717181,1.5289379396,6758662.11723,1.15460588158,-0.0885913040256485,-0.1992906471408215,-0.03556426996520287,-1.202391374812693,0.7650199035374282,0.7782534483681932,-8.814409952284304E-5,-0.0011292125609570819,-9.988376170261002E-5,375081.347819,8.93499233769E-12,1166.68511611,-2.64444941491,8.19073717181,1.5289379396
1860.0,-4720417.31123,-4579802.552,-1528949.30741,2295051.38803,-6163190.82728,-1530501.5338,4120.04497215,2970.11367208,-5769.71834538,-2.97139115191,7.97945126077,1.98153241328,6758662.11723,1.15898115066,-0.09653034435838607,-0.19904101289513096,-0.034879277177714246,-1.1517991043639049,0.7333884990761941,0.8604982136134945,-9.33444787680886E-5,-0.0011286397907115438,-1.0310337444280984E-4,375342.737191,8.85320905419E-12,1164.92263944,-2.97139115191,7.97945126077,1.98153241328
1920.0,-4467591.65876,-4704479.19181,-1871102.5134,2536715.53753,-5970764.63424,-1872850.30781,3932.29535744,3441.60655985,-5637.47306582,-3.28449859834,7.73085029914,2.42493654487,6758662.11723,1.16335641975,-0.10479727820055242,-0.19876601118411658,-0.03384371147873545,-1.1066144703140466,0.6987526095348556,0.93807532203184,-9.86778233993494E-5,-0.0011280253719096849,-1.0630528902149378E-4,375735.622232,8.73640168282E-12,1162.48681226,-3.28449859834,7.73085029914,2.42493654487
1980.0,-4195040.55576,-4809624.27078,-2204537.47528,2766560.086,-5750518.22982,-2206472.69401,3726.21137791,3897.09245199,-5478.95152616,-3.58229656936,7.4460922902,2.85706412167,6758662.11723,1.16773168884,-0.11337924057681657,-0.19846122295977606,-0.0324397755338264,-1.066676039968099,0.6615075241457522,1.0112247542172077,-1.041424178644358E-4,-0.001127367606838326,-1.0948839728548656E-4,376250.45835,8.58738226835E-12,1159.39150229,-3.58229656936,7.4460922902,2.85706412167
2040.0,-3903855.31784,-4894916.4765,-2527700.0178,2983513.38179,-5503476.34364,-2529813.64338,3502.75407406,4334.44099187,-5294.89161681,-3.86338192553,7.12650768163,3.27588150415,6758662.11723,1.17210695793,-0.12226181081506239,-0.19812182285273047,-0.030650882865796685,-1.031743419567272,0.6220166289571568,1.0802701616768746,-1.0973647908052968E-4,-0.0011266647916808707,-1.1265157850058144E-4,376875.83903,8.40953146523E-12,1155.65523919,-3.86338192553,7.12650768163,3.27588150415
2100.0,-3595211.6747,-4960116.9658,-2839083.82159,3186563.91498,-5230789.03119,-2841366.00481,3262.96634031,4751.60666722,-5086.15142032,-4.12643045779,6.77359304646,3.67941755973,6758662.11723,1.17648222702,-0.13142906397530732,-0.19774261709299315,-0.028461751514483786,-1.001534669187939,0.5806090365819053,1.1455820709885467,-1.1545815566030545E-4,-0.0011259152196903162,-1.1579369982469911E-4,377598.722345,8.20666555467E-12,1151.30142861,-4.12643045779,6.77359304646,3.67941755973
2160.0,-3270364.9962,-5005069.78779,-3137237.51245,3374765.08257,-4933726.2884,-3139677.61834,3007.96799232,5146.63856673,-4853.70517037,-4.37020338194,6.38900391095,4.06577329389,6758662.11723,1.1808574961,-0.14086362873738675,-0.1973180915204866,-0.025858490898822847,-0.9757540496178233,0.5375801051466138,1.207550804144351,-1.2130552721990702E-4,-0.0011251171844163643,-1.1891361683619878E-4,378404.686044,7.98289658485E-12,1146.35856574,-4.37020338194,6.38900391095,4.06577329389
2220.0,-2930645.14156,-5029701.95675,-3420771.4912,3547239.64632,-4613672.09406,-3423358.14874,2738.95045726,5517.68968151,-4598.63864334,-4.59355340568,5.9745467669,4.43313112474,6758662.11723,1.18523276519,-0.15054675170429435,-0.1968424693275155,-0.022828681058459945,-0.9541112435902543,0.49319374248582964,1.2665679767308224,-1.2727660377523836E-4,-0.0011242689830093322,-1.2201017411943619E-4,379278.206025,7.74249400908E-12,1140.86044225,-4.59355340568,5.9745467669,4.43313112474
2280.0,-2577450.95345,-5034023.1775,-3688364.47094,3703183.86127,-4272117.90914,-3691085.62614,2457.17111372,5863.02570399,-4322.14400536,-4.79543033435,5.53217031098,4.77976374962,6758662.11723,1.18960803428,-0.16045836811698896,-0.19630977807417405,-0.01936144347991124,-0.9363337861255657,0.447685674124448,1.3230148424526083,-1.3336932523215288E-4,-0.0011233689195816548,-1.2508220590879007E-4,380202.952557,7.48975504855E-12,1134.84633516,-4.79543033435,5.53217031098,4.77976374962
2340.0,-2212244.42083,-5018125.22718,-3938769.68948,3841871.25495,-3910655.66432,-3941612.66178,2163.94730996,6181.03327914,-4025.5141409,-4.97488618394,5.06395595884,5.10404255435,6758662.11723,1.19398330337,-0.17057717898293806,-0.19571392525586648,-0.015447502760686075,-0.9221744604109244,0.40126711643307844,1.3772557294587864,-1.3958156097926806E-4,-0.0011224153086269852,-1.281285367885392E-4,381162.098391,7.22888930945E-12,1128.36115504,-4.97488618394,5.06395595884,5.10404255435
2400.0,-1836544.53614,-4982180.99909,-4170820.76717,3962656.0387,-3530970.2699,-4173772.30869,1860.6500908,6470.22766607,-3710.13649165,-5.13107977331,4.57210768613,5.40444551896,6758662.11723,1.19835857246,-0.18088073464527452,-0.19504878154154978,-0.011079238430608275,-0.9114151695322789,0.3541285058206979,1.429635057966129,-1.4591110958584903E-4,-0.0011214064784916555,-1.3114798245068433E-4,382138.632762,6.96392113454E-12,1121.45551427,-5.13107977331,4.57210768613,5.40444551896
2460.0,-1451920.87382,-4926443.21575,-4383437.1812,4064976.13476,-3134831.68476,-4386483.53872,1548.69766527,6729.25977126,-3377.48643729,-5.26328077062,4.05894125292,5.67956457666,6758662.11723,1.20273384154,-0.19134552480600694,-0.1943082706128118,-0.006250726337063377,-0.903868466784282,0.30644308619958666,1.480476753222843,-1.5235569861540732E-4,-0.001120340774901986,-1.3413935050896977E-4,383115.675292,6.69861096958E-12,1114.18564961,-5.26328077062,4.05894125292,5.67956457666
2520.0,-1059986.91893,-4851242.81987,-4575629.33029,4148355.80439,-2724086.58303,-4578756.30955,1229.54864842,6956.92251834,-3029.12025205,-5.37087317277,3.5268728718,5.9281123865,6758662.11723,1.20710911063,-0.2019470750067736,-0.19348646434889233,-9.577691097486534E-4,-0.8993776135872983,0.2583702589772763,1.5300851770536246,-1.5891298455710944E-4,-0.0011192165645090497,-1.371014413692791E-4,384076.783908,6.43639489126E-12,1106.6130995,-5.37087317277,3.5268728718,5.9281123865
2580.0,-662393.175639,-4756987.05301,-4746503.16519,4212407.8646,-2300649.65923,-4749696.19729,904.695111768,7152.15652278,-2666.66767347,-5.45335819984,2.978407383,6.14892848384,6758662.11723,1.21148437972,-0.21266004954898834,-0.19257768200327277,0.004802084654336146,-0.897815772155687,0.21005866419448824,1.5787469568373063,-1.6558055288372193E-4,-0.0011180322384997578,-1.4003304915570687E-4,385006.251148,6.1803396264E-12,1098.80399948,-5.45335819984,2.978407383,6.14892848384
2640.0,-260820.086576,-4644157.23354,-4895264.36301,4256835.4831,-1866494.61459,-4898508.57248,575.655478019,7314.05504394,-2291.82412158,-5.51035659068,2.41612600294,6.34098477708,6758662.11723,1.21585964881,-0.22345836075895684,-0.19157659184467038,0.0110295327001478,-0.8990847371146748,0.16164899953469095,1.626733284875172,-1.7235591823818686E-4,-0.0011167862162062012,-1.4293296269073544E-4,385889.383534,5.93310923107E-12,1090.82783651,-5.51035659068,2.41612600294,6.34098477708
2700.0,143029.204781,-4513306.24645,-5021222.02541,4281433.54312,-1423644.86836,-5024502.29981,243.967296295,7441.86819104,-1906.34260862,-5.54161028942,1.84267371467,6.50339036293,6758662.11723,1.2202349179,-0.23431528446758648,-0.1904783136445172,0.01772352297551227,-0.9031134595906,0.11327660431477467,1.6743023995580029,-1.7923652475755513E-4,-0.0011154769487586248,-1.4579996652864453E-4,386712.759103,5.69693952859E-12,1082.75552186,-5.54161028942,1.84267371467,6.50339036293
2760.0,547436.216034,-4365055.75871,-5123791.88362,4286089.57208,-974164.039851,-5127092.9441,-88.8200654077,7535.0063634,-1512.02538078,-5.54698351642,1.26074637043,6.6353956374,6758662.11723,1.22461018698,-0.24520358148006635,-0.1892785203423892,0.024881268932112094,-0.9098565077188095,0.06507384455269838,1.721702052912573,-1.8621974653759292E-4,-0.0011141029227349098,-1.4863284204005874E-4,387464.45869,5.47361785343E-12,1074.65674208,-5.54698351642,1.26074637043,6.6353956374
2820.0,950674.578558,-4200093.17523,-5202498.99515,4270784.23028,-520146.247208,-5205805.46788,-421.152773474,7593.04291018,-1110.71533498,-5.52646322134,0.673077577775,6.7363956839,6758662.11723,1.22898545607,-0.2560956247039046,-0.1879735371580182,0.032498275981651434,-0.9192925275442585,0.017172336940513146,1.7691718269904175,-1.9330288823579314E-4,-0.0011126626638275124,-1.5143036854850606E-4,388134.26706,5.26446868909E-12,1066.59675154,-5.52646322134,0.673077577775,6.7363956839
2880.0,1351017.54709,-4019168.35125,-5256979.92038,4235591.35791,-63706.2704558,-5260276.40827,-751.479890593,7615.71599841,-704.28725438,-5.48015891954,0.0824254411648,6.80593292463,6758662.11723,1.23336072516,-0.2669635315007364,-0.18656043642375708,0.04056837864417694,-0.9314227081911822,-0.030294953636919652,1.816945192747227,-2.0048318583705128E-4,-0.0011111547404999264,-1.5419132451287827E-4,388713.840609,5.07034962812E-12,1058.6330516,-5.48015891954,0.0824254411648,6.80593292463
2940.0,1746745.532,-3823090.07806,-5286984.36911,4180677.58104,393030.373695,-5290255.52374,-1078.26070948,7602.92968311,-294.638907134,-5.40830191683,-0.508440768804,6.84369902604,6758662.11723,1.23773599425,-0.27777930071386847,-0.1850371263974039,0.04908378775783773,-0.946269207214828,-0.07719171505381392,1.865251215555906,-2.0775780755163728E-4,-0.001109577767634423,-1.5691448875753918E-4,389196.838942,4.89166478689E-12,1050.81264739,-5.40830191683,-0.508440768804,6.84369902604
3000.0,2136153.61998,-3612722.35949,-5292376.31056,4106301.47935,847937.39722,-5295606.9037,-1399.97202195,7554.75417709,116.317946674,-5.31124393136,-1.09675394702,6.84953605368,6758662.11723,1.24211126334,-0.2885149536664485,-0.18340243244968277,0.058035146954947436,-0.9638734503261324,-0.1233763692007358,1.9143158069078419,-2.151238548850824E-4,-0.0011079304101605893,-1.5959864174624027E-4,389579.018289,4.72840200405E-12,1043.17061153,-5.31124393136,-1.09675394702,6.84953605368
3060.0,2517559.04895,-3388980.49772,-5273134.54234,4012812.3205,1298897.69838,-5276309.53698,-1715.11528751,7471.4253227,526.666594845,-5.18945512471,-1.67976241572,6.82343687653,6758662.11723,1.24648653242,-0.2991426783658038,-0.18165616900671566,0.06741159746588489,-0.9842941802218284,-0.16870022848843533,1.964362403626982,-2.2257836386165505E-4,-0.0011062113866559433,-1.6224256689635383E-4,389858.285386,4.58019486622E-12,1035.73039825,-5.18945512471,-1.67976241572,6.82343687653
3120.0,2889308.60313,-3152827.00713,-5229352.71723,3900648.36831,1743813.26381,-5232457.33761,-2022.22366647,7353.34327161,934.494414726,-5.04352155781,-2.25474304741,6.76554482506,6758662.11723,1.25086180151,-0.3096349759226027,-0.17979920083900433,0.07720085018967293,-1.0076050900506237,-0.2130057396062373,2.0156119291758845,-2.3011830640142555E-4,-0.0011044194729046598,-1.6484505193272467E-4,390034.7111,4.44640287047E-12,1028.50581833,-5.04352155781,-2.25474304741,6.76554482506
3180.0,3249785.89493,-2905267.37568,-5161238.82875,3770334.77393,2180614.96794,-5164258.62914,-2319.86888361,7201.07038306,1337.90187218,-4.87414209014,-2.81901418174,6.67615261189,6758662.11723,1.2552370706,-0.31996480819349205,-0.17783349238792578,0.08738926387076634,-1.0338918377936421,-0.25612484844454014,2.0682818589446375,-2.3774059186139178E-4,-0.0011025535054126636,-1.6740489027642873E-4,390110.503745,4.32619711234E-12,1021.50406958,-4.87414209014,-2.81901418174,6.67615261189
3240.0,3597418.50042,-2647345.69357,-5069114.15954,3622481.06096,2607272.22312,-5072035.0914,-2606.66788966,7015.32835501,1735.01143397,-4.68212474387,-3.36994827148,6.55570052779,6758662.11723,1.25961233969,-0.3301057454708588,-0.17576214399004067,0.09796192815543124,-1.063248201595551,-0.2978775477276309,2.1225841762783184,-2.4544206874066606E-4,-0.001100612384861636,-1.6992088246599454E-4,390089.942729,4.21863810767E-12,1014.72898684,-4.68212474387,-3.36994827148,6.55570052779
3300.0,3930684.91648,-2380140.16912,-4953411.69894,3457778.21787,3021802.43515,-4956220.17625,-2881.28928911,6796.99460607,2123.9763506,-4.46838255712,-3.90498419549,6.40477392979,6758662.11723,1.26398760878,-0.3400321129910029,-0.17358941411712614,0.1089027502735223,-1.0957711091680804,-0.3380707029507688,2.178721980342326,-2.5321952654972255E-4,-0.0010985950795001894,-1.7239183760707388E-4,389979.273773,4.12273655829E-12,1008.18379823,-4.46838255712,-3.90498419549,6.40477392979
3360.0,4248121.30806,-2104758.55224,-4814674.03892,3276995.41243,3422280.2197,-4817357.0012,-3142.4595046,6547.09793026,2502.98926769,-4.2339289529,-4.42163917965,6.22410004192,6758662.11723,1.26836287786,-0.34971913498314233,-0.17132072686573235,0.12019454408867193,-1.1315542682336077,-0.3764972921203478,2.236884498425165,-2.6106969783323396E-4,-0.0010965006284530123,-1.7481657484933933E-4,389786.567638,4.03749406662E-12,1001.87300306,-4.2339289529,-4.42163917965,6.22410004192
3420.0,4548328.01547,-1822333.48558,-4653550.75969,3080976.34491,3806846.33689,-4656095.73263,-3388.96864965,6266.81344962,2870.29062535,-3.97987265256,-4.91752027039,6.01454409236,6758662.11723,1.27273814695,-0.3591430749188354,-0.16896266426708753,0.13181912030318915,-1.1706801573104484,-0.41293623878348373,2.297240285786613,-2.689892603604598E-4,-0.0010943281449497277,-1.7719392488031147E-4,389521.544877,3.96192588277E-12,995.80331902,-3.97987265256,-4.91752027039,6.01454409236
3480.0,4829975.79243,-1534017.80365,-4470795.31905,2870635.25837,4173716.30259,-4473190.47225,-3619.6760832,5957.45689306,3224.17680656,-3.70741216439,-5.39033530848,5.77710481403,6758662.11723,1.27711341604,-0.3682813706266449,-0.16652294314123942,0.14375737668460065,-1.2132102299197862,-0.4471530605784008,2.3599284881380598,-2.769748394709688E-4,-0.0010920768194542687,-1.7952273144571538E-4,389195.369731,3.89507036474E-12,989.983858481,-3.70741216439,-5.39033530848,5.77710481403
3540.0,5091811.74723,-1240979.79992,-4267261.46147,2646952.62573,4521188.6371,-4269495.66324,-3833.51562167,5620.47823318,3563.00799723,-3.4178298796,-5.83790335535,5.51290933839,6758662.11723,1.28148868513,-0.3771127629316307,-0.16401037650625494,0.1559893872793771,-1.2591733674192718,-0.47890158828077123,2.4250482207380517,-2.850230105826771E-4,-0.0010897459226825526,-1.8180185286983676E-4,388820.416842,3.83599024604E-12,984.425772496,-3.4178298796,-5.83790335535,5.51290933839
3600.0,5332664.96062,-944398.481817,-4043899.16546,2410970.53513,4847652.71354,-4045962.03427,-4029.50038567,5257.45471481,3885.2157225,-3.11248580948,-6.25816452767,5.22320751493,6758662.11723,1.28586395422,-0.38561741653161774,-0.1614348197833325,0.16849448973105777,-1.308552909070398,-0.5079270188924672,2.49264640995748,-2.931303018430035E-4,-0.0010873348085154357,-1.840301636020583E-4,388410.014958,3.78376998765E-12,979.141589629,-3.11248580948,-6.25816452767,5.22320751493
3660.0,5551451.75548,-645458.833001,-3801750.14953,2163787.7958,5151596.17072,-3803632.10189,-4206.72726119,4870.08331244,4189.31002579,-2.7928109981,-6.6491892002,4.90936569081,6758662.11723,1.2902392233,-0.39377703190072627,-0.15880710226679842,0.1812513699727012,-1.361272998565128,-0.5339705323603184,2.562704851139583,-3.012931969388493E-4,-0.0010848429167737866,-1.8620655574576808E-4,387978.172268,3.73751229016E-12,974.144424896,-2.7928109981,-6.6491892002,4.90936569081
3720.0,5747180.5952,-345347.102147,-3541942.95901,1906554.7884,5431611.85718,-3543635.25372,-4364.3809566,4460.17265522,4473.88625938,-2.46030064639,-7.00918654134,4.57285998722,6758662.11723,1.29461449239,-0.401574947040322,-0.15613894456758962,0.19423814375470558,-1.4171854847294627,-0.5567756048474055,2.635127733597313,-3.0950813804795014E-4,-0.0010822697758696412,-1.8832994061693855E-4,387539.288378,3.69633571361E-12,969.447175251,-2.46030064639,-7.00918654134,4.57285998722
3780.0,5918956.58916,-45246.1367479,-3265687.65822,1640468.08441,5686404.27585,-3267182.43658,-4501.73763939,4029.63446069,4737.63145745,-2.11650698341,-7.33651234958,4.21526911059,6758662.11723,1.29898976148,-0.4089962280633494,-0.153442862936573,0.20743243464880867,-1.4760591153330884,-0.5760959771122989,2.7097313826850087,-3.177715289350904E-4,-0.001079615005305515,-1.903992502677991E-4,387107.858265,3.65937448088E-12,965.061769014,-2.11650698341,-7.33651234958,4.21526911059
3840.0,6065985.58576,253669.21994,-2974270.15348,1366764.86033,5914795.50107,-2975560.4754,-4618.16813851,3580.47451995,4979.33026473,-1.76303192131,-7.62967616384,3.8382667379,6758662.11723,1.30336503057,-0.4160277477079684,-0.15073206158331565,0.22081144839143468,-1.5375731182116994,-0.5917049844301205,2.7862383228864096,-3.2607973817398044E-4,-0.0010768783180201244,-1.9241343902272565E-4,386698.173767,3.62578091711E-12,960.998501349,-1.76303192131,-7.62967616384,3.8382667379
3900.0,6187577.83496,550236.651409,-2669046.17456,1086717.13304,6115730.54229,-2670126.05039,-4713.14070037,3114.78327863,5197.87039659,-1.40151953039,-7.88734762431,3.44361351674,6758662.11723,1.30774029966,-0.4226582509532075,-0.14802031427207563,0.23435204358174636,-1.601317280466549,-0.603405651318629,2.8642777812548754,-3.344291024982894E-4,-0.0010740595225840117,-1.943714849931864E-4,386324.028292,3.59473054629E-12,957.265465419,-1.40151953039,-7.88734762431,3.44361351674
3960.0,6283151.20459,843310.793089,-2351434.94331,801625.843486,6288282.13173,-2352299.36125,-4786.22328897,2634.72605916,5392.24760857,-1.03364837064,-8.10836206489,3.03314872114,6758662.11723,1.31211556874,-0.42887840716591125,-0.14532183663944834,0.248030798993758,-1.6668001396873284,-0.6110406593683949,2.9433942519534715,-3.4281593028881246E-4,-0.0010711585252049282,-1.9627239157348926E-4,385998.43044,3.56542956042E-12,953.86807594,-1.03364837064,-8.10836206489,3.03314872114
4020.0,6352233.93641,1131767.54422,-2022912.55937,512814.816125,6431654.91571,-2023557.50832,-4837.08542237,2142.53297091,5561.57015598,-0.66112371577,-8.29172532213,2.6087816048,6758662.11723,1.31649083783,-0.434680848246656,-0.14265115080376542,0.26182407785681194,-1.733465830749754,-0.6145010952955251,3.0230646721448524,-3.5123650515139613E-4,-0.0010681753315796283,-1.9811518891209418E-4,385733.332169,3.53712414765E-12,950.808675334,-0.66112371577,-8.29172532213,2.6087816048
4080.0,6394466.92992,1414508.25116,-1685005.1342,221624.622358,6545189.03245,-1685427.62199,-4865.49954043,1640.48855565,5705.06272661,-0.2856697054,-8.43661774939,2.17248249371,6758662.11723,1.32086610692,-0.44006019248316514,-0.14002294394647644,0.27570808964721555,-1.8007186307054677,-0.6137328659673955,3.102723256665164,-3.59687089615291E-4,-0.001065110048537971,-1.9989893535849105E-4,385539.376893,3.50911098674E-12,948.086209909,-0.2856697054,-8.43661774939,2.17248249371
4140.0,6409605.54408,1690463.74767,-1339281.70537,-70593.6240313,6628363.06181,-1339479.77224,-4871.34190026,1130.9212161,5822.06983233,0.0909785397685,-8.54239742886,1.72627365999,6758662.11723,1.32524137601,-0.4450130539611245,-0.1374519226284688,0.289658950052518,-1.8679526764543422,-0.6087398790714814,-3.101393836162514,-3.6816392891877064E-4,-0.0010619628855177204,-2.0162271887342603E-4,385425.67258,3.48074807872E-12,945.695962642,0.0909785397685,-8.54239742886,1.72627365999
4200.0,6397520.90908,1958598.23877,-987346.96392,-362484.510943,6680796.33552,-987319.691261,-4854.59299842,616.192476028,5912.05864751,0.467082805466,-8.60860257732,1.27222001869,6758662.11723,1.3296166451,-0.4495380375184353,-0.13495266465786548,0.3036527397960877,-1.9345831745895201,-0.5995835144272023,-3.023475841243174,-3.766632548872534E-4,-0.0010587341558194402,-2.0328565840771134E-4,385399.594481,3.45146499501E-12,943.629328929,0.467082805466,-8.60860257732,1.27222001869
4260.0,6358200.74227,2217913.01526,-630833.828325,-652694.583173,6702250.59907,-630581.342572,-4815.33752059,98.686120184,5974.62128502,0.840909640781,-8.63495314499,0.812419688989,6758662.11723,1.33399191418,-0.45363571942616454,-0.13253947035638244,0.31766556311262323,-2.000075078947732,-0.5863784583283103,-2.9472203548857117,-3.851812898864729E-4,-0.001055424277681615,-2.0488690522867575E-4,385466.621549,3.42077158173E-12,941.873621222,0.840909640781,-8.63495314499,0.812419688989
4320.0,6291749.66465,2467449.98737,-271395.898948,-939878.580497,6692631.01966,-270919.370684,-4753.76382153,-419.202737577,6009.47650283,1.21073815209,-8.6213516102,0.348994460597,6758662.11723,1.33836718327,-0.457308614124315,-0.13022621507830848,0.3316736066250907,-2.0639658014251907,-0.5692855014347509,-2.8730692224095415,-3.937142508332451E-4,-0.001052033775123645,-2.0642564420996265E-4,385630.20994,3.38826430035E-12,940.411895303,1.21073815209,-8.6213516102,0.348994460597
4380.0,6198389.01619,2706295.02659,89300.1727213,-1222705.63058,6651986.53731,89998.534488,-4670.16294012,-935.07860982,6016.47083678,1.57486770262,-8.56788297515,-0.115919794351,6758662.11723,1.34274245236,-0.4605611274941252,-0.12802620481121335,0.34565319938404976,-2.1258798363182847,-0.5485022770259075,-2.8013790699426897,-4.0225835327430224E-4,-0.0010485632785985982,-2.079010950602421E-4,385891.706264,3.35372002254E-12,939.228939146,1.57486770262,-8.56788297515,-0.115919794351
4440.0,6078456.17037,2933581.10582,449582.365547,-1499865.36899,6580509.55907,450499.323874,-4564.92715604,-1446.55656705,5995.57915741,1.93162548736,-8.47481397122,-0.580182724411,6758662.11723,1.34711772145,-0.46339949730045393,-0.12595203664542612,0.35958087472561295,-2.1855347745012894,-0.5242530660070965,-2.7324151596585513,-4.10809815503525E-4,-0.0010450135254155813,-2.093125135135251E-4,386250.302421,3.31725062231E-12,938.321964238,1.93162548736,-8.47481397122,-0.580182724411
4500.0,5932403.35046,3148491.22884,807780.986409,-1770073.95908,6478534.99924,808912.291644,-4438.54809634,-1951.27309811,5946.90465112,2.27937395415,-8.3425914847,-1.04165907831,6758662.11723,1.35149299054,-0.46583172156172226,-0.12401546582567376,0.37343343453621436,-2.2427395955518805,-0.4967787204239184,-2.6663529852860783,-4.1936486270709926E-4,-0.0010413853599544143,-2.1065919243046667E-4,386703.032995,3.2790832746E-12,937.68637922,2.27937395415,-8.3425914847,-1.04165907831
4560.0,5760795.95194,3350261.14125,1162236.3496,-2032079.98499,6346538.67133,1163576.75926,-4291.61440214,-2446.89685304,5870.67822823,2.61651804297,-8.1718402162,-1.49822822303,6758662.11723,1.35586825962,-0.4678674757864007,-0.12222728100838531,0.38718801635877353,-2.297387047312007,-0.46632752279771933,-2.603285797655357,-4.2791973113659817E-4,-0.0010376797336429419,-2.1194046287348835E-4,387244.815303,3.23951095729E-12,937.31308861,2.61651804297,-8.1718402162,-1.49822822303
4620.0,5564310.37755,3538181.8156,1511306.40374,-2284670.19177,6185135.04001,1512849.70691,-4124.80896706,-2931.1392229,5767.25736267,2.94151221641,-7.96335958944,-1.94779356359,6758662.11723,1.36024352871,-0.46951802005342486,-0.1205971892289607,0.4008221636805956,-2.3494422670393,-0.43314749426759125,-2.5432359047969415,-4.364706722820648E-4,-0.001033897704740612,-2.1315569508067217E-4,387868.53129,3.198881483E-12,937.188585775,2.94151221641,-7.96335958944,-1.94779356359
4680.0,5343731.39336,3711601.70492,1853374.27225,-2526675.04725,5995074.34437,1855113.31849,-3938.90576077,-3401.7647121,5637.12437041,3.25286725589,-7.71811992707,-2.38829182891,6758662.11723,1.3646187978,-0.47079609711114745,-0.11913371195153133,0.4143138994867817,-2.3989296722739657,-0.39748037040494455,-2.486167718173293,-4.450139570538207E-4,-0.0010300404378672371,-2.1430429939078496E-4,388565.149624,3.15757683017E-12,937.294528027,3.25286725589,-7.71811992707,-2.38829182891
4740.0,5099949.01623,3869928.75911,2186855.67412,-2756974.1013,5777239.10612,2188782.40663,-3734.76625238,-3856.60105965,5480.88413557,3.54915679872,-7.43725791317,-2.81770218869,6758662.11723,1.36899406689,-0.4717158226886303,-0.11784409341665951,0.4276418031053308,-2.4459197372644463,-0.3595572304029157,-2.4320009287976223,-4.535458799363496E-4,-0.001026109203341515,-2.1538572708801795E-4,389323.885482,3.1159628381E-12,937.605259995,3.54915679872,-7.43725791317,-2.81770218869
4800.0,4833954.94484,4012632.20033,2510206.19206,-2974501.11882,5532640.03908,2512311.685,-3513.33544997,-4293.54906743,5299.26129543,3.82902359293,-7.12207136408,-3.2340551677,6758662.11723,1.37336933598,-0.47229256931082175,-0.11673422233330195,0.44078509007166056,-2.4905167595009026,-0.3195956115339864,-2.380622708795783,-4.620627631194919E-4,-0.0010221053762752015,-2.1639947116644065E-4,390132.394821,3.07435217166E-12,938.086179365,3.82902359293,-7.12207136408,-3.2340551677
4860.0,4546838.54841,4139244.05376,2821928.35603,-3178248.96411,5262411.3788,2824202.85585,-3275.63757385,-4710.59209447,5093.09689754,4.09118544736,-6.77401333065,-3.63544132469,6758662.11723,1.37774460506,-0.4725428449964284,-0.11580856777373898,0.45372369467220947,-2.5328482413240305,-0.2777978617092688,-2.331898313949867,-4.7056096058600556E-4,-0.0010180304354561018,-2.1734506702289686E-4,390976.99921,3.03418000936E-12,938.781374305,4.09118544736,-6.77401333065,-3.63544132469
4920.0,4239782.42885,4249360.43155,3120578.51088,-3367274.215,4967805.65357,3123011.48142,-3022.77138254,-5105.8051779,4863.34454389,4.33444085595,-6.39468555705,-4.02001966409,6758662.11723,1.38211987415,-0.4724841681719123,-0.11507012994010518,0.46643835457021576,-2.5730561334511286,-0.23435046099048445,-2.285679841341507,-4.7903686215025804E-4,-0.0010138859620285995,-2.1822209305914317E-4,391842.936767,2.99715450859E-12,939.756422715,4.33444085595,-6.39468555705,-4.02001966409
4980.0,3914057.57391,4342642.56813,3404773.43795,-3540701.48677,4650187.92029,3407353.60914,-2755.90517152,-5477.36374286,4611.06603918,4.55767427605,-5.98583132249,-4.38602574993,6758662.11723,1.38649514324,-0.4721349402048605,-0.11452040626032162,0.4789106968329968,-2.611289926526582,-0.1894240582104637,-2.2418131571920035,-4.874868974340865E-4,-0.0010096736379385696,-2.1903017121068357E-4,392714.634271,2.96475721797E-12,941.062957605,4.55767427605,-5.98583132249,-4.38602574993
5040.0,3571018.12061,4418817.60653,3673196.70132,-3697727.44658,4311029.49095,3675912.12124,-2476.27146613,-5823.55186503,4337.42656198,4.75986104189,-5.54932769406,-4.73177949215,6758662.11723,1.39087041233,-0.4715143169337891,-0.11415937307016705,0.4911233245177328,-2.647701423005544,-0.14317400397400912,-2.2001431649641314,-4.959075397501551E-4,-0.0010053952441915392,-2.197689673778661E-4,393575.995165,2.9383651039E-12,942.74756366,4.75986104189,-5.54932769406,-4.73177949215
5100.0,3212095.7497,4477679.13556,3924604.69079,-3837624.50091,3951901.17771,3927442.78086,-2185.16143113,-6142.77005143,4043.68937919,4.94007189515,-5.08717722014,-5.05569257674,6758662.11723,1.39524568142,-0.47064208047021866,-0.11398548292267853,0.5030599028488443,-2.6824409484630087,-0.09574120335089398,-2.160517657216539,-5.042953099207358E-4,-0.001001052658896174,-2.20438191783675E-4,394410.697979,2.91929535405E-12,944.854844169,4.94007189515,-5.08717722014,-5.05569257674
5160.0,2838793.73353,4519087.47898,4157832.33478,-3959744.13965,3574466.08639,4160779.94782,-1883.91902024,-6433.54250685,3731.2101261,5.09747711592,-4.6014990955,-5.35627551185,6758662.11723,1.3996209505,-0.4695385125575845,-0.11399567736762654,0.5147052439921244,-2.7156547433214153,-0.047253152982093885,-2.1227900140573,-5.126467799760606E-4,-9.966478551157773E-4,-2.2103759923203966E-4,395202.499547,2.90883760332E-12,947.429232731,5.09747711592,-4.6014990955,-5.35627551185
5220.0,2452680.66112,4542969.73844,4371798.45793,-4063519.922,3180471.99013,4374841.93887,-1573.93489026,-6694.52385504,3401.43067591,5.23135023802,-4.09451983057,-5.63214426347,6758662.11723,1.40399621959,-0.4682242706284245,-0.11418541483576795,0.526045389315597,-2.747483289882748,0.002174936343811271,-2.0868209983546784,-5.209585767479548E-4,-9.921828985295495E-4,-2.2156698929109409E-4,395935.537425,2.90828290847E-12,950.516202765,5.23135023802,-4.09451983057,-5.63214426347
5280.0,2055383.86564,4549319.5926,4565510.75941,-4148470.09074,2771743.31692,4568636.0083,-1256.64010515,-6924.50528615,3055.87262399,5.34107133428,-3.56856345885,-5.8820264548,6758662.11723,1.40837148868,-0.46672026759308183,-0.11454871308211168,0.5370676880410346,-2.778060360844842,0.05243900073589147,-2.052479867948193,-5.292273853552594E-4,-9.876599449088412E-4,-2.2202620636997146E-4,396594.626012,2.91894962574E-12,954.162871194,5.34107133428,-3.56856345885,-5.8820264548
5340.0,1648582.58077,4538196.85595,4738070.38967,-4214199.80314,2350172.78614,4741262.9268,-933.499656143,-7122.42010356,2696.13041397,5.42612985797,-3.02604131792,-6.10476710489,6758662.11723,1.41274675777,-0.46504755625702054,-0.1150782054574283,0.5477608712005395,-2.8075126125698526,0.10344501368406549,-2.019644990528113,-5.374499525321739E-4,-9.83081237418875E-4,-2.2241513971705875E-4,397165.541088,2.94220226063E-12,958.41769949,5.42612985797,-3.02604131792,-6.10476710489
5400.0,1234000.85375,4509726.80105,4888676.1051,-4260402.96815,1917712.73092,4891921.13779,-606.005825091,-7287.34864573,2323.86413382,5.48612702795,-2.46944144101,-6.29933388303,6758662.11723,1.41712202686,-0.4632272191364446,-0.11576521012451749,0.5581151198108502,-2.835959583112034,0.15510793439577564,-1.988204112625602,-5.456230898396623E-4,-9.784491037581505E-4,-2.2273372334145701E-4,397635.287741,2.97945624016E-12,963.328798147,5.48612702795,-2.46944144101,-6.29933388303
5460.0,813400.243804,4464099.24923,5016627.98145,-4286863.68153,1476366.14452,5019910.47242,-275.671418609,-7418.52256082,1940.79201188,5.52077774633,-1.90131759758,-6.46482185663,6758662.11723,1.42149729594,-0.46128026425865065,-0.11659981118931462,0.5681221262443534,-2.8635139889411674,0.20735072981749675,-1.9580544039440826,-5.537436767093071E-4,-9.73765953137279E-4,-2.2298193581924962E-4,397992.347058,3.0321592582E-12,968.940263738,5.52077774633,-1.90131759758,-6.46482185663
5520.0,388572.336002,4401567.43492,5121330.66924,-4293457.25169,1028177.49014,5124635.40604,55.9770985224,-7515.32841418,1548.68264364,5.5299120386,-1.32427802287,-6.60045771136,6758662.11723,1.42587256503,-0.4592275273590132,-0.11757095059771197,0.5777751478944685,-2.8902822444049017,0.2601034773913363,-1.9291023736706967,-5.618086633423015E-4,-9.690342731042305E-4,-2.2315980003693902E-4,398226.897326,3.10173978898E-12,975.286154449,5.5299120386,-1.32427802287,-6.60045771136
5580.0,-38668.8987613,4322446.64981,5202296.17572,-4280150.81135,575223.314711,5205607.84101,387.406541822,-7577.31061137,1149.34698168,5.51347600736,-0.740973877864,-6.70560342383,6758662.11723,1.43024783412,-0.45708958075908895,-0.11866652955192913,0.5870690522470292,-2.9163651530362222,0.3133025496686239,-1.9012637374647645,-5.698150734321626E-4,-9.642566262421698E-4,-2.2326738283889028E-4,398331.005993,3.18951795848E-12,982.382306354,5.51347600736,-0.740973877864,-6.70560342383
5640.0,-466494.865932,4227112.67352,5259146.16031,-4247003.51145,119602.708286,5262449.4027,717.083988027,-7604.17362171,744.630122134,5.47153229246,-0.154087482831,-6.77975936839,6758662.11723,1.43462310321,-0.45488664900438297,-0.11987351811684097,0.5960003526734972,-2.941858742902933,0.3668898780354359,-1.8744633007127105,-5.777600067216392E-4,-9.594356467363944E-4,-2.2330479459797999E-4,398298.789151,3.29658512186E-12,990.217249976,5.47153229246,-0.154087482831,-6.77975936839
5700.0,-893070.199269,4115999.99794,5291613.73233,-4194166.29559,-336572.348754,5294893.23735,1043.48376865,-7595.78349017,336.402922188,5.40426003154,0.433679631159,-6.82256684099,6758662.11723,1.4389983723,-0.45263853120941366,-0.12117807164286348,0.604567234281032,-2.9668552385291593,0.4208122904461889,-1.848634917896798,-5.856406413693779E-4,-9.545740368103718E-4,-2.2327218869199746E-4,398126.535827,3.42367473266E-12,998.744692521,5.40426003154,0.433679631159,-6.82256684099
5760.0,-1316560.66962,3989599.8534,5299544.74184,-4121881.25539,-791186.707579,5302785.30284,1365.09444609,-7552.1686281,-73.4465160528,5.31195431658,1.0196188066,-6.83380998483,6758662.11723,1.44337364138,-0.4503645299180925,-0.12256565259342628,0.6127695693918179,-2.9914441826359117,0.47502091658750567,-1.823721588343893,-5.934542361472931E-4,-9.496745630867286E-4,-2.2316976091546882E-4,397812.794976,3.57106093846E-12,1007.88062989,5.31195431658,1.0196188066,-6.83380998483
5820.0,-1735141.11705,3848458.04486,5282898.55682,-4030480.56838,-1242131.79842,5286085.14536,1680.42574188,-7473.51987588,-483.021458886,5.19502514392,1.60102643231,-6.81341710429,6758662.11723,1.44774891047,-0.44808338616351356,-0.12402115635807894,0.6206089222449794,-3.0157137440559203,0.5294706531896174,-1.7996757558286829,-6.011981324284964E-4,-9.447400528138481E-4,-2.2299774880246928E-4,397358.423623,3.73852135549E-12,1017.50731979,5.19502514392,1.60102643231,-6.81341710429
5880.0,-2147003.37239,3693172.60724,5241748.32183,-3920385.02255,-1687315.35993,5244866.15734,1988.01538684,-7360.18983391,-890.42521454,5.0539958566,2.17521615576,-6.76146135523,6758662.11723,1.45212417956,-0.44581322030652754,-0.12552903964798642,0.6280885427448131,-3.039752276783894,0.5841196815999048,-1.7764598975175783,-6.088697560024393E-4,-9.397733900488355E-4,-2.2275643089358487E-4,396766.595257,3.92538015518E-12,1027.48400002,5.0539958566,2.17521615576,-6.76146135523
5940.0,-2550364.1343,3524391.28931,5176280.69576,-3792102.13293,-2124671.10633,5179315.31406,2286.43586238,-7212.69146082,-1293.76982917,4.88950108005,2.73953108461,-6.67816080219,6758662.11723,1.45649944865,-0.4435714781382292,-0.12707345009657445,0.6352133491401392,-3.0636502340267544,0.6389290294382209,-1.7540475187714826,-6.164666186683991E-4,-9.347775117322723E-4,-2.2244612590164494E-4,396042.768155,4.13061467528E-12,1037.66151364,4.88950108005,2.73953108461,-6.67816080219
6000.0,-2943472.76749,3342808.87617,5086795.06833,-3646223.85764,-2552168.28866,5089732.38875,2574.30100298,-7031.69594127,-1691.18476707,4.70228415407,3.29135592625,-6.56387783486,6758662.11723,1.46087471774,-0.44137488174719375,-0.1286383557406198,0.6419898996853909,-3.0875025991680287,0.6938621674869204,-1.7324247219960738,-6.239863196509405E-4,-9.297554037367906E-4,-2.2206719184778424E-4,395194.61397,4.35298276682E-12,1047.89658813,4.70228415407,3.29135592625,-6.56387783486
6060.0,-3324618.988,3149164.36069,4973702.25762,-3483423.92288,-2967821.10616,4976528.64844,2850.27242952,-6818.02982845,-2080.82553658,4.49319406585,3.8281290127,-6.41911793876,6758662.11723,1.46524998683,-0.4392393845179072,-0.13020767312305404,0.6484263534579728,-3.1114120846945714,0.7488846318637282,-1.7115926034012396,-6.31426546798957E-4,-9.247100968318728E-4,-2.2162002509802127E-4,394231.907527,4.59112467506E-12,1058.06221171,4.49319406585,3.8281290127,-6.41911793876
6120.0,-3692140.40164,2944237.97471,4837522.69291,-3304454.76758,-3369697.92476,4840225.03469,3113.06578376,-6572.67147001,-2460.88222271,4.26318189139,4.34735415755,-6.24452781759,6758662.11723,1.46962525591,-0.4371801297455193,-0.131765392833624,0.654532420590197,-3.1354934944724935,0.803963659520197,-1.6915708732101344,-6.387850775805084E-4,-9.196446626486494E-4,-2.2110505936667518E-4,393166.379416,4.84361130425E-12,1068.05264919,4.26318189139,4.34735415755,-6.24452781759
6180.0,-4044429.86193,2728848.09142,4678884.08963,-3110144.12077,-3755930.25983,4681449.83629,3361.45673485,-6296.74672878,-2829.5878877,4.01329675464,4.84661229097,-6.04089286716,6758662.11723,1.474000525,-0.4352114122630345,-0.1332957014012905,0.6603193023434035,3.1233054199592467,0.8590678212321274,-1.6724033349353604,-6.460597798891633E-4,-9.145622095853569E-4,-2.2052276465171484E-4,392011.533561,5.10893581088E-12,1077.78371233,4.01329675464,4.84661229097,-6.04089286716
6240.00000001,-4379942.61426,2503848.01022,4498518.62547,-2901391.22606,-4124721.48142,4500935.86271,3594.2867292,-5991.52401358,-3185.22680065,3.74468131612,5.32357281808,-5.80913400399,6758662.11723,1.47837579409,-0.43334664261493844,-0.1347830985456219,0.6657996214902668,3.0984537082956525,0.9141666292565331,-1.6541662789867384,-6.532486126286839E-4,-9.094658787197767E-4,-2.1987364611076703E-4,390782.432571,5.38546365073E-12,1087.18999397,3.74468131612,5.32357281808,-5.80913400399
6300.00000001,-4697203.1939,2270122.6363,4297259.62913,-2679162.72958,-4474355.20112,4299517.13002,3810.46845586,-5658.40863806,-3526.14245756,3.45856680525,5.77600464604,-5.55030385439,6758662.11723,1.48275106318,-0.4315983133252195,-0.1362125089119003,0.6709873436248812,3.0729353653666385,0.9692300836228298,-1.6369816046081451,-6.603496261057255E-4,-9.043588397112021E-4,-2.1915824291094424E-4,389495.454263,5.67136269717E-12,1096.22083778,3.45856680525,5.77600464604,-5.55030385439
6360.00000001,-4994812.04601,2028585.06696,4076037.79533,-2444488.24916,-4803203.30081,4078125.0727,4008.99100062,-5298.93652931,-3850.74535382,3.15626761312,6.20178682502,-5.26558231304,6758662.11723,1.48712633227,-0.4299779668985023,-0.13756938752059863,0.6758976900463965,3.0464864763406325,1.0242280957814827,-1.621037916441874,-6.67360962220077E-4,-8.992442867076411E-4,-2.1837712700711437E-4,388168.023264,5.9645328766E-12,1104.83630794,3.15626761312,6.20178682502,-5.26558231304
6420.00000001,-5271451.83687,1780173.09724,3835876.94211,-2198455.64429,-5109733.56495,3837784.29759,4188.92466288,-4914.7673109,-4157.52047161,2.83917546489,6.59891874888,-4.95627148336,6758662.11723,1.49150160135,-0.4284961653116923,-0.1388398182901701,0.6805470430277829,3.0187448809298036,1.0791296776873849,-1.6066256820030103,-6.742808544576803E-4,-8.941254342757089E-4,-2.1753090190795274E-4,386818.322156,6.26254913157E-12,1113.0038162,2.83917546489,6.59891874888,-4.95627148336
6480.00000001,-5525893.42659,1525845.65751,3577889.32859,-1942206.00776,-5392516.87993,3579607.89799,4349.42541091,-4507.67678851,-4445.03444548,2.50875319372,6.96552986174,-4.62379001531,6758662.11723,1.49587687044,-0.42716246080763626,-0.14001060510309202,0.6849528442289404,2.989188454376373,1.1339016772773973,-1.5941985050093292,-6.811076276881708E-4,-8.890055133549537E-4,-2.1662020138788938E-4,385464.987041,6.56262603836E-12,1120.69560478,2.50875319372,6.96552986174,-4.62379001531
6540.00000001,-5757001.4749,1266579.19608,3303270.55352,-1676928.40143,-5650233.96527,3304792.3484,4489.73895208,-4079.54886919,-4711.94237066,2.16652814048,7.29988881794,-4.26966685945,6758662.11723,1.50025213953,-0.42598536798381664,-0.14106935501827816,0.6891334871844187,2.957021806070642,1.1885065989782297,-1.5844860174835607,-6.878396977704344E-4,-8.838877672505824E-4,-2.156456881763665E-4,384126.792817,6.86160842011E-12,1127.88702314,2.16652814048,7.29988881794,-4.26966685945
6600.00000001,-5963739.65288,1003364.01964,3013294.05716,-1403854.3599,-5881681.60392,3014612.00232,4609.2043966,-3632.36694881,-4956.9942196,1.81408520624,7.60041204429,-3.89553446008,6758662.11723,1.50462740862,-0.4249723372005153,-0.1420045533396094,0.693108204778548,2.920952917147887,1.2428984507705318,-1.578716865809404,-6.944755709766483E-4,-8.787754476733067E-4,-2.1460805262091644E-4,382822.333747,7.1559897172E-12,1134.55542921,1.81408520624,7.60041204429,-3.89553446008
6660.00000001,-6145175.43517,737200.604854,2709305.25092,-1124252.18709,-6085778.34074,2710413.21771,4707.25749461,-3168.20480485,-5179.04083401,1.45305958683,7.86567165523,-3.50312141305,6758662.11723,1.50900267771,-0.424129729500432,-0.1428056303786175,0.696896952657446,2.878711419055565,1.2970139233716516,-1.5791000854703738,-7.010138432278263E-4,-8.736718108420244E-4,-2.1350801132405953E-4,381569.705136,7.44195810877E-12,1140.67952686,1.45305958683,7.86567165523,-3.50312141305
6720.00000001,-6300484.4489,469095.894285,2392715.30112,-839421.071708,-6261569.62072,2393608.13634,4783.43342878,-2689.21703501,-5377.03946085,1.0851292214,8.0944026738,-3.09424461794,6758662.11723,1.51337794679,-0.4234627932858496,-0.14346301985267815,0.7005202895849522,2.8258801543319767,1.350751060217778,-1.5899932207170544,-7.074531991583231E-4,-8.685801136318767E-4,-2.1234630577496576E-4,380386.192012,7.7154688398E-12,1146.23897034,1.0851292214,8.0944026738,-3.09424461794
6780.00000001,-6428954.35732,200059.589816,2064994.59522,-550685.049095,-6408232.34096,2065668.14547,4837.36914588,-2197.62908435,-5550.05880334,0.712006988949,8.28550951414,-2.67080095753,6758662.11723,1.51775321588,-0.4229756431163746,-0.14396820897072463,0.7039992557233652,2.752565976539162,1.4039080648241047,-1.6212312293140285,-7.137924110092949E-4,-8.635036098200455E-4,-2.1112370095319167E-4,379287.970735,7.97233944065E-12,1151.21408929,0.712006988949,8.28550951414,-2.67080095753
6840.00000001,-6529988.25818,-68899.5431636,1727665.9203,-259386.837223,-6525078.79305,1728117.05171,4868.80521362,-1695.72690678,-5697.28355922,0.335432689131,8.43807168389,-2.23475854054,6758662.11723,1.52212848497,-0.42267124105660303,-0.14431378034994774,0.7073552498285872,2.6314114511798383,1.4559581557914345,-1.7001145088157592,-7.200303373598457E-4,-8.584455463926368E-4,-2.098409839376527E-4,378289.829283,8.20836158831E-12,1155.58556369,0.335432689131,8.43807168389,-2.23475854054
6900.00000001,-6603107.57911,-336777.347726,1382297.38536,33118.4241105,-6611559.97539,1382523.99857,4877.58719077,-1185.84630873,-5818.01842161,-0.042835154333,8.55134866875,-1.78814754743,6758662.11723,1.52650375406,-0.4225513810414612,-0.14449344600049796,0.7106099063405458,2.3560107413527356,1.5048086346938276,-1.9329927584406448,-7.261659216976018E-4,-8.534091599440657E-4,-2.0849896249988795E-4,377404.91173,8.41943450712E-12,1159.33446243,-0.042835154333,8.55134866875,-1.78814754743
6960.00000001,-6647954.45414,-602577.910517,1030495.12036,325469.50147,-6667268.25785,1030496.16065,4863.66650119,-670.362025151,-5911.69151973,-0.42102762763,8.62478396499,-1.33305072161,6758662.11723,1.53087902315,-0.42261667680725395,-0.14450207368449497,0.7137849733043955,1.3965646865390788,1.5351877881234894,-2.849609666899121,-7.321981908391899E-4,-8.483976731689458E-4,-2.0709846370605133E-4,376644.492032,8.60172604118E-12,1162.44313616,-0.42102762763,8.62478396499,-1.33305072161
7020.00000001,-6664293.56828,-865317.147184,673895.786178,616305.433341,-6691939.38418,673671.248721,4827.10080469,-151.676579897,-5977.85727953,-0.797373856486,8.65800823011,-0.871593551729,6758662.11723,1.53525429223,-0.42286655392074596,-0.1443357060305245,0.7169021920318102,0.35080204743546056,1.5088644305216325,2.4310038550605078,-7.381262532163227E-4,-8.434142914552053E-4,-2.0564033252588429E-4,376017.781688,8.75183116956E-12,1164.89595985,-0.797373856486,8.65800823011,-0.871593551729
7080.00000001,-6652013.45928,-1124026.32552,314158.930759,904271.902734,-6685453.80103,313709.861002,4768.05386036,367.79101586,-6016.19868723,-1.17010948845,8.65084152626,-0.405934192879,6758662.11723,1.53962956132,-0.42329924645779987,-0.14399157282424713,0.7199831793244204,0.04859613929214889,1.4614599516458397,2.172405277854364,-7.439492970187692E-4,-8.384621995731982E-4,-2.0412543043470704E-4,375531.775242,8.86691647642E-12,1166.6798577,-1.17010948845,8.65084152626,-0.405934192879
7140.00000001,-6611127.26811,-1377755.514,-47040.7722021,1188027.5863,-6647837.30532,-47712.2831352,4686.79488046,885.616672055,-6026.52894159,-1.53748518371,8.60329463603,0.0617468224201,6758662.11723,1.54400483041,-0.4239117988918232,-0.14346809694670623,0.7230493130587539,-0.08049849785719193,1.4110713221440665,2.087389147968431,-7.496665882151514E-4,-8.335445584852423E-4,-2.025546340450803E-4,375191.136803,8.94484299954E-12,1167.78470353,-1.53748518371,8.60329463603,0.0617468224201
7200.00000001,-6541772.93252,-1625576.94369,-408021.365155,1466250.44943,-6579261.00527,-408912.189933,4583.69737574,1399.38267889,-6008.79248375,-1.89777506955,8.51556943547,0.529257031085,6758662.11723,1.5483800995,-0.4247000736597699,-0.14276489444937743,0.7261216218081236,-0.15814420019909328,1.3601167342894167,2.0543479233426667,-7.552774684515674E-4,-8.286645022546406E-4,-2.0092883374893926E-4,374998.12994,8.9842599549E-12,1168.20364042,-1.89777506955,8.51556943547,0.529257031085
7260.00000001,-6444212.82066,-1866588.27182,-767101.49153,1737643.95686,-6480040.59386,-768207.480952,4459.2374957,1906.68915984,-5963.065397,-2.24928511305,8.38805831438,0.994402589679,6758662.11723,1.55275536859,-0.4256587649031181,-0.14188276927088223,0.7292206791402513,-0.2145115731097382,1.3091801315849603,2.043166035523971,-7.607813528489861E-4,-8.23825135078622E-4,-1.9924893236496343E-4,374952.592411,8.98466344125E-12,1167.93334832,-2.24928511305,8.38805831438,0.994402589679
