time,gePosition_m_X,gePosition_m_Y,gePosition_m_Z,eiPosition_m_X,eiPosition_m_Y,eiPosition_m_Z,eiVelocity_m_s_X,eiVelocity_m_s_Y,eiVelocity_m_s_Z,eiAccel_m_s2_X,eiAccel_m_s2_Y,eiAccel_m_s2_Z,semiMajorAxis_m,gast_rad,eulerAngle_rad_Roll,eulerAngle_rad_Pitch,eulerAngle_rad_Yaw,eulerAngleWrtEi_rad_Roll,eulerAngleWrtEi_rad_Pitch,eulerAngleWrtEi_rad_Yaw,bodyAngularRateWrtEi_rad_s_Roll,bodyAngularRateWrtEi_rad_s_Pitch,bodyAngularRateWrtEi_rad_s_Yaw,altitudeMsl_m,airDensity_kg_m3,ambientTemperature_dgK,eiGravitation_m_s2_X,eiGravitation_m_s2_Y,eiGravitation_m_s2_Z
0.0,-1428622.33421604,4163200.23408806,5136049.85325658,-4292653.40999999,955168.470000001,5139356.56999999,109.649662999999,-7527.72648999999,1484.521489,5.52898656935719,-1.23026788740987,-6.61954989994584,6758662.11722884,1.02331933954551,0.0,-0.202458193231342,-2.0E-16,-2.4715939053549,-0.0371889644761349,-1.42899313488854,0.0,-0.0011344542745508,0.0,398254.541169311,3.4018E-12,990.9677734375,5.52898656935719,-1.23026788740987,-6.61954989994584
60.0,-1789712.66688805,3920255.07286162,5213136.77866216,-4276130.76360611,501640.150638724,5216447.94770976,440.899504425956,-7584.04304560365,1084.18939672292,5.50841669093324,-0.646201702281512,-6.7197124061559,6758662.11722884,1.02769460895833,-2.3649933841E-6,-0.202456042614917,-1.006005802217E-4,-2.47205929657798,0.016120423674086,-1.38666117966429,-7.049133021E-7,-0.0011344779883362,-3.3028527039E-6,398336.992349341,3.2024E-12,984.492431640625,5.50841669093324,-0.646201702281512,-6.7197124061559
120.0,-2144732.04662911,3662345.06425606,5266057.40817675,-4239785.46485069,45786.4492663356,5269357.6801007,770.149856360689,-7605.20775889383,678.777242699508,5.46236021841804,-0.0589893241270064,-6.78881750197501,6758662.11722884,1.03206987837114,-2.51197970299E-5,-0.202449046803767,-4.002575139568E-4,-2.47030794948922,0.0692802951960854,-1.34410218239072,-1.5682337123E-6,-0.0011344959092939,-6.615081428E-6,398282.351312239,3.31E-12,992.429565429687,5.46236021841804,-0.0589893241270064,-6.78881750197501
180.0,-2492166.13162727,3390598.74813147,5294563.01581359,-4183783.25764149,-410279.480789288,5297837.08956814,1095.87688042975,-7591.11290731491,270.159254331848,5.39101509822691,0.528665740843039,-6.82652947798945,6758662.11722886,1.03644514778395,-9.17988451905E-5,-0.202436413625718,-8.945341370668E-4,-2.46631584767114,0.122194573081485,-1.3010762841751,-2.589767053E-6,-0.0011345075710701,-9.9359410654E-6,398087.267115156,3.4386E-12,1001.05029296875,5.39101509822691,0.528665740843039,-6.82652947798945
240.0,-2830524.93703088,3106195.59239748,5298517.77706242,-4108380.89026462,-864442.894077518,5301750.47079897,1416.57209400251,-7541.81319429646,-139.774483847831,5.29469509567264,1.11405482451908,-6.83265572642935,6758662.11722887,1.04082041719676,-2.259053144209E-4,-0.202417401914572,-0.0015773854823156,-2.46003131551207,0.174763491844318,-1.2573391712887,-3.7692822606E-6,-0.0011345124462374,-1.32646798766E-5,397750.659501287,3.5884E-12,1010.26550292968,5.29469509567264,1.11405482451908,-6.83265572642935
300.0,-3158349.27065467,2810360.86253665,5277899.46242047,-4013924.98616905,-1314597.20057466,5281075.78379538,1730.74928789974,-7457.52569377284,-549.126655787515,5.17382866282781,1.69447627941295,-6.80714795491089,6758662.11722887,1.04519568660958,-4.507973880676E-4,-0.202391344152084,-0.0024411867660692,-2.45137464563143,0.226881529601776,-1.21263857844644,-5.1065108489E-6,-0.0011345099468991,-1.66005389141E-5,397273.760669376,3.7594E-12,1019.95324707031,5.17382866282781,1.69447627941295,-6.80714795491089
360.0,-3474217.08356266,2504360.33240191,5232799.61189785,-3900850.5020311,-1758653.68795,5235904.8275507,2036.95136094464,-7338.62906255867,-956.001393645517,5.02895729882099,2.26724769265308,-6.75010277495459,6758662.11722887,1.04957095602238,-7.895747310491E-4,-0.202357666624334,-0.0034767694934719,-2.44023743940509,0.278435209191047,-1.16671093034142,-6.6011463063E-6,-0.0011344994253703,-1.99427514561E-5,396660.117186663,3.9509E-12,1029.97082519531,5.02895729882099,2.26724769265308,-6.75010277495459
420.0,-3776749.70791158,2189494.85846895,5163423.18837886,-3769678.7790014,-2194551.17459277,5166442.89226163,2333.75704093038,-7185.66202019733,-1358.5129738363,4.86073340379134,2.82971808104519,-6.66176165594908,6758662.11722888,1.0539462254352,-0.0012649656658203,-0.202315906339491,-0.0046734650107376,-2.42648179091992,0.329300716765542,-1.11927819399991,-8.25284343E-6,-0.0011344801749376,-2.32905424503E-5,395915.551843895,4.162E-12,1040.1689453125,4.86073340379134,2.82971808104519,-6.66176165594908
480.0,-4064617.9545509,1867094.84019338,5070087.7100027,-3621015.19485924,-2620265.5495136,5073007.89024474,2619.78746170981,-6999.32109896087,-1754.79449109399,4.6699176297139,3.37928001560932,-6.54251023745084,6758662.11722888,1.05832149484801,-0.0018992155567134,-0.202265724027124,-0.0060191552899972,-2.40993951105965,0.379341293356083,-1.07004508673896,-1.00612175976E-5,-0.001134451430697,-2.66431279689E-5,395048.085877314,4.3915E-12,1050.40612792968,4.6699176297139,3.37928001560932,-6.54251023745084
540.0,-4336548.0431051,1538514.58951189,4953221.86403477,-3455546.42660967,-3033819.15548751,4956028.96803418,2893.71256636816,-6780.4576698069,-2143.00647189948,4.45737573340149,3.91338162296558,-6.39287699509346,6758662.11722889,1.06269676426082,-0.0027139769246003,-0.202206912629534,-0.0075003306926891,-2.39041168720869,0.428404367937177,-1.01869688944024,-1.202584398E-5,-0.001134412370472,-2.99997146785E-5,394067.822610331,4.6383E-12,1060.55859375,4.45737573340149,3.91338162296558,-6.39287699509346
600.0,-4591327.33761619,1205126.63283167,4813363.60702509,-3274037.33485035,-3433289.97224997,4816044.60446426,3154.2573068229,-6530.07425328215,-2521.34538840933,4.22407493918386,4.42953841007291,-6.21353125792592,6758662.11722891,1.06707203367362,-0.0037302018258226,-0.202139400800997,-0.0091021544224584,-2.36766901631591,0.476318424105564,-0.964898263034113,-1.41462566979E-5,-0.0011343621158125,-3.33594993257E-5,392986.794192726,4.901E-12,1070.52355957031,4.22407493918386,4.42953841007291,-6.21353125792592
660.0,-4827809.86129834,868315.969072557,4651157.7583823,-3077327.48299943,-3816820.55719275,4653700.20187409,3400.20761071366,-6249.32012759414,-2888.05203397398,3.97107982105513,4.92534485815703,-6.00528057770764,6758662.11722891,1.07144730308643,-0.0049680370374637,-0.202063251049506,-0.0108085333486836,-2.3414535456287,0.522889633075078,-0.908293668095628,-1.64219479237E-5,-0.0011342997330758,-3.67216682397E-5,391818.773730785,5.1781E-12,1080.21948242187,3.97107982105513,4.92534485815703,-6.00528057770764
720.0,-5044921.5645584,529474.307459848,4467353.0968233,-2866327.3062053,-4182626.70183816,4469745.17990405,3630.41608710308,-5939.48624933572,-3241.41972144967,3.69954771645439,5.39848573122383,-5.76906745354875,6758662.1172289,1.07582257249925,-0.0064467225938448,-0.201978652285158,-0.0126021948572387,-2.31148271250427,0.56789835224245,-0.848510249397178,-1.88523669335E-5,-0.0011342242345904,-4.0085396856E-5,390579.055703139,5.4681E-12,1089.58361816406,3.69954771645439,5.39848573122383,-5.76906745354875
780.0,-5241665.32116471,189994.308807832,4262798.97147608,-2642013.94644407,-4529005.76339733,4265029.58367305,3843.80744331259,-5601.99950563092,-3579.80226580137,3.41072368629177,5.84674704437569,-5.50596541829298,6758662.1172289,1.08019784191205,-0.0081844942159122,-0.201885906676946,-0.0144647693661609,-2.27745688458706,0.611095692257106,-0.785164361375987,-2.14369191117E-5,-0.001134134579904,-4.34498492607E-5,389284.208133901,5.7689E-12,1098.56665039062,3.41072368629177,5.84674704437569,-5.50596541829298
840.0,-5417125.62830584,-148736.146015456,4038441.44170972,-2405426.77194357,-4854344.63194299,4040500.22042337,4039.38358616868,-5238.41631975526,-3901.6217129713,3.10593503833537,6.26802663725432,-5.2171744961809,6758662.11722892,1.08457311132487,-0.0101984901646844,-0.201785410863008,-0.016376878130145,-2.23907192557852,0.652200508187307,-0.71787323805694,-2.41749649113E-5,-0.0011340296771168,-4.68141777596E-5,387951.800539694,6.0783E-12,1107.12976074218,3.10593503833537,6.26802663725432,-5.2171744961809
900.0,-5570472.98726842,-485339.636895992,3795318.96202597,-2157662.60064375,-5157127.29514866,3797196.34098097,4216.22838203828,-4850.41563555372,-4205.3757776573,2.78658543361774,6.66034429835607,-4.90401604458789,6758662.11722891,1.08894838073768,-0.0125046630321657,-0.201677631704789,-0.0183182259486196,-2.19603855333312,0.690897380047464,-0.646273555586467,-2.7065818775E-5,-0.0011339083843006,-5.01775224717E-5,386600.112167763,6.3938E-12,1115.24084472656,2.78658543361774,6.66034429835607,-4.90401604458789
960.0,-5700967.94258065,-818454.811244828,3534557.63056232,-1899870.64890388,-5435941.96416272,3536244.88459674,4373.51205128817,-4439.79130921345,-4489.64495351282,2.45414859808204,7.02185138672578,-4.56792699598518,6758662.11722888,1.09332365015049,-0.0151176969572016,-0.201563076920644,-0.0202676983868706,-2.14811022807532,0.72683640931669,-0.570048609223604,-3.01087480198E-5,-0.0011337695110054,-5.35390109515E-5,385247.825487532,6.7121E-12,1122.87268066406,2.45414859808204,7.02185138672578,-4.56792699598518
1020.0,-5807964.75871321,-1146741.89376091,3257366.02191326,-1633247.22808706,-5689487.7259952,3258855.30789138,4510.49517421354,-4008.44394012612,-4753.09926035205,2.11016166424592,7.35083989865668,-4.21045351969834,6758662.11722888,1.0976989195633,-0.0180509307202997,-0.201442261075527,-0.0222034631170967,-2.09512070477014,0.759635936089083,-0.488965225083085,-3.33029716901E-5,-0.0011336118198538,-5.68977578405E-5,383913.710273911,7.0298E-12,1130.00073242187,2.11016166424592,7.35083989865668,-4.21045351969834
1080.0,-5890914.71479901,-1468888.07664674,2965029.62706305,-1359030.21298392,-5916580.689792,2966314.02071483,4626.53228704323,-3558.37217567433,-4994.50459422189,1.75621817019119,7.64575092852477,-3.83324412651148,6758662.1172289,1.10207418897612,-0.0213162871305075,-0.201315667537944,-0.0241030749851569,-2.03703080974181,0.788889489458547,-0.402919954835919,-3.66476593835E-5,-0.0011334340282243,-6.02528645498E-5,382616.303914116,7.3429E-12,1136.60229492187,1.75621817019119,7.64575092852477,-3.83324412651148
1140.0,-5949368.99932629,-1783612.76826742,2658904.92522714,-1078493.30727014,-6116159.59655269,2659978.45373573,4721.07504834272,-3091.66352777365,-5212.72864769035,1.39396074566208,7.90518247477944,-3.43804224265414,6758662.1172289,1.10644945838892,-0.0249242090700305,-0.201183707140039,-0.0259435844078709,-1.97398111842579,0.814178265786963,-0.311991219900802,-4.01419300543E-5,-0.0011332348100249,-6.36034189763E-5,381373.593768086,7.6471E-12,1142.65649414062,1.39396074566208,7.90518247477944,-3.43804224265414
1200.0,-5982981.18836932,-2089672.6788731,2340413.11430722,-792940.132318325,-6287290.86420413,2341270.78448548,4793.67495799488,-2610.48474187406,-5406.74636939725,1.02507351744896,8.12789654441047,-3.02667828318415,6758662.11722892,1.11082472780174,-0.0288836025094527,-0.201046674388829,-0.0277016487035188,-1.90634307497056,0.835089972321782,-0.216489936760809,-4.37848507987E-5,-0.0011330127975558,-6.6948495255E-5,380202.707502133,7.9378E-12,1148.142578125,1.02507351744896,8.12789654441047,-3.02667828318415
1260.0,-5991509.29264262,-2385866.72272985,2011033.52846567,-503698.166694302,-6429173.04246696,2011671.35038271,4843.98561293819,-2117.07176184572,-5575.64493381734,0.651274268517077,8.31282551191732,-2.60106125820465,6758662.11722893,1.11519999721455,-0.0332017867494408,-0.200904702173757,-0.0293536459534126,-1.83475664618078,0.851243784821475,-0.116996707856743,-4.75754356284E-5,-0.0011327665834643,-7.02871535474E-5,379119.617287005,8.2104E-12,1153.04113769531,0.651274268517077,8.31282551191732,-2.60106125820465
1320.0,-5974817.36049384,-2671040.71682211,1672296.7730046,-212112.564554251,-6541140.65463506,1672711.77894474,4871.76448597514,-1613.7193367215,-5718.62819429269,0.274306387483873,8.45907769192015,-2.16316994869344,6758662.11722893,1.11957526662736,-0.037884452085575,-0.200757715995201,-0.0308757909839787,-1.76013998069248,0.86231944204951,-0.0143710417531475,-5.15126442362E-5,-0.0011324947227896,-7.36184398693E-5,378138.863596931,8.4599E-12,1157.33276367187,0.274306387483873,8.45907769192015,-2.16316994869344
1380.0,-5932876.62587549,-2944091.85720444,1325777.60828296,80460.1180872732,-6622667.40621773,1325967.86694112,4876.87421621951,-1102.77031761666,-5835.0205946955,-0.104069352975152,8.56594208806804,-1.71504369194096,6758662.11722896,1.12395053604017,-0.0429356250330238,-0.200605388798741,-0.0322442530454846,-1.6836585856624,0.868086516076109,0.0902798916576643,-5.55953807602E-5,-0.0011321957351003,-7.69413859595E-5,377273.30406028,8.6818E-12,1160.99865722656,-0.104069352975152,8.56594208806804,-1.71504369194096
1440.0,-5865766.19235181,-3203972.95508385,973087.615808585,372658.259632644,-6673368.74335866,973052.241648611,4859.28340212075,-586.604695271415,-5924.27051757405,-0.482083148432801,8.63289228480466,-1.25877281964976,6758662.11722899,1.12832580545299,-0.0483576411892147,-0.200447097538862,-0.0334352747448799,-1.60665000629539,0.868428468380828,0.195676991573157,-5.98224925516E-5,-0.0011318681067218,-8.02550091913E-5,376533.892396069,8.8718E-12,1164.02111816406,-0.482083148432801,8.63289228480466,-1.25877281964976
1500.0,-5773673.246293,-3449696.41580239,615867.680891608,663121.541664117,-6693003.74702984,615606.838616781,4819.06689047303,-67.6284305421707,-5985.95304930583,-0.857964603812847,8.65958945282909,-0.796488794607509,6758662.11722897,1.13270107486579,-0.0541511257572805,-0.200281882612272,-0.0344252917658153,-1.5305133020835,0.863356170099092,0.300480154021395,-6.4192768953E-5,-0.0011315102930566,-8.35583125273E-5,375929.491926574,9.0262E-12,1166.38513183593,-0.857964603812847,8.65958945282909,-0.796488794607509
1560.0,-5656892.79457412,-3680337.94506408,255780.327329229,950497.319819444,-6681476.35218841,255295.231437619,4756.40555737189,451.737868220195,-6019.77214561541,-1.22995122006635,8.64588444371381,-0.330354094468639,6758662.11722901,1.1370763442786,-0.0603149817028422,-0.200108411294066,-0.0351910528785618,-1.45658518635423,0.853007572517419,0.403412535601837,-6.87049400917E-5,-0.0011311207209936,-8.68502845211E-5,375466.72749533,9.1418E-12,1168.07775878906,-1.22995122006635,8.64588444371381,-0.330354094468639
1620.0,-5515826.92431799,-3895039.96800153,-105498.059498461,1233446.96624136,-6638835.88436147,-106205.150077774,4671.58557970746,969.070365641177,-6025.56218379902,-1.59629688216502,8.5918189540852,0.13744810646836,6758662.11722896,1.14145161369142,-0.0668463854731933,-0.199924946279288,-0.0357097397071052,-1.38602984460389,0.837633597154885,0.503371142816476,-7.33576756956E-5,-0.0011306977914094,-9.01298993658E-5,375149.878853969,9.2164E-12,1169.08959960937,-1.59629688216502,8.5918189540852,0.13744810646836
1680.0,-5350983.58449241,-4093014.74799846,-466285.084015523,1510652.15305775,-6565276.90947239,-467210.876185652,4564.99719846211,1481.95346135846,-6003.28889111471,-1.95528030341509,8.49762574499604,0.604724404554692,6758662.11722893,1.14582688310422,-0.0737407901726271,-0.199729320377905,-0.0359590856806449,-1.31976416934322,0.817573673293059,0.599502014201092,-7.8149583937E-5,-0.0011302398817569,-9.3396116991E-5,374980.817731035,9.2487E-12,1169.41369628906,-1.95528030341509,8.49762574499604,0.604724404554692
1740.0,-5162974.89147116,-4273547.19357522,-824900.228677862,1780821.04650643,-6461138.39612116,-826040.410293394,4437.13297779462,1987.99123663933,-5953.04964202482,-2.30521338066831,8.36372790758934,1.06928172851319,6758662.11722892,1.15020215251704,-0.0809919360615818,-0.199518918333335,-0.0359174935535335,-1.25842752089754,0.793226298334666,0.691230890687443,-8.30792103117E-5,-0.0011297453487437,-9.66478832112E-5,374958.989880487,9.2384E-12,1169.04760742187,-2.30521338066831,8.36372790758934,1.06928172851319
1800.0,-4952514.96299012,-4435997.34309307,-1179672.74105967,2042694.3816397,-6326902.19296378,-1181022.0008352,4288.58556662325,2484.81882823123,-5875.07312029936,-2.64444941490626,8.19073717181414,1.52893793960165,6758662.11722893,1.15457742192984,-0.0885918682312218,-0.199290666634157,-0.0355641508330081,-1.20239184917064,0.765019999727134,0.778253544047855,-8.81450365582E-5,-0.0011292125310958,-9.98841299245E-5,375081.442455935,9.186E-12,1167.9921875,-2.64444941490626,8.19073717181414,1.52893793960165
1860.0,-4720417.28725636,-4579802.51852999,-1528949.48167846,2295051.38802789,-6163190.82727818,-1530501.5337962,4120.04497214572,2970.11367207654,-5769.71834537809,-2.97139115191301,7.97945126076771,1.981532413276,6758662.11722893,1.15895269134266,-0.0965309612988709,-0.199041032067135,-0.0348791424098809,-1.1517996209437,0.733388604562051,0.860498323733601,-9.33454796263E-5,-0.0011286397524067,-1.031037753645E-4,375342.896091305,9.0932E-12,1166.25244140625,-2.97139115191301,7.97945126076771,1.981532413276
1920.0,-4467591.63628238,-4704479.14112854,-1871102.69450469,2536715.53752906,-5970764.63423886,-1872850.30780828,3932.29535743576,3441.60655985369,-5637.47306582434,-3.28449859833508,7.7308502991426,2.42493654486762,6758662.11722892,1.16332796075546,-0.104797950973526,-0.198766029618529,-0.0338435596459211,-1.10661503268299,0.698752724996333,0.938075447054427,-9.86788906991E-5,-0.0011280253240686,-1.063057244064E-4,375735.86012103,8.9626E-12,1163.83740234375,-3.28449859833508,7.7308502991426,2.42493654486762
1980.0,-4195040.5348131,-4809624.20329013,-2204537.66237547,2766560.08600018,-5750518.22982511,-2206472.69401432,3726.21137791161,3897.0924519941,-5478.95152615818,-3.58229656936039,7.44609229020214,2.85706412166982,6758662.11722889,1.16770323016828,-0.113379972353075,-0.198461240172409,-0.032439605135503,-1.06667665192202,0.661507650383837,1.01122489458179,-1.041435542763E-4,-0.0011273675482845,-1.094888689266E-4,376250.788466762,8.7974E-12,1160.76123046875,-3.58229656936039,7.44609229020214,2.85706412166982
2040.0,-3903855.29846422,-4894916.3926992,-2527700.21001153,2983513.38179073,-5503476.34363998,-2529813.64337881,3502.754074061,4334.44099186735,-5294.89161680583,-3.86338192552656,7.12650768163139,3.27588150414595,6758662.11722887,1.17207849958109,-0.122262604834767,-0.198121838281588,-0.0306506923308539,-1.0317440850983,0.62201676690778,1.08027031782852,-1.097376873266E-4,-0.0011266647211565,-1.126520882196E-4,376876.272879868,8.6015E-12,1157.04187011718,-3.86338192552656,7.12650768163139,3.27588150414595
2100.0,-3595211.65689358,-4960116.86627824,-2839084.01802338,3186563.91497873,-5230789.03119475,-2841366.00480917,3262.96634031031,4751.60666722421,-5086.15142031884,-4.12643045778993,6.7735930464585,3.67941755972961,6758662.11722886,1.1764537689939,-0.131429923545776,-0.197742630101857,-0.0284615392024332,-1.00153539247139,0.580609187323288,1.14558224340593,-1.154594385133E-4,-0.0011259151358498,-1.157942494691E-4,377599.269480097,8.3794E-12,1152.70239257812,-4.12643045778993,6.7735930464585,3.67941755972961
2160.0,-3270364.97995874,-5005069.67320583,-3137237.71218144,3374765.08257434,-4933726.2883983,-3139677.61834289,3007.96799231984,5146.63856673057,-4853.70517037434,-4.37020338193581,6.38900391094967,4.06577329388615,6758662.11722886,1.18082903840671,-0.140864557228959,-0.197318101386736,-0.025858255101272,-0.975754834996438,0.537580269910761,1.20755099335579,-1.213068875025E-4,-0.0011251170858252,-1.189142082775E-4,378405.353889566,8.1356E-12,1147.77185058593,-4.37020338193581,6.38900391094967,4.06577329388615
2220.0,-2930645.1268647,-5029701.82785491,-3420771.69331392,3547239.64632248,-4613672.0940594,-3423358.14874462,2738.95045725699,5517.68968150643,-4598.63864334104,-4.59355340567714,5.9745467668968,4.43313112473847,6758662.11722886,1.18520430781953,-0.150547752547472,-0.196842475241213,-0.0228284200007389,-0.954112095569681,0.49319392267058,1.26656818332098,-1.272780443589E-4,-0.0011242688681405,-1.220108092515E-4,379278.999740223,7.8751E-12,1142.283203125,-4.59355340567714,5.9745467668968,4.43313112473847
2280.0,-2577450.94026299,-5034023.03512183,-3688364.6744772,3703183.86127282,-4272117.90914526,-3691085.62614035,2457.17111372178,5863.02570398815,-4322.14400535756,-4.7954303343492,5.53217031097942,4.7797637496157,6758662.11722887,1.18957957723233,-0.16045944479757,-0.196309779132948,-0.0193611553232798,-0.936334709369701,0.447685871299317,1.32301506706873,-1.333708490361E-4,-0.0011233687868124,-1.250828866451E-4,380203.874941856,7.6026E-12,1136.27587890625,-4.7954303343492,5.53217031097942,4.7797637496157
2340.0,-2212244.40910941,-5018125.07220861,-3938769.89351087,3841871.25494628,-3910655.66432,-3941612.66178343,2163.94730996189,6181.03327914391,-4025.51414089632,-4.97488618394378,5.06395595884149,5.10404255434593,6758662.11722886,1.19395484664514,-0.170578335038751,-0.19571392046182,-0.0154471856046328,-0.922175459742485,0.401267332356832,1.37725597280628,-1.395831709687E-4,-0.0011224151562365,-1.281292650603E-4,381163.149838945,7.3228E-12,1129.79467773437,-4.97488618394378,5.06395595884149,5.10404255434593
2400.0,-1836544.52581468,-4982180.83248103,-4170820.97073347,3962656.0386994,-3530970.26989689,-4173772.30869328,1860.65009079777,6470.22766607045,-3710.13649165376,-5.13107977330659,4.57210768612694,5.40444551895861,6758662.11722888,1.19833011605796,-0.1808819736611,-0.195048769797593,-0.0110788903152118,-0.91141624993278,0.35412874244948,1.42963532080555,-1.459128087706E-4,-0.0011214063046602,-1.311487602042E-4,382139.81125916,7.0401E-12,1122.89013671875,-5.13107977330659,4.57210768612694,5.40444551895861
2460.0,-1451920.86481924,-4926443.03854222,-4383437.38334577,4064976.13476225,-3134831.68475956,-4386483.53871899,1548.6976652717,6729.25977126182,-3377.48643729277,-5.26328077061923,4.05894125292027,5.67956457666331,6758662.11722889,1.20270538547076,-0.191346850408693,-0.194308250714982,-0.0062503452457342,-0.9038696333904,0.306443345705109,1.48047703635641,-1.523574900481E-4,-0.0011203405777016,-1.341401797036E-4,383116.97645805,6.7585E-12,1115.61853027343,-5.26328077061923,4.05894125292027,5.67956457666331
2520.0,-1059986.91117585,-4851242.63313067,-4575629.5300737,4148355.80438888,-2724086.58302629,-4578756.30954743,1229.5486484231,6956.92251834364,-3029.12025204777,-5.37087317276855,3.52687287180036,5.92811238649666,6758662.11722892,1.20708065488357,-0.20194849086249,-0.193486434989303,-9.573529719348E-4,-0.899378871686845,0.258370543758033,1.53008548131173,-1.589148713314E-4,-0.00111921634191,-1.371023239751E-4,384078.201085999,6.4818E-12,1108.041015625,-5.37087317276855,3.52687287180036,5.92811238649666
2580.0,-662393.169026669,-4756986.85786007,-4746503.36169174,4212407.86459996,-2300649.65923315,-4749696.19728508,904.695111768688,7152.15652277837,-2666.66767346574,-5.45335819983596,2.97840738299931,6.14892848384094,6758662.11722894,1.21145592429638,-0.212661559354745,-0.192577641768262,0.0048025379602732,-0.897817127179366,0.210058976894843,1.57874728306326,-1.655825381318E-4,-0.0011180319883604,-1.400339871508E-4,385007.775534569,6.213E-12,1100.22448730468,-5.45335819983596,2.97840738299931,6.14892848384094
2640.0,-260820.081006309,-4644157.0311599,-4895264.55530396,4256835.48310172,-1866494.61458561,-4898508.57248127,575.655478019612,7314.05504394442,-2291.82412158379,-5.51035659068203,2.41612600293874,6.3409847770806,6758662.11722894,1.2158311937092,-0.223459968238195,-0.191576539209732,0.0110300253441295,-0.899086194618375,0.161649343063071,1.62673363389304,-1.72358005129E-4,-0.0011167859362762,-1.429339580589E-4,385891.004346917,5.955E-12,1092.23779296875,-5.51035659068203,2.41612600293874,6.3409847770806
2700.0,143029.20941877,-4513306.03804227,-5021222.21261122,4281433.54311993,-1423644.86836341,-5024502.299813,243.967296295627,7441.8681910368,-1906.34260862082,-5.54161028941874,1.84267371466703,6.50339036293009,6758662.11722893,1.220206463122,-0.234316993367068,-0.190478246974928,0.0177240571730082,-0.903115025236398,0.113276981856649,1.67430277214086,-1.79238716494E-4,-0.0011154766366725,-1.458010212563E-4,386714.463788439,5.71E-12,1084.15270996093,-5.54161028941874,1.84267371466703,6.50339036293009
2760.0,547436.219856289,-4365055.54550578,-5123792.06484262,4286089.57207985,-974164.039851786,-5127092.94410326,-88.8200654073275,7535.00636340352,-1512.02538077662,-5.54698351641586,1.26074637043125,6.63539563739733,6758662.11722894,1.22458173253482,-0.245205395563819,-0.18927843789405,0.0248818469417366,-0.90985818724542,0.0650742595910992,1.72170244974295,-1.862220463526E-4,-0.0011141025760129,-1.486339581147E-4,387466.233155581,5.4797E-12,1076.0390625,-5.54698351641586,1.26074637043125,6.63539563739733
2820.0,950674.581687638,-4200092.95848332,-5202499.1695622,4270784.23027691,-520146.247208719,-5205805.46787875,-421.15277347378,7593.04291018315,-1110.71533497766,-5.52646322134012,0.673077577775615,6.73639568389477,6758662.11722897,1.22895700194763,-0.256097547747131,-0.187973437079554,0.032498900102543,-0.919294326719909,0.0171727932705982,1.76917224860949,-1.93305299393E-4,-0.0011126622798709,-1.514315479551E-4,388136.095939588,5.2655E-12,1067.96179199218,-5.52646322134012,0.673077577775615,6.73639568389477
2880.0,1351017.54965095,-4019168.13224417,-5256980.08716078,4235591.35790712,-63706.2704563401,-5260276.408274,-751.479890592125,7615.71599841337,-704.287254380307,-5.48015891954034,0.0824254411654261,6.80593292462811,6758662.11722896,1.23333227136044,-0.266965567285477,-0.186560316752276,0.040569051214197,-0.931424632757268,-0.0302944518933443,1.81694563944803,-2.004857116223E-4,-0.0011111543165902,-1.541925692317E-4,388715.707546144,5.068E-12,1059.9794921875,-5.48015891954034,0.0824254411654261,6.80593292462811
2940.0,1746745.53412058,-3823089.85806545,-5286984.52749212,4180677.58104455,393030.373694838,-5290255.52373976,-1078.26070947861,7602.92968310503,-294.6389071345,-5.40830191683072,-0.508440768803653,6.84369902603621,6758662.11722898,1.23770754077325,-0.277781453020054,-0.18503698506884,0.0490845111517369,-0.946271262813258,-0.0771911634384336,1.86525168736016,-2.077604512752E-4,-0.0011095773009318,-1.569158007615E-4,389198.726889633,4.8876E-12,1052.13940429687,-5.40830191683072,-0.508440768803653,6.84369902603621
3000.0,2136153.62179541,-3612722.13979066,-5292376.45979489,4106301.47935392,847937.397219516,-5295606.90369732,-1399.97202194851,7554.75417708784,116.317946673844,-5.31124393135585,-1.09675394702398,6.84953605367864,6758662.11722895,1.24208281018606,-0.288517226274835,-0.183402267295081,0.0580359235831058,-0.963875642396484,-0.123375762913462,1.91431630341828,-2.151266198772E-4,-0.0011079298977031,-1.596000229981E-4,389580.90982307,4.7241E-12,1044.4765625,-5.31124393135585,-1.09675394702398,6.84953605367864
3060.0,2517559.05058366,-3388980.27959158,-5273134.68174088,4012812.32049627,1298897.69837639,-5276309.53698138,-1715.11528750749,7471.42532270251,526.666594844764,-5.18945512471084,-1.67976241572167,6.82343687652515,6758662.11722893,1.24645807959887,-0.299145075044751,-0.181655977759193,0.0674124297739374,-0.984296513885873,-0.168699562390907,1.96436292385977,-2.225812534662E-4,-0.0011062108253563,-1.62244019346E-4,389860.163022836,4.5771E-12,1037.01513671875,-5.18945512471084,-1.67976241572167,6.82343687652515
3120.0,2889308.60472338,-3152826.79184037,-5229352.84614881,3900648.36831072,1743813.26381029,-5232457.33761432,-2022.22366646719,7353.34327160779,934.494414724905,-5.04352155781189,-2.25474304740635,6.76554482505628,6758662.11722891,1.25083334901168,-0.309637500430155,-0.17979898113833,0.0772017406581728,-1.0076075699555,-0.21300500823662,2.01561247147874,-2.301213239733E-4,-0.0011044188595502,-1.648465775145E-4,390036.557613069,4.4457E-12,1029.76928710937,-5.04352155781189,-2.25474304740635,6.76554482505628
3180.0,3249785.89659814,-2905267.16448171,-5161238.94658678,3770334.77392565,2180614.96793504,-5164258.62914055,-2319.86888361368,7201.07038306268,1337.90187217594,-4.87414209013714,-2.8190141817377,6.67615261189117,6758662.11722893,1.2552086184245,-0.319967464271792,-0.177833241781388,0.087390215015191,-1.03389446792828,-0.25612404604344,2.06828242070008,-2.377437407642E-4,-0.0011025528366634,-1.674064909065E-4,390112.302483353,4.329E-12,1022.74633789062,-4.87414209013714,-2.8190141817377,6.67615261189117
3240.0,3597418.50229216,-2647345.48767027,-5069114.26573836,3622481.06095581,2607272.22311603,-5072035.0914025,-2606.66788966263,7015.3283550062,1735.01143396765,-4.68212474386623,-3.36994827148265,6.55570052778895,6758662.11722892,1.2595838878373,-0.330108536839837,-0.175761859945598,0.0979629425279141,-1.06325098508074,-0.297876668293494,2.12258475375824,-2.454453523433E-4,-0.0011006116572504,-1.699225600393E-4,390091.677916956,4.226E-12,1015.95050048828,-4.68212474386623,-3.36994827148265,6.55570052778895
3300.0,3930684.91867498,-2380139.96970561,-4953411.79301315,3457778.2178668,3021802.43514543,-4956220.17624782,-2881.28928910864,6796.99460606657,2123.97635060192,-4.46838255711743,-3.90498419548404,6.40477392978717,6758662.1172289,1.26395915725012,-0.340035043347684,-0.173589094021727,0.108903830464206,-1.09577404799769,-0.338069740306814,2.17872256841612,-2.532229482197E-4,-0.0010985942894309,-1.723935939955E-4,389980.93080167,4.1355E-12,1009.38500976562,-4.46838255711743,-3.90498419548404,6.40477392978717
3360.0,4248121.31070246,-2104758.36045695,-4814674.12042842,3276995.41242768,3422280.21970128,-4817357.00120411,-3142.45950460141,6547.09793026478,2502.98926769145,-4.23392895290104,-4.42163917965313,6.22410004191872,6758662.11722893,1.26833442666293,-0.349722207999115,-0.171320368038075,0.120195692727684,-1.13155736300606,-0.376496240024948,2.23688509021802,-2.610732609342E-4,-0.0010964997722023,-1.748184118978E-4,389788.13333422,4.0564E-12,1003.05456542968,-4.23392895290104,-4.42163917965313,6.22410004191872
3420.0,4548328.01866185,-1822333.30252873,-4653550.8282608,3080976.34491447,3806846.33689133,-4656095.73263168,-3388.96864964521,6266.81344961663,2870.29062534711,-3.97987265256375,-4.91752027038912,6.01454409236433,6758662.11722892,1.27270969607574,-0.359146294239123,-0.168962263962446,0.131820340064459,-1.17068340694217,-0.412935091069683,2.29724087244873,-2.689929682475E-4,-0.0010943272186653,-1.771958444062E-4,389523.007747086,3.9876E-12,996.966003417968,-3.97987265256375,-4.91752027038912,6.01454409236433
3480.0,4829975.79626729,-1534017.6303727,-4470795.37435358,2870635.2583673,4173716.30259318,-4473190.47225242,-3619.67608320177,5957.45689306521,3224.17680655495,-3.70741216438568,-5.39033530847438,5.77710481403165,6758662.11722895,1.27708496548855,-0.368284739865634,-0.16652249855897,0.143758670288445,-1.21321363136116,-0.447151811337848,2.35992905849645,-2.769786954878E-4,-0.0010920758191537,-1.795247352331E-4,389196.720175703,3.928E-12,991.128601074218,-3.70741216438568,-5.39033530847438,5.77710481403165
3540.0,5091811.75181627,-1240979.6374103,-4267261.50325445,2646952.62573222,4521188.63709888,-4269495.6632436,-3833.51562166701,5620.47823317764,3563.00799722987,-3.41782987960472,-5.8379033553467,5.51290933839063,6758662.11722899,1.28146023490136,-0.377116285672106,-0.164009884798537,0.155990757497293,-1.25917691542551,-0.478900232089016,2.425048761073,-2.850270180538E-4,-0.0010897448442566,-1.818039426705E-4,388821.64733696,3.8765E-12,985.553405761718,-3.41782987960472,-5.8379033553467,5.51290933839063
3600.0,5332664.96604006,-944398.330996514,-4043899.19354119,2410970.53513219,4847652.7135428,-4045962.03426931,-4029.5003856694,5257.45471480651,3885.21572250032,-3.11248580948351,-6.25816452766351,5.22320751492793,6758662.11722899,1.28583550431417,-0.385621096329446,-0.161434278062449,0.168495939389951,-1.30855659605463,-0.50792555107903,2.4926469038104,-2.93134464072E-4,-0.0010873336477259,-1.84032341128E-4,388411.120198105,3.8322E-12,980.25341796875,-3.11248580948351,-6.25816452766351,5.22320751492793
3660.0,5551451.76181199,-645458.694729672,-3801750.16375868,2163787.79580321,5151596.17072026,-3803632.10188896,-4206.7272611886,4870.08331243818,4189.31002578842,-2.79281099810509,-6.64918920020202,4.90936569080603,6758662.11722898,1.29021077372699,-0.393780872278485,-0.158806507614472,0.18125290196037,-1.36127681460037,-0.533968949308244,2.56270527932242,-3.012975172037E-4,-0.0010848416692573,-1.862088226746E-4,387979.149268391,3.7938E-12,975.241333007812,-2.79281099810509,-6.64918920020202,4.90936569080603
3720.0,5747180.60250486,-345346.977208338,-3541942.95933223,1906554.78839897,5431611.85717719,-3543635.2537251,-4364.38095659942,4460.1726552214,4473.88625938392,-2.46030064639346,-7.00918654133898,4.57285998722534,6758662.11722897,1.29458604313979,-0.401578951489476,-0.15613829404243,0.194239761023631,-1.41718941775019,-0.556773904314546,2.63512807434133,-3.09512619597E-4,-0.0010822684371365,-1.883322985809E-4,387540.136533903,3.7605E-12,970.530517578125,-2.46030064639346,-7.00918654133898,4.57285998722534
3780.0,5918956.59750561,-45246.0258496623,-3265687.64463287,1640468.08440668,5686404.27585267,-3267182.43658442,-4501.73763939408,4029.63446068851,4737.63145745008,-2.11650698341174,-7.33651234958192,4.21526911059177,6758662.11722896,1.29896131255261,-0.409000400050274,-0.153442153583041,0.207434140224168,-1.47606315159657,-0.576094158539217,2.70973161206755,-3.177761749791E-4,-0.0010796135707411,-1.904017008573E-4,387108.579368084,3.7313E-12,966.132507324218,-2.11650698341174,-7.33651234958192,4.21526911059177
3840.0,6065985.59518795,253669.316172789,-2974270.12604366,1366764.86032647,5914795.50107081,-2975560.47539961,-4618.16813850961,3580.47451994644,4979.33026472601,-1.76303192131026,-7.6296761638423,3.83826673789781,6758662.11722897,1.30333658196542,-0.416032090667016,-0.150731290439589,0.220813245373105,-1.53757724303982,-0.591703049210244,2.78623841559065,-3.260845518827E-4,-0.0010768767828897,-1.924159837826E-4,386698.771975176,3.705E-12,962.057983398437,-1.76303192131026,-7.6296761638423,3.83826673789781
3900.0,6187577.84550517,550236.732434444,-2669046.13340788,1086717.13304574,6115730.54229208,-2670126.05039288,-4713.14070037329,3114.78327862796,5197.87039658693,-1.40151953039032,-7.88734762431151,3.44361351674031,6758662.11722898,1.30771185137822,-0.422662768297271,-0.148019478378566,0.234353935155643,-1.6013214792443,-0.603403602990632,2.86427771146968,-3.344340870011E-4,-0.0010740578820293,-1.943741254195E-4,386324.510051402,3.6808E-12,958.315002441406,-1.40151953039032,-7.88734762431151,3.44361351674031
3960.0,6283151.2162834,843310.858454835,-2351434.88862645,801625.843487096,6288282.13173081,-2352299.36124839,-4786.22328896492,2634.72605915837,5392.24760857214,-1.03364837063682,-8.10836206489248,3.03314872113847,6758662.11722897,1.31208712079104,-0.42888310228253,-0.145320933046267,0.248032788432447,-1.66680439907252,-0.611038503696906,2.94339399461273,-3.428210886633E-4,-0.0010711567742524,-1.962751291112E-4,385998.804369633,3.6578E-12,954.908752441406,-1.03364837063682,-8.10836206489248,3.03314872113847
4020.0,6352233.9492615,1131767.59356418,-2022912.49141053,512814.816125746,6431654.91571017,-2023557.5083205,-4837.08542236727,2142.53297091612,5561.57015597655,-0.661123715770842,-8.29172532212381,2.60878160479824,6758662.11722895,1.31646239020385,-0.434685724501794,-0.142650176577995,0.261826168524127,-1.73347013993675,-0.614498840206511,3.02306420410618,-3.512418404222E-4,-0.0010681734651376,-1.981180249542E-4,385733.608900198,3.635E-12,951.841796875,-0.661123715770842,-8.29172532212381,2.60878160479824
4080.0,6394466.94392864,1414508.28420388,-1685005.05328367,221624.622358993,6545189.03244629,-1685427.62199328,-4865.4995404264,1640.48855565283,5705.06272660817,-0.285669705401247,-8.43661774938401,2.17248249370975,6758662.11722895,1.32083765961666,-0.440065253227867,-0.140021896179609,0.275710285009072,-1.80072298261642,-0.61373052135299,3.10272255788158,-3.596926047484E-4,-0.0010651080614051,-1.99901871244E-4,385539.568869638,3.6116E-12,949.112976074218,-0.285669705401247,-8.43661774938401,2.17248249370975
4140.0,6409605.55924382,1690463.7642482,-1339281.61186625,-70593.6240304173,6628363.06181248,-1339479.7722454,-4871.34190025951,1130.92121609944,5822.06983232965,0.0909785397673556,-8.54239742886324,1.72627365998786,6758662.11722894,1.32521292902947,-0.445018302530792,-0.137450798442975,0.289661253676904,-1.86795706864338,-0.60873745645763,-3.10139478177733,-3.681696268188E-4,-0.00106196077238,-2.016257558867E-4,385425.793827842,3.587E-12,946.717895507812,0.0909785397673556,-8.54239742886324,1.72627365998786
4200.0,6397520.92537594,1958598.23879257,-987346.858262289,-362484.510942073,6680796.33552154,-987319.691262068,-4854.59299842433,616.192476029219,5912.05864751158,0.467082805464828,-8.60860257732009,1.27222001868943,6758662.11722892,1.32958819844228,-0.44954347723594,-0.134951461212949,0.303655155358635,-1.93458760987208,-0.59958102655118,-3.02347704527306,-3.766691383921E-4,-0.0010587319112599,-2.032887977739E-4,385399.660345822,3.5604E-12,944.6474609375,0.467082805464828,-8.60860257732009,1.27222001868943
4260.0,6358200.7596702,2217912.99873784,-630833.711005604,-652694.583171705,6702250.59906589,-630581.342573133,-4815.3375205904,98.6861201855367,5974.62128501968,0.840909640780055,-8.634953144993,0.812419688989946,6758662.1172289,1.33396346785509,-0.453641353606375,-0.13253818485367,0.317668094397712,-2.00007956548455,-0.586375918678572,-2.94722182438143,-3.851873617606E-4,-0.0010554218961773,-2.048901481148E-4,385466.64840665,3.5312E-12,942.88916015625,0.840909640780055,-8.634953144993,0.812419688989946
4320.0,6291749.68311632,2467449.95441325,-271395.770511359,-939878.580495814,6692631.01965832,-270919.370684705,-4753.76382152533,-419.202737575296,6009.47650282706,1.21073815208854,-8.62135161020156,0.348994460598041,6758662.11722891,1.33833873726791,-0.457314446078118,-0.130224844766393,0.33167625753228,-2.06397035244956,-0.569282923792703,-2.87307096014491,-3.937205137683E-4,-0.0010520312510561,-2.064289917216E-4,385630.214891439,3.4991E-12,941.42626953125,1.21073815208854,-8.62135161020156,0.348994460598041
4380.0,6198389.03566416,2706294.9774042,89300.3116801397,-1222705.6305784,6651986.53731148,89998.5344867642,-4670.16294012211,-935.078609818724,6016.47083677604,1.57486770261638,-8.56788297514845,-0.115919794348999,6758662.11722891,1.34271400668071,-0.460567160531425,-0.128024746989987,0.345655973928504,-2.12588446960212,-0.548499675062607,-2.80138107512097,-4.022648098835E-4,-0.0010485606062542,-2.079045482444E-4,385891.706815922,3.4638E-12,940.241882324218,1.57486770261638,-8.56788297514845,-0.115919794348999
4440.0,6078456.19078949,2933581.04069276,449582.514383568,-1499865.36899043,6580509.55906851,450499.323872659,-4564.92715604352,-1446.55656705153,5995.57915740791,1.93162548735376,-8.47481397122179,-0.580182724409326,6758662.11722891,1.34708927609353,-0.463405734729828,-0.125950488669275,0.359583777039273,-2.18553951149857,-0.524250452968145,-2.73241742878118,-4.108164683157E-4,-0.0010450106989918,-2.09316073349E-4,386250.316157424,3.4255E-12,939.332275390625,1.93162548735376,-8.47481397122179,-0.580182724409326
4500.0,5932403.37175534,3148491.14816617,807781.144434325,-1770073.95908113,6478534.99924252,808912.291642983,-4438.54809634315,-1951.27309811096,5946.90465112335,2.27937395414983,-8.34259148470114,-1.04165907831321,6758662.11722892,1.35146454550634,-0.4658381666994,-0.1240138251063,0.373436468865145,-2.24274446063714,-0.496776108908579,-2.66635551305077,-4.193717141652E-4,-0.001041382373561,-2.106628598376E-4,386703.077249543,3.3843E-12,938.692749023437,2.27937395414983,-8.34259148470114,-1.04165907831321
4560.0,5760795.97403528,3350261.04549653,1162236.51608613,-2032079.98499357,6346538.6713284,1163576.75925495,-4291.61440213888,-2446.89685303579,5870.67822823017,2.61651804296496,-8.17184021620003,-1.49822822302682,6758662.11722894,1.35583981491915,-0.467874131952287,-0.122225545016221,0.387191187069074,-2.29739206689289,-0.46632492463075,-2.60328857788679,-4.279267835928E-4,-0.0010376765813141,-2.119442387036E-4,387244.906833997,3.3407E-12,938.314392089843,2.61651804296496,-8.17184021620003,-1.49822822302682
4620.0,5564310.4003564,3538181.70534668,1511306.57790711,-2284670.1917712,6185135.04000825,1512849.70690544,-4124.8089670611,-2931.13922290056,5767.25736267245,2.94151221641328,-7.96335958944052,-1.94779356359075,6758662.11722896,1.36021508433196,-0.469524890578466,-0.120595355494295,0.400825475248629,-2.34944746888023,-0.433144920451869,-2.54323893126061,-4.364779279979E-4,-0.001033894380432,-2.131595801213E-4,387868.685970812,3.2951E-12,938.183410644531,2.94151221641328,-7.96335958944052,-1.94779356359075
4680.0,5343731.4167791,3711601.58080169,1853374.45329383,-2526675.04725329,5995074.34437348,1855113.31848656,-3938.90576077514,-3401.7647120938,5637.12437041413,3.25286725588788,-7.71811992706596,-2.38829182891024,6758662.11722894,1.36459035374478,-0.470803185336277,-0.119131778064638,0.414317356504739,-2.39893508496021,-0.397477831151517,-2.48617098523286,-4.450214181937E-4,-0.0010300369354693,-2.143082943637E-4,388565.382143025,3.2481E-12,938.281433105468,3.25286725588788,-7.71811992706596,-2.38829182891024
4740.0,5099949.04015285,3869928.62186061,2186855.86120443,-2756974.10130041,5777239.10612494,2188782.40662603,-3734.76625238551,-3856.60105964351,5480.88413556952,3.54915679871483,-7.4372579131712,-2.81770218868579,6758662.11722893,1.36896562315758,-0.47172313196295,-0.117842057027133,0.427645410271131,-2.44592538983564,-0.359554735189061,-2.43200443191716,-4.535535485656E-4,-0.001026105516678,-2.153898326475E-4,389324.209073091,3.2001E-12,938.5830078125,3.54915679871483,-7.4372579131712,-2.81770218868579
4800.0,4833954.96916426,4012632.05075109,2510206.384319,-2974501.11882325,5532640.03907926,2512311.68500146,-3513.3354499681,-4293.54906742967,5299.26129543097,3.82902359292546,-7.1220713640812,-3.23405516769771,6758662.11722895,1.37334089257039,-0.472300102998947,-0.116732081147987,0.440788852190136,-2.49052268117277,-0.319593169206831,-2.38062644498501,-4.620706412014E-4,-0.0010221014991118,-2.16403687901E-4,390132.821015903,3.1515E-12,939.053466796875,3.82902359292546,-7.1220713640812,-3.23405516769771
4860.0,4546838.57302509,4139243.89274199,2821928.55256391,-3178248.9641044,5262411.37879973,2824202.85584704,-3275.63757384743,-4710.59209446869,5093.0968975404,4.09118544736324,-6.77401333065516,-3.63544132468521,6758662.11722896,1.37771616198321,-0.472550606472098,-0.11580631955482,0.453727616644975,-2.53285446143093,-0.277795480597049,-2.3319022820082,-4.705690499817E-4,-0.0010180263615103,-2.173493954526E-4,390977.537626529,3.104E-12,939.736633300781,4.09118544736324,-6.77401333065516,-3.63544132468521
4920.0,4239782.45362876,4249360.26002465,3120578.71078299,-3367274.21499893,4967805.65357601,3123011.48141801,-3022.77138253942,-5105.80517790131,4863.34454388619,4.3344408559524,-6.39468555705315,-4.02001966408635,6758662.11722897,1.38209143139601,-0.472492160817318,-0.11506777250137,0.466442441392359,-2.57306268143449,-0.234348149013347,-2.28568404202033,-4.790451646164E-4,-0.0010138816849692,-2.182265336382E-4,391843.594932548,3.0595E-12,940.698364257812,4.3344408559524,-6.39468555705315,-4.02001966408635
4980.0,3914057.59872634,4342642.38711496,3404773.64029938,-3540701.48677244,4650187.92029302,3407353.60914019,-2755.90517151795,-5477.36374285958,4611.06603918016,4.55767427605021,-5.9858313224927,-4.38602574992596,6758662.11722897,1.38646670080883,-0.472143167413436,-0.114517937463326,0.47891495358787,-2.61129683202526,-0.189421823003501,-2.24181759338917,-4.874954146166E-4,-0.0010096691513976,-2.190347243245E-4,392715.417482349,3.0195E-12,941.989990234375,4.55767427605021,-5.9858313224927,-4.38602574992596
5040.0,3571018.14533751,4418817.41708875,3673196.90518254,-3697727.44658029,4311029.49095042,3675912.12124306,-2476.27146613537,-5823.55186502683,4337.42656198183,4.75986104188504,-5.54932769405962,-4.73177949215245,6758662.11722896,1.39084197022164,-0.471522782099241,-0.114156790818767,0.491127756365078,-2.64770871601586,-0.14317185298904,-2.20014784182729,-4.959162731897E-4,-0.0010053905417678,-2.197736333472E-4,393576.906397881,2.9856E-12,943.658325195312,4.75986104188504,-5.54932769405962,-4.73177949215245
5100.0,3212095.77421364,4477678.9388023,3924604.89521317,-3837624.50090498,3951901.17771346,3927442.78085458,-2185.16143113497,-6142.77005143333,4043.6893791888,4.94007189515362,-5.08717722013786,-5.05569257673552,6758662.11722897,1.39521723963445,-0.470650786985951,-0.11398278515791,0.503064515021576,-2.68244865959949,-0.0957391439570296,-2.16052258219696,-5.043042610458E-4,-0.0010010477341627,-2.204429708624E-4,394411.737835276,2.9591E-12,945.747497558593,4.94007189515362,-5.08717722013786,-5.05569257673552
5160.0,2838793.75770165,4519087.27607018,4157832.53881985,-3959744.13964646,3574466.08638981,4160779.94781736,-1883.91902023701,-6433.54250684862,3731.21012610281,5.09747711591849,-4.60149909550106,-5.35627551184789,6758662.11722895,1.39959250904726,-0.469547463812988,-0.113992862060638,0.514710041784058,-2.71566290402984,-0.0472511925556726,-2.12279519706682,-5.126559501042E-4,-9.966427016265E-4,-2.210424916103E-4,395203.666247984,2.9415E-12,948.302368164062,5.09747711591849,-4.60149909550106,-5.35627551184789
5220.0,2452680.68481774,4542969.53056985,4371798.6606418,-4063519.92199914,3180471.99012807,4374841.93886824,-1573.93489025928,-6694.52385503845,3401.43067591155,5.23135023801787,-4.09451983057589,-5.63214426347133,6758662.11722896,1.40396777846008,-0.468233470000474,-0.1141824799813,0.526050378071445,-2.74749193272209,0.002176790340029,-2.08682645187045,-5.209679670891E-4,-9.921775098253E-4,-2.215719950904E-4,395936.826849581,2.9341E-12,951.368103027343,5.23135023801787,-4.09451983057589,-5.63214426347133
5280.0,2055383.88872646,4549319.38101558,4565510.95984912,-4148470.09074425,2771743.31691858,4568636.00830054,-1256.64010514803,-6924.50528614818,3055.87262399446,5.34107133428414,-3.56856345885613,-5.88202645480196,6758662.11722894,1.40834304787288,-0.466729718435235,-0.114545656690147,0.537072873151348,-2.7780695198672,0.0524407406803853,-2.0524856071746,-5.292369970038E-4,-9.876543145249E-4,-2.220313256481E-4,396596.03177988,2.9383E-12,954.992248535156,5.34107133428414,-3.56856345885613,-5.88202645480196
5340.0,1648582.60312309,4538196.6418971,4738070.58692048,-4214199.80313506,2350172.78613906,4741262.92679862,-933.499656144248,-7122.42010355857,2696.13041396726,5.42612985797357,-3.02604131792215,-6.10476710488817,6758662.11722893,1.4127183172857,-0.46505726189337,-0.11507502554508,0.5477662580892,-2.80752232369317,0.103446631732511,-2.01965103363109,-5.374597864732E-4,-9.830753588936E-4,-2.224203724727E-4,397167.054679284,2.9556E-12,959.22314453125,5.42612985797357,-3.02604131792215,-6.10476710488817
5400.0,1234000.87523687,4509726.58580591,4888676.29823559,-4260402.9681494,1917712.73092242,4891921.13779262,-606.005825092264,-7287.34864573042,2323.86413382069,5.48612702794789,-2.46944144101073,-6.29933388303201,6758662.11722891,1.41709358669851,-0.463237182852237,-0.115761904706983,0.558120713920469,-2.83596988451159,0.155109422421863,-1.98821048099671,-5.456331469459E-4,-9.78442970638E-4,-2.227390695064E-4,397636.898661404,2.9874E-12,964.109558105468,5.48612702794789,-2.46944144101073,-6.29933388303201
5460.0,813400.26430395,4464099.03407603,5016628.16958151,-4286863.68152637,1476366.14452559,5019910.47242436,-275.671418609844,-7418.52256081762,1940.79201188328,5.5207777463307,-1.90131759758473,-6.46482185663183,6758662.11722889,1.42146885611132,-0.461290489284736,-0.116596378270484,0.568127933031841,-2.86352492158844,0.207352079358389,-1.95806112251098,-5.537539577452E-4,-9.737595589823E-4,-2.229873952664E-4,397994.043032389,3.0351E-12,969.695678710937,5.5207777463307,-1.90131759758473,-6.46482185663183
5520.0,388572.355393149,4401567.22114718,5121330.8514936,-4293457.25168645,1028177.49014115,5124635.40603829,55.9770985211399,-7515.32841417967,1548.68264364128,5.52991203859725,-1.32427802287141,-6.6004577113564,6758662.1172289,1.42584412552413,-0.459238016862458,-0.117567388160891,0.577781172814248,-2.89029385259837,0.260104679596249,-1.92910947141304,-5.618191689624E-4,-9.690276114987E-4,-2.2316537258E-4,398228.664525518,3.1004E-12,976.016357421875,5.52991203859725,-1.32427802287141,-6.6004577113564
5580.0,-38668.8805951349,4322446.4387147,5202296.35125035,-4280150.81135361,575223.314713188,5205607.84101107,387.406541820518,-7577.31061136906,1149.34698167695,5.51347600735663,-0.740973877866774,-6.70560342383013,6758662.1172289,1.43021939493695,-0.457100337827396,-0.118662835548924,0.587075300745554,-2.91637748510144,0.313303595245732,-1.90127124792655,-5.698258041839E-4,-9.642496907998E-4,-2.232730682343E-4,398332.829291716,3.1845E-12,983.088562011718,5.51347600735663,-0.740973877866774,-6.70560342383013
5640.0,-466494.84910267,4227112.46636275,5259146.32830973,-4247003.51144778,119602.708288321,5262449.40270334,717.083988025644,-7604.17362170508,744.630122135117,5.47153229246123,-0.154087482833816,-6.77975936839267,6758662.11722886,1.43459466434975,-0.454897676629308,-0.119869690458298,0.596006830170398,-2.94187185199261,0.366890757203281,-1.87447126268762,-5.777709630444E-4,-9.594284311039E-4,-2.233105925425E-4,398300.652400037,3.2886E-12,990.9013671875,5.47153229246123,-0.154087482833816,-6.77975936839267
5700.0,-893070.183883027,4115999.79598542,5291613.8920113,-4194166.29559314,-336572.348752,5294893.23735483,1043.48376865214,-7595.78349017198,336.402922189328,5.40426003153699,0.433679631156285,-6.82256684098537,6758662.11722885,1.43896993376255,-0.452649832272398,-0.121174108187722,0.604573946164873,-2.96686918356841,0.420812992872438,-1.84864337637309,-5.85651823601E-4,-9.545665346827E-4,-2.232780988287E-4,398128.4221502,3.4136E-12,999.409851074218,5.40426003153699,0.433679631156285,-6.82256684098537
5760.0,-1316560.65578018,3989599.65788388,5299544.89246367,-4121881.25538569,-791186.707577346,5302785.30284098,1365.09444608625,-7552.16862809845,-73.4465160511736,5.31195431658092,1.0196188065936,-6.83380998482749,6758662.11722885,1.44334520317537,-0.450376107175484,-0.122561551137997,0.61277652100169,-2.99145902952037,0.475021431336482,-1.82373059556848,-5.934656445215E-4,-9.496667682033E-4,-2.231757828335E-4,397814.687072167,3.5598E-12,1008.53063964843,5.31195431658092,1.0196188065936,-6.83380998482749
5820.0,-1735141.10483872,3848457.85698578,5282898.69768941,-4030480.56837699,-1242131.79842277,5286085.14536302,1680.42574188309,-7473.51987588179,-483.021458884359,5.19502514392204,1.60102643230702,-6.81341710428638,6758662.11722884,1.44772047258818,-0.44809524222809,-0.124016914626048,0.620616118863081,-3.01572956715717,0.529470968643207,-1.79968537272461,-6.01209767083E-4,-9.447319589753E-4,-2.230038820425E-4,397360.3040823,3.7273E-12,1018.14721679687,5.19502514392204,1.60102643230702,-6.81341710428638
5880.0,-2147003.36190193,3693172.42816618,5241748.45229972,-3920385.02255473,-1687315.35992458,5244866.15734498,1988.01538683529,-7360.18983391201,-890.425214538593,5.05399585659723,2.17521615575264,-6.76146135523058,6758662.11722884,1.45209574200099,-0.44582535762418,-0.125524655279766,0.628095989582006,-3.03976916077632,0.584119785381338,-1.77647019553427,-6.088816169756E-4,-9.397649911144E-4,-2.227626749414E-4,396768.446874284,3.9154E-12,1028.11889648437,5.05399585659723,2.17521615575264,-6.76146135523058
5940.0,-2550364.12561835,3524391.12015607,5176280.81521368,-3792102.13292712,-2124671.10632827,5179315.31405538,2286.43586237459,-7212.69146082554,-1293.76982916431,4.88950108005559,2.73953108460612,-6.67816080219192,6758662.11722885,1.4564710114138,-0.443583898978271,-0.127068920639016,0.635221051324055,-3.06366827629724,0.638928908314106,-1.75405858220717,-6.164787059085E-4,-9.347688016349E-4,-2.224524802003E-4,396044.574242235,4.1232E-12,1038.296875,4.88950108005559,2.73953108460612,-6.67816080219192
6000.0,-2943472.76067466,3342808.71800422,5086795.17621447,-3646223.85764177,-2552168.28865823,5089732.38874981,2574.30100298252,-7031.6959412665,-1691.18476706695,4.70228415407463,3.29135592625163,-6.56387783485618,6758662.11722882,1.46084628082662,-0.441387588176669,-0.128633678637441,0.641997862251264,-3.08752191292816,0.693861807235702,-1.73243665106882,-6.239986330155E-4,-9.297463764805E-4,-2.220736557902E-4,395196.358659425,4.3498E-12,1048.53771972656,4.70228415407463,3.29135592625163,-6.56387783485618
6060.0,-3324618.98310863,3149164.2145109,4973702.35343926,-3483423.92288265,-2967821.10616287,4976528.64843684,2850.27242952112,-6818.02982845133,-2080.82553657492,4.49319406584837,3.8281290126972,-6.41911793875975,6758662.11722878,1.46522155023942,-0.439252378390441,-0.130202845704919,0.648434581333043,-3.11143280305099,0.748884017117907,-1.71160551834014,-6.314390860583E-4,-9.247007465079E-4,-2.216265980364E-4,394233.576063948,4.5938E-12,1058.71362304687,4.49319406584837,3.8281290126972,-6.41911793875975
6120.0,-3692140.39873596,2944237.8414758,4837522.77622208,-3304454.76758393,-3369697.92476153,4840225.03469345,3113.06578375694,-6572.67147000771,-2460.88222270394,4.26318189138653,4.34735415754825,-6.24452781758851,6758662.1172288,1.46959681965224,-0.437193412676148,-0.131760412309714,0.654540918587415,-3.13551577598091,0.803962773551441,-1.69158491972159,-6.387978424267E-4,-9.19634983432E-4,-2.211117406111E-4,393167.958428362,4.854E-12,1068.71887207031,4.26318189138653,4.34735415754825,-6.24452781758851
6180.0,-4044429.8610515,2728847.97199555,4678884.16004087,-3110144.1207688,-3755930.25982418,4681449.8362895,3361.45673484783,-6296.74672878377,-2829.58788770242,4.013296754639,4.84661229096893,-6.0408928671581,6758662.11722881,1.47397208906505,-0.435224985614074,-0.133290564850512,0.660328075146937,3.12328138381383,0.859066645666117,-1.67241869173633,-6.460727699345E-4,-9.145521957462E-4,-2.205295534698E-4,392013.011308041,5.1289E-12,1078.46813964843,4.013296754639,4.84661229096893,-6.0408928671581
6240.0,-4379942.61544028,2503847.90541084,4498518.68265213,-2901391.22605684,-4124721.48141448,4500935.86271441,3594.28672919737,-5991.52401358294,-3185.22680065158,3.74468131612141,5.32357281808187,-5.80913400399083,6758662.11722881,1.47834735847786,-0.433360507479825,-0.134777802909693,0.665808673646991,3.09842768252564,0.914165143666511,-1.65418316833964,-6.532618274124E-4,-9.09455524628E-4,-2.198805417361E-4,390783.799167057,5.4169E-12,1087.89575195312,3.74468131612141,5.32357281808187,-5.80913400399083
6300.0,-4697203.19716436,2270122.54683256,4297259.6728171,-2679162.72957675,-4474355.2011224,4299517.13002106,3810.4684558609,-5658.40863806082,-3526.14245755799,3.45856680525369,5.77600464603389,-5.55030385439097,6758662.1172288,1.48272262789067,-0.43161247051115,-0.136207050988125,0.670996679529617,3.07290705635935,0.969228264952994,-1.63700030742623,-6.603630650991E-4,-9.043481398407E-4,-2.191652445381E-4,389496.701861836,5.7161E-12,1096.95056152343,3.45856680525369,5.77600464603389,-5.55030385439097
6360.0,-4994812.05137507,2028584.99347337,4076037.82532377,-2444488.24916287,-4803203.30080535,4078125.07270367,4008.99100061475,-5298.93652930665,-3850.74535382309,3.15626761311916,6.20178682501365,-5.26558231303905,6758662.11722881,1.48709789730349,-0.429992416914118,-0.137563763956767,0.675907313942366,3.04645550964623,1.02422591749708,-1.62105879455844,-6.673746248315E-4,-8.992332356429E-4,-2.183842338011E-4,388169.146213617,6.0243E-12,1105.59167480468,3.15626761311916,6.20178682501365,-5.26558231303905
6420.0,-5271451.84433955,1780173.04027374,3835876.95827659,-2198455.64429591,-5109733.56494656,3837784.29759511,4188.92466287825,-4914.7673109051,-4157.52047161222,2.83917546488924,6.59891874887634,-4.95627148336616,6758662.11722882,1.49147316671629,-0.428510908348007,-0.138834025579325,0.680556958989178,3.01871076736448,1.07912710846434,-1.60664921202997,-6.742947400369E-4,-8.941140267158E-4,-2.175381130009E-4,386819.317109509,6.339E-12,1113.78637695312,2.83917546488924,6.59891874887634,-4.95627148336616
6480.0,-5525893.43616717,1525845.61753509,3577889.33084872,-1942206.00776049,-5392516.87992436,3579607.89799349,4349.42541090994,-4507.67678851587,-4445.03444548099,2.50875319371942,6.96552986173468,-4.62379001530815,6758662.11722883,1.4958484361291,-0.427177496732256,-0.140004639581249,0.684963056157717,2.98915053657609,1.13389867891852,-1.59422533182399,-6.811217355319E-4,-8.889937441187E-4,-2.166275158828E-4,385465.853026669,6.6572E-12,1121.50646972656,2.50875319371942,6.96552986173468,-4.62379001530815
6540.0,-5757001.48657334,1266579.17345867,3303270.54185912,-1676928.40142628,-5650233.96526471,3304792.34839649,4489.73895208451,-4079.54886919642,-4711.94237065502,2.16652814048191,7.299888817937,-4.26966685945598,6758662.11722883,1.50022370554192,-0.426000696327306,-0.141063212861705,0.689143998804917,2.95697917026737,1.18850312289769,-1.58451704248874,-6.878540271288E-4,-8.838756312814E-4,-2.156531051493E-4,384127.531262392,6.9754E-12,1128.72729492187,2.16652814048191,7.299888817937,-4.26966685945598
6600.0,-5963739.66662316,1003364.01463624,3013294.03163564,-1403854.3599056,-5881681.60391604,3014612.00232172,4609.20439659502,-3632.36694880725,-4956.99421960414,1.81408520623657,7.60041204429165,-3.89553446008657,6758662.11722884,1.50459897495472,-0.424987957150288,-0.141998230564917,0.693119019628584,2.92090423964356,1.24289443172909,-1.57875340046004,-6.944901210565E-4,-8.787629400451E-4,-2.146155711224E-4,382822.94846059,7.2896E-12,1135.42553710937,1.81408520623657,7.60041204429165,-3.89553446008657
6660.0,-6145175.45095482,737200.617641547,2709305.211643,-1124252.18708962,-6085778.34073752,2710413.21771037,4707.25749461405,-3168.20480485423,-5179.04083400528,1.45305958682766,7.86567165522606,-3.50312141304688,6758662.11722884,1.50897424436754,-0.424145639891962,-0.14279912284383,0.696908074087616,2.87865468209304,1.29700926738928,-1.57914413548537,-7.010286132004E-4,-8.736589267577E-4,-2.135156303847E-4,381570.202239573,7.5957E-12,1141.57983398437,1.45305958682766,7.86567165522606,-3.50312141304688
6720.0,-6300484.4666865,469095.924932718,2392715.2482793,-839421.071709375,-6261569.6207202,2393608.13633702,4783.43342878363,-2689.21703501663,-5377.03946085173,1.08512922140245,8.09440267380114,-3.09424461794454,6758662.11722884,1.51334951378035,-0.423478992599533,-0.143456323260568,0.700531720755612,2.82581208119174,1.35074561885354,-1.59004805096214,-7.074681881649E-4,-8.68566848435E-4,-2.123540244028E-4,380386.579834143,7.8891E-12,1147.16979980468,1.08512922140245,8.09440267380114,-3.09424461794454
6780.0,-6428954.37705634,200059.638293635,2064994.52906296,-550685.049096319,-6408232.34095858,2065668.14546779,4837.36914588061,-2197.62908435676,-5550.05880333691,0.7120069889508,8.28550951414155,-2.67080095753399,6758662.11722882,1.51772478319316,-0.422992129477496,-0.143961318873191,0.704010999602123,2.75248083524045,1.40390157278246,-1.62130256020684,-7.138076181672E-4,-8.634899589933E-4,-2.111315181385E-4,379288.259656139,8.1651E-12,1152.17541503906,0.7120069889508,8.28550951414155,-2.67080095753399
6840.0,-6529988.27982731,-68899.4769883785,1727665.84113261,-259386.837224366,-6525078.79304848,1728117.05171014,4868.80521361677,-1695.72690678452,-5697.28355921488,0.335432689132958,8.43807168388992,-2.23475854054323,6758662.11722882,1.52210005260597,-0.422688012232837,-0.144306692155062,0.707367309192085,2.63129872477714,1.45595005116652,-1.70021284605576,-7.200457617666E-4,-8.584315055618E-4,-2.098488986523E-4,378290.031543865,8.4189E-12,1156.57739257812,0.335432689132958,8.43807168388992,-2.23475854054323
