time,gePosition_m_X,gePosition_m_Y,gePosition_m_Z,eiPosition_m_X,eiPosition_m_Y,eiPosition_m_Z,eiVelocity_m_s_X,eiVelocity_m_s_Y,eiVelocity_m_s_Z,eiAccel_m_s2_X,eiAccel_m_s2_Y,eiAccel_m_s2_Z,semiMajorAxis_m,gast_rad,eulerAngle_rad_Roll,eulerAngle_rad_Pitch,eulerAngle_rad_Yaw,eulerAngleWrtEi_rad_Roll,eulerAngleWrtEi_rad_Pitch,eulerAngleWrtEi_rad_Yaw,bodyAngularRateWrtEi_rad_s_Roll,bodyAngularRateWrtEi_rad_s_Pitch,bodyAngularRateWrtEi_rad_s_Yaw,altitudeMsl_m,airDensity_kg_m3,ambientTemperature_dgK,eiGravitation_m_s2_X,eiGravitation_m_s2_Y,eiGravitation_m_s2_Z
0.0,-1428622.31101,4163200.46562,5136049.67203,-4292653.41,955168.47,5139356.57,109.649663,-7527.72649,1484.521489,5.52898656936,-1.23026788741,-6.61954989995,6758662.11723,1.02334780893,0.1968973196502916,1.4818059951311864,0.19765936602562767,-1.3731447580259566,-0.8677374816280835,3.05977258822303,-1.979895708393292E-5,-9.59748566470664E-4,0.0,398252.763838,3.11591362917E-12,976.47737094,5.52898656936,-1.23026788741,-6.61954989995
60.0,-1789712.64868,3920255.31305,5213136.6043,-4276130.76361,501640.150639,5216447.94771,440.899504426,-7584.0430456,1084.18939672,5.50841669093,-0.646201702282,-6.71971240616,6758662.11723,1.02772307802,0.2226617745219273,1.4926251185302921,0.22351713398847944,-1.441363302398977,-0.8771765879775576,-3.1359178475785443,-1.979895708393292E-5,-9.416286994364271E-4,-4.925568339925668E-6,398335.16147,3.20687244874E-12,983.702829946,5.50841669093,-0.646201702282,-6.71971240616
120.0,-2144732.03326,3662345.31178,5266057.24147,-4239785.46485,45786.4492664,5269357.6801,770.149856361,-7605.20775889,678.777242699,5.46236021842,-0.058989324127,-6.78881750198,6758662.11723,1.03209834711,0.25649225226169553,1.5044319179620993,0.2574582535303817,-1.5099931925081107,-0.8829411414055213,-3.0484407238253786,-1.979895708393292E-5,-9.260397828881138E-4,-9.773337761625915E-6,398280.483171,3.31726588913E-12,991.661468685,5.46236021842,-0.058989324127,-6.78881750198
180.0,-2492166.12293,3390599.00166,5294562.85755,-4183783.25764,-410279.480789,5297837.08957,1095.87688043,-7591.11290731,270.159254332,5.39101509823,0.528665740843,-6.82652947799,6758662.11723,1.0364736162,0.30487295069458914,1.5170322397473217,0.3059862642046259,-1.5784426365287567,-0.8851372938005031,-2.961482313601422,-1.979895708393292E-5,-9.131985243337728E-4,-1.4484619921533792E-5,398085.378679,3.44775481373E-12,1000.300609,5.39101509823,0.528665740843,-6.82652947799
240.0,-2830524.93281,3106195.85057,5298517.62797,-4108380.89026,-864442.894077,5301750.4708,1416.572094,-7541.8131943,-139.774483848,5.29469509567,1.11405482452,-6.83265572643,6758662.11723,1.04084888529,0.38300328048577165,1.530166958990092,0.384319205434184,-1.6461623247357053,-0.8838806240822116,-2.8754999821475815,-1.979895708393292E-5,-9.032858338960712E-4,-1.9003022442541272E-5,397748.768109,3.59852917815E-12,1009.53002767,5.29469509567,1.11405482452,-6.83265572643
300.0,-3158349.2707,2810361.12396,5277899.32319,-4013924.98617,-1314597.20057,5281075.7838,1730.7492879,-7457.52569377,-549.126655788,5.17382866283,1.69447627941,-6.80714795491,6758662.11723,1.04522415437,0.5355438542884967,1.5433825298320438,0.5371353163957394,-1.712662066287001,-0.8792881831025069,-2.790890970188976,-1.979895708393292E-5,-8.964433772974925E-4,-2.327563409771745E-5,397271.88372,3.76928395326E-12,1019.22714303,5.17382866283,1.69447627941,-6.80714795491
360.0,-3474217.08765,2504360.5957,5232799.48317,-3900850.50203,-1758653.68795,5235904.82755,2036.95136094,-7338.62906256,-956.001393646,5.02895729882,2.26724769265,-6.75010277495,6758662.11723,1.04959942346,0.9423629078241564,1.5552460394426393,0.9443191866487497,-1.7775200937225386,-0.8714714460756944,-2.707983271727253,-1.979895708393292E-5,-8.927707331134307E-4,-2.7254172753220888E-5,396658.271822,3.95927497991E-12,1029.24864764,5.02895729882,2.26724769265,-6.75010277495
420.0,-3776749.71579,2189495.12225,5163423.07076,-3769678.779,-2194551.17459,5166442.89226,2333.75704093,-7185.6620202,-1358.51297384,4.86073340379,2.82971808105,-6.66176165595,6758662.11723,1.05397469255,2.0296643063115543,1.5585492210191598,2.03208951265626,-1.8403854258222192,-0.860530827003449,-2.627033488908765,-1.979895708393292E-5,-8.923233058348798E-4,-3.089605051041862E-5,395913.75464,4.16743259548E-12,1039.44538411,4.86073340379,2.82971808105,-6.66176165595
480.0,-4064617.96598,1867095.10307,5070087.60404,-3621015.19486,-2620265.54951,5073007.89024,2619.78746171,-6999.32109896,-1754.79449109,4.66991762971,3.37928001561,-6.54251023745,6758662.11723,1.05834996164,2.7081917930721326,1.548836124410134,2.7112031182947978,-1.9009747027375867,-0.8465521356948311,-2.548230212570251,-1.979895708393292E-5,-8.951111125975669E-4,-3.4165311369976876E-5,395046.35254,4.39248786983E-12,1049.67618037,4.66991762971,3.37928001561,-6.54251023745
540.0,-4336548.05782,1538514.85011,4953221.77021,-3455546.42661,-3033819.15549,4956028.96803,2893.71256637,-6780.45766981,-2143.0064719,4.4573757334,3.91338162297,-6.39287699509,6758662.11723,1.06272523073,2.930084564617323,1.535836198910736,2.9338103252721943,-1.9590653934880293,-0.829605068122807,-2.471700989279052,-1.979895708393292E-5,-9.010985145530925E-4,-3.703340158005036E-5,394066.16769,4.63306699777E-12,1059.81737392,4.4573757334,3.91338162297,-6.39287699509
600.0,-4591327.35534,1205126.8898,4813363.52578,-3274037.33485,-3433289.97225,4816044.60446,3154.25730682,-6530.07425328,-2521.34538841,4.22407493918,4.42953841007,-6.21353125793,6758662.11723,1.06710049981,3.030227735523828,1.5225081602473363,3.0348052379547026,-2.0144872557610602,-0.8097435735368024,-2.397520955215119,-1.979895708393292E-5,-9.102049089600465E-4,-3.947974123998981E-5,392985.230813,4.88772979641E-12,1069.76694871,4.22407493918,4.42953841007,-6.21353125793
660.0,-4827809.88176,868316.221086,4651157.69009,-3077327.483,-3816820.55719,4653700.20187,3400.20761071,-6249.32012759,-2888.05203397,3.97107982106,4.92534485816,-6.00528057771,6758662.11723,1.0714757689,3.087033640891724,1.509534624890683,3.092606892232638,-2.0671135634511675,-0.7870077704973734,-2.325721584843333,-1.979895708393292E-5,-9.223063411159994E-4,-4.1492076872558946E-5,391817.313346,5.15495300749E-12,1079.44416186,3.97107982106,4.92534485816,-6.00528057771
720.0,-5044921.58748,529474.553225,4467353.04181,-2866327.30621,-4182626.70184,4469745.1799,3630.4160871,-5939.48624934,-3241.41972145,3.69954771645,5.39848573122,-5.76906745355,6758662.11723,1.07585103799,3.1239273158877565,1.4972338846827749,3.1306446102377206,-2.116853097029715,-0.7614269965964728,-2.2562985243177005,-1.979895708393292E-5,-9.372379430030923E-4,-4.306660731802398E-5,390577.707882,5.43307543139E-12,1088.78644481,3.69954771645,5.39848573122,-5.76906745355
780.0,-5241665.34627,189994.547074,4262798.92999,-2642013.94644,-4529005.7634,4265029.58367,3843.80744331,-5601.99950563,-3579.8022658,3.41072368629,5.84674704438,-5.50596541829,6758662.11723,1.08022630708,-3.1331175445655908,1.485826660462171,-3.1251061338840205,-2.1636433807955173,-0.7330235623709482,-2.189217996804807,-1.979895708393292E-5,-9.547970636093542E-4,-4.42078880663742E-5,389282.980377,5.72022664279E-12,1097.7452932,3.41072368629,5.84674704438,-5.50596541829
840.0,-5417125.65531,-148735.916456,4038441.41394,-2405426.77194,-4854344.63194,4040500.22042,4039.38358617,-5238.41631975,-3901.62171297,3.10593503834,6.26802663725,-5.21717449618,6758662.11723,1.08460157617,-3.113450801542351,1.475491695382155,-3.1039959897812808,-2.20744524303263,-0.7018168195672877,-2.124421677572388,-1.979895708393292E-5,-9.747469289661736E-4,-4.4928530641287984E-5,387950.698132,6.01425775883E-12,1106.28229852,3.10593503834,6.26802663725,-5.21717449618
900.0,-5570473.01589,-485339.417195,3795318.94811,-2157662.60064,-5157127.29515,3797196.34098,4216.22838204,-4850.41563555,-4205.37577766,2.78658543362,6.66034429836,-4.90401604459,6758662.11723,1.08897684525,-3.097995789418852,1.4663809291767522,-3.0869516714684977,-2.248238512534554,-0.6678272258057553,-2.0618302055045166,-1.979895708393292E-5,-9.968206600934587E-4,-4.524872278241788E-5,386599.138075,6.3126881824E-12,1114.36594672,2.78658543362,6.66034429836,-4.90401604459
960.0,-5700967.97255,-818454.602498,3534557.63056,-1899870.6489,-5435941.96416,3536244.8846,4373.51205129,-4439.79130921,-4489.64495351,2.45414859808,7.02185138673,-4.56792699599,6758662.11723,1.09335211434,-3.0854433358854156,1.4586240490159976,-3.072669960826736,-2.286018537946474,-0.6310801730334081,-2.001345626824359,-1.979895708393292E-5,-0.0010207254847479042,-4.51956011478775E-5,385246.980295,6.61267311836E-12,1121.96917921,2.45414859808,7.02185138673,-4.56792699599
1020.0,-5807964.78976,-1146741.697,3257366.03583,-1633247.22809,-5689487.726,3258855.30789,4510.49517421,-4008.44394013,-4753.09926035,2.11016166425,7.35083989866,-4.2104535197,6758662.11723,1.09772738343,-3.074980075640163,1.4523296722981165,-3.0603459625671654,-2.3207931967596083,-0.5916094316207072,-1.9428530893550886,-1.979895708393292E-5,-0.0010461470017737338,-4.480251080385212E-5,383912.992166,6.91099941407E-12,1129.0678263,2.11016166425,7.35083989866,-4.2104535197
1080.0,-5890914.74666,-1468887.89283,2965029.65483,-1359030.21298,-5916580.68979,2966314.02071,4626.53228704,-3558.37217567,-4994.50459422,1.75621817019,7.64575092852,-3.83324412651,6758662.11723,1.10210265252,-3.066070035749992,1.4475853741210067,-3.0494545866176064,-2.352580108386915,-0.5494601357280039,-1.886222057478489,-1.979895708393292E-5,-0.0010727533914529584,-4.410818503643819E-5,382615.708702,7.20410831208E-12,1135.63958297,1.75621817019,7.64575092852,-3.83324412651
1140.0,-5949369.03175,-1783612.59828,2658904.96671,-1078493.30727,-6116159.59655,2659978.45374,4721.07504834,-3091.66352777,-5212.72864769,1.39396074566,7.90518247478,-3.43804224265,6758662.11723,1.10647792161,-3.0583409623563944,1.4444573488803505,-3.039636725672516,-2.381403844428815,-0.5046912937120868,-1.8313072383637303,-1.979895708393292E-5,-0.00110019950667757,-4.315587554202698E-5,381373.114964,7.48814599554E-12,1141.66340206,1.39396074566,7.90518247478,-3.43804224265
1200.0,-5982981.22111,-2089672.52353,2340413.16932,-792940.132318,-6287290.8642,2341270.78449,4793.67495799,-2610.48474187,-5406.7463694,1.02507351745,8.12789654441,-3.02667828318,6758662.11723,1.11085319069,-3.0515207156066184,1.442990020841279,-3.0306354555722943,-2.407293011966213,-0.4573778482552355,-1.777949322580388,-1.979895708393292E-5,-0.0011281308226086953,-4.19924576732679E-5,380202.336435,7.7590399177E-12,1147.11912903,1.02507351745,8.12789654441,-3.02667828318
1260.0,-5991509.32546,-2385866.58275,2011033.59675,-503698.166694,-6429173.04247,2011671.35038,4843.98561294,-2117.07176185,-5575.64493382,0.651274268517,8.31282551192,-2.6010612582,6758662.11723,1.11522845978,-3.0453991213987948,1.4432057399030502,-3.0222576472227214,-2.43027715446661,-0.4076123355083681,-1.7259755680000866,-1.979895708393292E-5,-0.001156187261680843,-4.0667529076691836E-5,379119.343262,8.01259721908E-12,1151.98723184,0.651274268517,8.31282551192,-2.6010612582
1320.0,-5974817.39318,-2671040.59285,1672296.85424,-212112.564554,-6541140.65463,1672711.77894,4871.76448598,-1613.71933672,-5718.62819429,0.274306387484,8.45907769192,-2.16316994869,6758662.11723,1.11960372887,-3.0398031741977136,1.4451046261844585,-3.014348887190989,-2.450383462466782,-0.3555062039997056,-1.6752002005991466,-1.979895708393292E-5,-0.0011840069418256266,-3.923251373736433E-5,378138.674091,8.24461890324E-12,1156.24846939,0.274306387484,8.45907769192,-2.16316994869
1380.0,-5932876.65821,-2944091.74979,1325777.7021,80460.1180872,-6622667.40622,1325967.86694,4876.87421622,-1102.77031762,-5835.0205947,-0.104069352975,8.56594208807,-1.71504369194,6758662.11723,1.12397899796,-3.0345789858099517,1.4486645965510965,-3.0067751057067715,-2.4676333116598514,-0.3011908556276771,-1.625424571587086,-1.979895708393292E-5,-0.0012112299151398106,-3.7739777977648E-5,377273.184958,8.4510389103E-12,1159.884107,-0.104069352975,8.56594208807,-1.71504369194
1440.0,-5865766.22415,-3203972.86468,973087.721764,372658.259633,-6673368.74336,973052.241649,4859.28340212,-586.604695271,-5924.27051757,-0.482083148433,8.6328922848,-1.25877281965,6758662.11723,1.12835426705,-3.0295762103972437,1.4538415934559432,-2.9994066473039394,-2.482038652035952,-0.24481846693258102,-1.5764369948955232,-1.979895708393292E-5,-0.0012375019697604532,-3.6241761018817686E-5,376533.828253,8.6280865492E-12,1162.87683742,-0.482083148433,8.6328922848,-1.25877281965
1500.0,-5773673.27738,-3449696.34278,615867.798494,663121.541664,-6693003.74703,615606.838617,4819.06689047,-67.6284305417,-5985.95304931,-0.857964603813,8.65958945283,-0.796488794607,6758662.11723,1.13272953613,-3.024631214737741,1.4605700310350493,-2.992101060181166,-2.4935982661406664,-0.1865626421726111,-1.5280121867145562,-1.979895708393292E-5,-0.0012624785586970474,-3.479012067851986E-5,375929.466258,8.77244310478E-12,1165.21147632,-0.857964603813,8.65958945283,-0.796488794607
1560.0,-5656892.82478,-3680337.88969,255780.45603,950497.319819,-6681476.35219,255295.231438,4756.40555737,451.737868221,-6019.77214562,-1.22995122007,8.64588444371,-0.330354094469,6758662.11723,1.13710480522,-3.0195441497134587,1.468763469275868,-2.9846797677297228,-2.502293900954156,-0.12661894376903501,-1.4799102362145073,-1.979895708393292E-5,-0.001285828896646364,-3.343489477794073E-5,375466.723086,8.88138327436E-12,1166.8754629,-1.22995122007,8.64588444371,-0.330354094469
1620.0,-5515826.9535,-3895039.93044,-105497.920298,1233446.96624,-6638835.88436,-106205.150078,4671.58557971,969.070365642,-6025.5621838,-1.59629688217,8.59181895409,0.137448106468,6758662.11723,1.14148007431,-3.01404121812444,1.4783155198134652,-2.9768899258985617,-2.5080862648563564,-0.06520534224247639,-1.4318750503004805,-1.979895708393292E-5,-0.0013072402315112627,-3.222368070127119E-5,375149.878085,8.95289368481E-12,1167.85924417,-1.59629688217,8.59181895409,0.137448106468
1680.0,-5350983.61252,-4093014.72833,-466284.934963,1510652.15306,-6565276.90947,-467210.876186,4564.99719846,1481.95346136,-6003.28889111,-1.95528030342,8.497625745,0.604724404555,6758662.11723,1.1458553434,-3.0077029645901274,1.489100969147633,-2.9683323018961163,-2.5109108732721133,-0.002562628318294803,-1.3836322346569851,-1.979895708393292E-5,-0.001326422255310224,-3.1200838874734575E-5,374980.802908,8.98576118951E-12,1168.15658401,-1.95528030342,8.497625745,0.604724404555
1740.0,-5162974.91824,-4273547.19177,-824900.070469,1780821.04651,-6461138.39612,-826040.410293,4437.13297779,1987.99123664,-5953.04964202,-2.30521338067,8.36372790759,1.06928172851,6758662.11723,1.15023061249,-2.9998095735961754,1.5009770576515802,-2.958306169292949,-2.5106737291209122,0.061045165298630535,-1.334886400446591,-1.979895708393292E-5,-0.0013431115738974976,-3.0406730113903228E-5,374958.943572,8.97962539548E-12,1167.76482406,-2.30521338067,8.36372790759,1.06928172851
1800.0,-4952514.9884,-4435997.35904,-1179672.57443,2042694.38164,-6326902.19296,-1181022.00084,4288.58556662,2484.81882823,-5875.0731203,-2.64444941491,8.19073717181,1.5289379396,6758662.11723,1.15460588158,-2.9889569066583253,1.5137847067670347,-2.9454249607070446,-2.5072468470596405,0.12533027660022303,-1.2853179263593935,-1.979895708393292E-5,-0.0013570761121130446,-2.9877001084680928E-5,375081.347819,8.93499233768E-12,1166.68511611,-2.64444941491,8.19073717181,1.5289379396
1860.0,-4720417.31123,-4579802.552,-1528949.30741,2295051.38803,-6163190.82728,-1530501.5338,4120.04497215,2970.11367208,-5769.71834538,-2.97139115191,7.97945126077,1.98153241328,6758662.11723,1.15898115066,-2.971908658300399,1.527348922121196,-2.926468066425643,-2.5004636809817398,0.189980595530856,-1.2345792690655135,-1.979895708393292E-5,-0.0013681192961097913,-2.964193577333588E-5,375342.737191,8.85320905418E-12,1164.92263944,-2.97139115191,7.97945126077,1.98153241328
1920.0,-4467591.65876,-4704479.19181,-1871102.5134,2536715.53753,-5970764.63424,-1872850.30781,3932.29535744,3441.60655985,-5637.47306582,-3.28449859834,7.73085029914,2.42493654487,6758662.11723,1.16335641975,-2.939027070424108,1.5414745454878387,-2.891811227861354,-2.4901146093216777,0.25465884006287876,-1.1822910170047145,-1.979895708393292E-5,-0.0013760838328274706,-2.9725893164279506E-5,375735.622232,8.7364016828E-12,1162.48681226,-3.28449859834,7.73085029914,2.42493654487
1980.0,-4195040.55576,-4809624.27078,-2204537.47528,2766560.086,-5750518.22983,-2206472.69401,3726.21137791,3897.09245199,-5478.95152616,-3.58229656936,7.4460922902,2.85706412167,6758662.11723,1.16773168884,-2.842895086326704,1.5559035475613898,-2.7940484142544446,-2.4759427941914796,0.3190014537026539,-1.128038045844941,-1.979895708393292E-5,-0.0013808549016971693,-3.0146851747703494E-5,376250.45835,8.58738226833E-12,1159.39150229,-3.58229656936,7.4460922902,2.85706412167
2040.0,-3903855.31784,-4894916.4765,-2527700.0178,2983513.38179,-5503476.34364,-2529813.64338,3502.75407406,4334.44099187,-5294.89161681,-3.86338192553,7.12650768163,3.27588150415,6758662.11723,1.17210695793,-1.4125128340198432,1.5679439339277623,-1.3621880795806156,-2.4576409873234786,0.38261716931165024,-1.0713663908365891,-1.979895708393292E-5,-0.0013823625875674748,-3.0916079752009406E-5,376875.83903,8.40953146521E-12,1155.65523919,-3.86338192553,7.12650768163,3.27588150415
2100.0,-3595211.6747,-4960116.9658,-2839083.82159,3186563.91498,-5230789.03119,-2841366.00481,3262.96634031,4751.60666722,-5086.15142032,-4.12643045779,6.77359304646,3.67941755973,6758662.11723,1.17648222702,-0.08118967785293592,1.5556164469208227,-0.029545043659515654,-2.434850251180307,0.4450852351276109,-1.0117818423931826,-1.979895708393292E-5,-0.0013805834161945342,-3.203794612063649E-5,377598.722345,8.20666555465E-12,1151.30142861,-4.12643045779,6.77359304646,3.67941755973
2160.0,-3270364.9962,-5005069.78779,-3137237.51245,3374765.08257,-4933726.2884,-3139677.61834,3007.96799232,5146.63856673,-4853.70517037,-4.37020338194,6.38900391095,4.06577329389,6758662.11723,1.1808574961,0.011642594173951115,1.5411836286970795,0.06444643075842768,-2.40716213648003,0.5059534041120943,-0.9487518404665062,-1.979895708393292E-5,-0.0013755409012963114,-3.350988160483291E-5,378404.686044,7.98289658484E-12,1146.35856574,-4.37020338194,6.38900391095,4.06577329389
2220.0,-2930645.14156,-5029701.95675,-3420771.4912,3547239.64632,-4613672.09406,-3423358.14874,2738.95045726,5517.68968151,-4598.63864334,-4.59355340568,5.9745467669,4.43313112474,6758662.11723,1.18523276519,0.043035823602801164,1.5270578376322208,0.09683873873088897,-2.374126639291833,0.5647359765253205,-0.8817130192733504,-1.979895708393292E-5,-0.0013673050703623374,-3.532249248913525E-5,379278.206025,7.74249400907E-12,1140.86044225,-4.59355340568,5.9745467669,4.43313112474
2280.0,-2577450.95345,-5034023.1775,-3688364.47094,3703183.86127,-4272117.90915,-3691085.62614,2457.17111372,5863.02570399,-4322.14400536,-4.79543033435,5.53217031098,4.77976374962,6758662.11723,1.18960803428,0.05852576660597395,1.513494978903288,0.11317120200065446,-2.3352692160763646,0.6209124932505198,-0.8100877045176105,-1.979895708393292E-5,-0.0013559909982053821,-3.74598222399599E-5,380202.952557,7.48975504853E-12,1134.84633516,-4.79543033435,5.53217031098,4.77976374962
2340.0,-2212244.42083,-5018125.22718,-3938769.68948,3841871.25495,-3910655.66432,-3941612.66178,2163.94730996,6181.03327914,-4025.5141409,-4.97488618394,5.06395595884,5.10404255435,6758662.11723,1.19398330337,0.06749001792125148,1.5006906421749173,0.12282791355047581,-2.2901210849228413,0.6739281336277736,-0.7333136091307834,-1.979895708393292E-5,-0.0013417564357152466,-3.989974958518573E-5,381162.098391,7.22888930943E-12,1128.36115504,-4.97488618394,5.06395595884,5.10404255435
2400.0,-1836544.53614,-4982180.99909,-4170820.76717,3962656.0387,-3530970.2699,-4173772.30869,1860.6500908,6470.22766607,-3710.13649165,-5.13107977331,4.57210768613,5.40444551896,6758662.11723,1.19835857246,0.07307742477548415,1.4888206807784639,0.1289670111264096,-2.2382675058241985,0.723197474193346,-0.6508914348618788,-1.979895708393292E-5,-0.0013247986696868057,-4.2614506008466175E-5,382138.632762,6.96392113452E-12,1121.45551427,-5.13107977331,4.57210768613,5.40444551896
2460.0,-1451920.87382,-4926443.21575,-4383437.1812,4064976.13476,-3134831.68476,-4386483.53872,1548.69766527,6729.25977126,-3377.48643729,-5.26328077062,4.05894125292,5.67956457666,6758662.11723,1.20273384154,0.07663622224787812,1.478045223552002,0.13294861485409623,-2.1794177814526137,0.7681139217671571,-0.5624541304816664,-1.979895708393292E-5,-0.0013053507826719238,-4.5571291940165E-5,383115.675292,6.69861096956E-12,1114.18564961,-5.26328077062,4.05894125292,5.67956457666
2520.0,-1059986.91893,-4851242.81987,-4575629.33029,4148355.80439,-2724086.58303,-4578756.30955,1229.54864842,6956.92251834,-3029.12025205,-5.37087317277,3.5268728718,5.9281123865,6758662.11723,1.20710911063,0.07883370116203187,1.468508193782205,0.1354542451507784,-2.1134969252203044,0.8080675803377209,-0.4678577604861687,-1.979895708393292E-5,-0.001283677496615724,-4.8732969396331525E-5,384076.783908,6.43639489124E-12,1106.6130995,-5.37087317277,3.5268728718,5.9281123865
2580.0,-662393.175639,-4756987.05301,-4746503.16519,4212407.8646,-2300649.65923,-4749696.19729,904.695111768,7152.15652278,-2666.66767347,-5.45335819984,2.978407383,6.14892848384,6758662.11723,1.21148437972,0.08003128070616447,1.4603360298483312,0.13686159953595764,-2.040750882205944,0.8424740336568503,-0.36728587420117126,-1.979895708393292E-5,-0.0012600707799361615,-5.2058809437245714E-5,385006.251149,6.18033962638E-12,1098.80399948,-5.45335819984,2.978407383,6.14892848384
2640.0,-260820.086577,-4644157.23354,-4895264.36301,4256835.4831,-1866494.61459,-4898508.57248,575.655478019,7314.05504394,-2291.82412158,-5.51035659068,2.41612600294,6.34098477708,6758662.11723,1.21585964881,0.08043461343723804,1.45363636068662,0.13739432352015668,-1.9618448918970461,0.8708148259612685,-0.2613469672889427,-1.979895708393292E-5,-0.0012348453764460146,-5.550527531881928E-5,385889.383534,5.93310923105E-12,1090.82783651,-5.51035659068,2.41612600294,6.34098477708
2700.0,143029.20478,-4513306.24645,-5021222.02541,4281433.54312,-1423644.86836,-5024502.29981,243.967296295,7441.86819104,-1906.34260862,-5.54161028942,1.84267371467,6.50339036293,6758662.11723,1.2202349179,0.08016135038203473,1.4484968412001498,0.1371894116790093,-1.8779218800475943,0.8926868076002278,-0.15113192529500086,-1.979895708393292E-5,-0.0012083343800321658,-5.902682604619755E-5,386712.759104,5.69693952857E-12,1082.75552186,-5.54161028942,1.84267371467,6.50339036293
2760.0,547436.216033,-4365055.75871,-5123791.88362,4286089.57208,-974164.039852,-5127092.9441,-88.8200654077,7535.0063634,-1512.02538078,-5.54698351642,1.26074637043,6.6353956374,6758662.11723,1.22461018698,0.0792742065649514,1.4449842105350228,0.13632988824938647,-1.7905835240722225,0.9078524648508042,-0.03819409643340889,-1.979895708393292E-5,-0.0011808849361400393,-6.257672952789394E-5,387464.45869,5.47361785341E-12,1074.65674208,-5.54698351642,1.26074637043,6.6353956374
2820.0,950674.578557,-4200093.17523,-5202498.99515,4270784.23028,-520146.247209,-5205805.46788,-421.152773474,7593.04291018,-1110.71533498,-5.52646322134,0.673077577775,6.73639568389,6758662.11723,1.22898545607,0.07779754616327764,1.4431435902572949,0.13486099575023155,-1.701771028177335,0.9162790091216568,0.07557096652662446,-1.979895708393292E-5,-0.0011528541058459284,-6.610787891427771E-5,388134.26706,5.26446868907E-12,1066.59675154,-5.52646322134,0.673077577775,6.73639568389
2880.0,1351017.54709,-4019168.35126,-5256979.92038,4235591.35791,-63706.2704562,-5260276.40827,-751.479890593,7615.71599841,-704.28725438,-5.48015891954,0.0824254411652,6.80593292463,6758662.11723,1.23336072516,0.07572506821098995,1.442998022976932,0.1327974818264354,-1.6135571577133516,0.9181535970583734,0.18813453979169203,-1.979895708393292E-5,-0.0011246048858884544,-6.957360927919333E-5,388713.840609,5.0703496281E-12,1058.6330516,-5.48015891954,0.0824254411652,6.80593292463
2940.0,1746745.532,-3823090.07806,-5286984.36911,4180677.58104,393030.373695,-5290255.52374,-1078.26070948,7602.92968311,-294.638907134,-5.40830191683,-0.508440768804,6.84369902604,6758662.11723,1.23773599425,0.07302174290908645,1.4445482465964519,0.1301251432978176,-1.5279003071598232,0.9138675738418828,0.2975817551641293,-1.979895708393292E-5,-0.00109650234359854,-7.292851397415625E-5,389196.838942,4.89166478687E-12,1050.81264739,-5.40830191683,-0.508440768804,6.84369902604
3000.0,2136153.61998,-3612722.35949,-5292376.31056,4106301.47935,847937.39722,-5295606.9037,-1399.97202195,7554.75417709,116.317946674,-5.31124393136,-1.09675394702,6.84953605368,6758662.11723,1.24211126334,0.06962091293005615,1.44777269864807,0.1267975500700046,-1.4464300548224034,0.903972313309289,0.40232715519537743,-1.979895708393292E-5,-0.0010689098027999806,-7.61292603713342E-5,389579.018289,4.72840200403E-12,1043.17061153,-5.31124393136,-1.09675394702,6.84953605368
3060.0,2517559.04894,-3388980.49772,-5273134.54234,4012812.3205,1298897.69838,-5276309.53698,-1715.11528751,7471.4253227,526.666594845,-5.18945512471,-1.67976241572,6.82343687653,6758662.11723,1.24648653242,0.06541587405271636,1.452627745860343,0.12272727058167418,-1.37031816758114,0.8891180099586264,0.5012447993511031,-1.979895708393292E-5,-0.0010421850079632095,-7.913540313182623E-5,389858.285387,4.5801948662E-12,1035.73039825,-5.18945512471,-1.67976241572,6.82343687653
3120.0,2889308.60313,-3152827.00713,-5229352.71723,3900648.36831,1743813.26381,-5232457.33761,-2022.22366647,7353.34327161,934.494414725,-5.04352155781,-2.25474304741,6.76554482506,6758662.11723,1.25086180151,0.06024337410841712,1.4590481335979075,0.11776904397346241,-1.3002507157946894,0.8699901146910568,0.5936972439206113,-1.979895708393292E-5,-0.001016676199888327,-8.191018972485442E-5,390034.7111,4.44640287045E-12,1028.50581833,-5.04352155781,-2.25474304741,6.76554482506
3180.0,3249785.89493,-2905267.37568,-5161238.82875,3770334.77393,2180614.96794,-5164258.62914,-2319.86888361,7201.07038306,1337.90187218,-4.87414209014,-2.81901418174,6.67615261189,6758662.11723,1.2552370706,0.053853229721317855,1.4669476445330307,0.1116891033848112,-1.2364809883007868,0.8472553661080032,0.6794836863125454,-1.979895708393292E-5,-9.927180564043628E-4,-8.442134802713648E-5,390110.503745,4.32619711232E-12,1021.50406958,-4.87414209014,-2.81901418174,6.67615261189
3240.0,3597418.50042,-2647345.69357,-5069114.15954,3622481.06096,2607272.22312,-5072035.0914,-2606.66788966,7015.32835501,1735.01143397,-4.68212474387,-3.36994827148,6.55570052779,6758662.11723,1.25961233969,0.045851390381557805,1.4762199388820185,0.10410798350580125,-1.1789263063307638,0.8215234680410023,0.758744154397513,-1.979895708393292E-5,-9.706274836962805E-4,-8.66418400771827E-5,390089.94273,4.21863810765E-12,1014.72898684,-4.68212474387,-3.36994827148,6.55570052779
3300.0,3930684.91648,-2380140.16912,-4953411.69894,3457778.21787,3021802.43515,-4956220.17625,-2881.28928911,6796.99460607,2123.9763506,-4.46838255712,-3.90498419548,6.40477392979,6758662.11723,1.26398760878,0.035587269618077816,1.486739502804914,0.09438763443030197,-1.127274614606694,0.7933249066822009,0.8318538424914423,-1.979895708393292E-5,-9.506992842773462E-4,-8.855056023160576E-5,389979.273774,4.12273655827E-12,1008.18379823,-4.46838255712,-3.90498419548,6.40477392979
3360.0,4248121.30806,-2104758.55224,-4814674.03892,3276995.41243,3422280.2197,-4817357.0012,-3142.4595046,6547.09793026,2502.98926769,-4.2339289529,-4.42163917965,6.22410004192,6758662.11723,1.26836287786,0.02191159562919194,1.4983625058002383,0.08138909523388613,-1.0810790511656616,0.7631020467889236,0.8993293744722449,-1.979895708393292E-5,-9.332017718476375E-4,-9.013295098849037E-5,389786.567639,4.0374940666E-12,1001.87300306,-4.2339289529,-4.42163917965,6.22410004192
3420.0,4548328.01547,-1822333.48559,-4653550.75969,3080976.34491,3806846.33689,-4656095.73263,-3388.96864965,6266.81344962,2870.29062535,-3.97987265256,-4.91752027039,6.01454409236,6758662.11723,1.27273814695,0.0025927495609529283,1.5109269804983378,0.06288869550447898,-1.0398312862171042,0.7312095413613158,0.9617561901591372,-1.979895708393292E-5,-9.183724456194117E-4,-9.138150649114595E-5,389521.544878,3.96192588275E-12,995.80331902,-3.97987265256,-4.91752027039,6.01454409236
3480.0,4829975.79243,-1534017.80365,-4470795.31905,2870635.25837,4173716.30259,-4473190.47225,-3619.6760832,5957.45689306,3224.17680656,-3.70741216439,-5.39033530847,5.77710481403,6758662.11723,1.27711341604,-0.02733733848044364,1.524250296799946,0.0339238541332036,-1.0030129480231307,0.6979204085541689,1.0197377297181105,-1.979895708393292E-5,-9.064138719893321E-4,-9.229613298886266E-5,389195.369732,3.89507036472E-12,989.983858481,-3.70741216439,-5.39033530847,5.77710481403
3540.0,5091811.74723,-1240979.79992,-4267261.46147,2646952.62573,4521188.6371,-4269495.66324,-3833.51562167,5620.47823318,3563.00799723,-3.4178298796,-5.83790335535,5.51290933839,6758662.11723,1.28148868513,-0.08157225663476392,1.538114803473053,-0.0191960469255658,-0.9701286183881739,0.6634350241490427,1.0738629347533595,-1.979895708393292E-5,-8.974899443729313E-4,-9.288433782500255E-5,388820.416842,3.83599024602E-12,984.425772496,-3.4178298796,-5.83790335535,5.51290933839
3600.0,5332664.96062,-944398.48182,-4043899.16547,2410970.53513,4847652.71354,-4045962.03427,-4029.50038567,5257.45471481,3885.2157225,-3.11248580948,-6.25816452766,5.22320751493,6758662.11723,1.28586395422,-0.21567390309749573,1.5521765999272932,-0.15203247695008779,-0.9407250483151752,0.627891213107341,1.1246874266085596,-1.979895708393292E-5,-8.917226989683278E-4,-9.316122399000147E-5,388410.014959,3.78376998763E-12,979.141589629,-3.11248580948,-6.25816452766,5.22320751493
3660.0,5551451.75548,-645458.833004,-3801750.14953,2163787.7958,5151596.17072,-3803632.10189,-4206.72726119,4870.08331244,4189.31002579,-2.7928109981,-6.6491892002,4.90936569081,6758662.11723,1.2902392233,-0.9700718516624632,1.5644843941137567,-0.905017109638246,-0.914400873874794,0.5913743700766554,1.1727241039587923,-1.979895708393292E-5,-8.891898529920049E-4,-9.314927565897573E-5,387978.172269,3.73751229014E-12,974.144424896,-2.7928109981,-6.6491892002,4.90936569081
3720.0,5747180.5952,-345347.10215,-3541942.95901,1906554.7884,5431611.85718,-3543635.25372,-4364.3809566,4460.17265522,4473.88625938,-2.46030064639,-7.00918654134,4.57285998723,6758662.11723,1.29461449239,-2.625042719571663,1.5580388712682969,-2.5584311453434325,-0.890810191615355,0.5539270530432935,1.2184398336732634,-1.979895708393292E-5,-8.899232029953921E-4,-9.287793071992223E-5,387539.288378,3.69633571359E-12,969.447175251,-2.46030064639,-7.00918654134,4.57285998723
3780.0,5918956.58916,-45246.1367517,-3265687.65822,1640468.08441,5686404.27585,-3267182.43658,-4501.73763939,4029.63446069,4737.63145745,-2.11650698341,-7.33651234958,4.21526911059,6758662.11723,1.29898976148,-2.865943277680807,1.5441947827238887,-2.7976383436654415,-0.8696623970221539,0.5155578130960816,1.2622558756947664,-1.979895708393292E-5,-8.939079765553342E-4,-9.238294804002825E-5,387107.858265,3.65937448086E-12,965.061769014,-2.11650698341,-7.33651234958,4.21526911059
3840.00000001,6065985.58576,253669.219936,-2974270.15348,1366764.86033,5914795.50107,-2975560.4754,-4618.16813851,3580.47451995,4979.33026473,-1.76303192131,-7.62967616384,3.8382667379,6758662.11723,1.30336503057,-2.9429254531479003,1.5302478222009492,-2.8727999176347203,-0.8507199023231825,0.4762492027823716,1.3045504797405443,-1.979895708393292E-5,-9.010831758281904E-4,-9.170558886698239E-5,386698.173768,3.62578091709E-12,960.998501349,-1.76303192131,-7.62967616384,3.8382667379
3900.00000001,6187577.83496,550236.651405,-2669046.17456,1086717.13305,6115730.54229,-2670126.05039,-4713.14070037,3114.78327863,5197.87039659,-1.40151953039,-7.88734762431,3.44361351674,6758662.11723,1.30774029966,-2.9823633011744564,1.5167480539916105,-2.9103013667337656,-0.833794773110505,0.43596499611278633,1.345662676890461,-1.979895708393292E-5,-9.113428923360317E-4,-9.089164200935473E-5,386324.028292,3.59473054627E-12,957.265465419,-1.40151953039,-7.88734762431,3.44361351674
3960.00000001,6283151.20459,843310.793085,-2351434.94331,801625.843487,6288282.13173,-2352299.36125,-4786.22328897,2634.72605916,5392.24760857,-1.03364837064,-8.10836206489,3.03314872114,6758662.11723,1.31211556874,-3.007667589087477,1.503941225046514,-2.9335668922982734,-0.8187449312141554,0.39465669123215213,1.3858966878663244,-1.979895708393292E-5,-9.24538515663355E-4,-8.999033020578273E-5,385998.43044,3.5654295604E-12,953.86807594,-1.03364837064,-8.10836206489,3.03314872114
4020.00000001,6352233.93641,1131767.54422,-2022912.55937,512814.816126,6431654.91571,-2023557.50832,-4837.08542237,2142.53297092,5561.57015598,-0.661123715771,-8.29172532212,2.6087816048,6758662.11723,1.31649083783,-3.026274473976033,1.4920180556245148,-2.9500478772857344,-0.8054703199223002,0.3522693768428702,1.4255266263626065,-1.979895708393292E-5,-9.404817109364277E-4,-8.905313958377995E-5,385733.33217,3.53712414763E-12,950.808675334,-0.661123715771,-8.29172532212,2.6087816048
4080.00000001,6394466.92992,1414508.25115,-1685005.13421,221624.622359,6545189.03245,-1685427.62199,-4865.49954043,1640.48855565,5705.06272661,-0.285669705401,-8.43661774938,2.17248249371,6758662.11723,1.32086610692,-3.0412819171648224,1.4811444447112057,-2.962859073821291,-0.7939092746057119,0.3087470401700508,1.4648013326258522,-1.979895708393292E-5,-9.589480063213857E-4,-8.81326150347081E-5,385539.376893,3.50911098672E-12,948.086209909,-0.285669705401,-8.43661774938,2.17248249371
4140.00000001,6409605.54408,1690463.74767,-1339281.70537,-70593.6240306,6628363.06181,-1339479.77225,-4871.34190026,1130.9212161,5822.06983233,0.0909785397676,-8.54239742886,1.72627365999,6758662.11723,1.32524137601,-3.054217670291818,1.4714670871150253,-2.9735463346318394,-0.7840352536288121,0.2640373866044667,1.5039492638794598,-1.979895708393292E-5,-9.796808151529468E-4,-8.728116184802337E-5,385425.67258,3.4807480787E-12,945.695962642,0.0909785397676,-8.54239742886,1.72627365999
4200.00000001,6397520.90908,1958598.23877,-987346.963921,-362484.510942,6680796.33552,-987319.691262,-4854.59299842,616.192476028,5912.05864751,0.467082805465,-8.60860257732,1.27222001869,6758662.11723,1.3296166451,-3.065931780435773,1.4631141494821456,-2.9829788367217467,-0.7758540366947974,0.21809623341710174,1.5431834190441822,-1.979895708393292E-5,-0.0010023957189147995,-8.654988867474482E-5,385399.594481,3.45146499499E-12,943.629328929,0.467082805465,-8.60860257732,1.27222001869
4260.00000001,6358200.74227,2217913.01525,-630833.828326,-652694.583172,6702250.59907,-630581.342573,-4815.33752059,98.6861201847,5974.62128502,0.84090964078,-8.63495314499,0.81241968899,6758662.11723,1.33399191418,-3.0769460195536107,1.4561947132816229,-2.99169820523799,-0.7694014736763366,0.17089153457549766,1.5827063027843875,-1.979895708393292E-5,-0.0010267848552905588,-8.598751973843174E-5,385466.62155,3.42077158171E-12,941.873621222,0.84090964078,-8.63495314499,0.81241968899
4320.00000001,6291749.66465,2467449.98736,-271395.898949,-939878.580496,6692631.01966,-270919.370684,-4753.76382153,-419.202737576,6009.47650283,1.21073815209,-8.6213516102,0.348994460598,6758662.11723,1.33836718327,-3.0876112900009822,1.450797954514611,-3.0000755923348947,-0.7647418558132261,0.12240709133730575,1.6227149494836894,-1.979895708393292E-5,-0.0010525212868590186,-8.563939625936387E-5,385630.209941,3.38826430033E-12,940.411895303,1.21073815209,-8.6213516102,0.348994460598
4380.00000001,6198389.01619,2706295.02659,89300.1727204,-1222705.63058,6651986.53731,89998.534487,-4670.16294012,-935.07860982,6016.47083678,1.57486770262,-8.56788297515,-0.115919794349,6758662.11723,1.34274245236,-3.0981872116683307,1.4469923675350287,-3.0083909206025066,-0.7619669757443774,0.07264600404048296,1.6634060379497722,-1.979895708393292E-5,-0.001079263265811415,-8.554657935792376E-5,385891.706265,3.35372002253E-12,939.228939146,1.57486770262,-8.56788297515,-0.115919794349
4440.00000001,6078456.17037,2933581.10581,449582.365546,-1499865.36899,6580509.55907,450499.323873,-4564.92715604,-1446.55656705,5995.57915741,1.93162548735,-8.47481397122,-0.58018272441,6758662.11723,1.34711772145,-3.108887242093085,1.4448251398010619,-3.0168776476901273,-0.7611959388255078,0.02163392404491116,1.7049811355057116,-1.979895708393292E-5,-0.0011066583530680882,-8.574506018402725E-5,386250.302421,3.31725062229E-12,938.321964238,1.93162548735,-8.47481397122,-0.58018272441
4500.00000001,5932403.35046,3148491.22884,807780.986408,-1770073.95908,6478534.99924,808912.291643,-4438.54809634,-1951.27309811,5946.90465112,2.27937395415,-8.3425914847,-1.04165907831,6758662.11723,1.35149299054,-3.1199080903888277,1.444321713169203,-3.0257518193362936,-0.7625757823684681,-0.030577829284091872,1.7476521161935958,-1.979895708393292E-5,-0.001134347391087682,-8.626507829117591E-5,386703.032995,3.27908327458E-12,937.68637922,2.27937395415,-8.3425914847,-1.04165907831
4560.00000001,5760795.95194,3350261.14124,1162236.3496,-2032079.98499,6346538.67133,1163576.75926,-4291.61440214,-2446.89685304,5870.67822823,2.61651804297,-8.1718402162,-1.49822822303,6758662.11723,1.35586825962,-3.1314528352656987,1.445485538832571,-3.0352348276942815,-0.7662829484146425,-0.08390921377240836,1.7916467996837548,-1.979895708393292E-5,-0.0011619683636610399,-8.713054667683034E-5,387244.815303,3.23951095728E-12,937.31308861,2.61651804297,-8.1718402162,-1.49822822303
4620.00000001,5564310.37755,3538181.8156,1511306.40374,-2284670.19177,6185135.04001,1512849.70691,-4124.80896706,-2931.1392229,5767.25736267,2.94151221641,-7.96335958944,-1.94779356359,6758662.11723,1.36024352871,3.1394316209788005,1.4482980194772093,-3.045575822145098,-0.7725256348348234,-0.13824838963629754,1.8372148500739909,-1.979895708393292E-5,-0.0011891601994828084,-8.83585814299649E-5,387868.53129,3.19888148299E-12,937.188585775,2.94151221641,-7.96335958944,-1.94779356359
4680.00000001,5343731.39336,3711601.70492,1853374.27225,-2526675.04725,5995074.34437,1855113.31849,-3938.90576077,-3401.76471209,5637.12437041,3.25286725589,-7.71811992707,-2.38829182891,6758662.11723,1.3646187978,3.126085566723174,1.4527186219919577,-3.057079132643728,-0.7815470113619022,-0.19344853234554987,1.884633948742151,-1.979895708393292E-5,-0.001215566586746543,-8.995913522484017E-5,388565.149624,3.15757683016E-12,937.294528027,3.25286725589,-7.71811992707,-2.38829182891
4740.00000001,5099949.01623,3869928.75911,2186855.67412,-2756974.1013,5777239.10612,2188782.40663,-3734.76625239,-3856.60105964,5480.88413557,3.54915679872,-7.43725791317,-2.81770218869,6758662.11723,1.36899406689,3.1113085314477105,1.4586851286736922,-3.070143754302799,-0.7936292187807216,-0.24932443138396007,1.934216198519403,-1.979895708393292E-5,-0.0012408398623910322,-9.193473646007869E-5,389323.885482,3.11596283809E-12,937.605259995,3.54915679872,-7.43725791317,-2.81770218869
4800.00000001,4833954.94484,4012632.20032,2510206.19206,-2974501.11882,5532640.03908,2512311.685,-3513.33544997,-4293.54906743,5299.26129543,3.82902359293,-7.12207136408,-3.2340551677,6758662.11723,1.37336933598,3.0945542682164926,1.4661139627853361,-3.0853268606745585,-0.8090979503807102,-0.3056487676531463,1.9863146066982889,-1.979895708393292E-5,-0.0012646450225370527,-9.42803389128617E-5,390132.394821,3.07435217165E-12,938.086179365,3.82902359293,-7.12207136408,-3.2340551677
4860.00000001,4546838.54842,4139244.05376,2821928.35603,-3178248.9641,5262411.3788,2824202.85585,-3275.63757385,-4710.59209447,5093.09689754,4.09118544736,-6.77401333066,-3.63544132469,6758662.11723,1.37774460506,3.075004793377002,1.47490045119824,-3.103454836396799,-0.8283272126293971,-0.36214796689802015,2.041329297968529,-1.979895708393292E-5,-0.0012866638717301585,-9.698328962260184E-5,390976.99921,3.03418000935E-12,938.781374305,4.09118544736,-6.77401333066,-3.63544132469
4920.00000001,4239782.42886,4249360.43154,3120578.51088,-3367274.215,4967805.65358,3123011.48142,-3022.77138254,-5105.8051779,4863.34454389,4.33444085595,-6.39468555705,-4.02001966409,6758662.11723,1.38211987415,3.0513606373237505,1.4849187111499862,-3.1258328383700027,-0.851743529171415,-0.41849755323819404,2.0997127794121533,-1.979895708393292E-5,-0.0013065992913632782,-1.0002342458280824E-4,391842.936768,2.99715450858E-12,939.756422715,4.33444085595,-6.39468555705,-4.02001966409
4980.00000001,3914057.57391,4342642.56813,3404773.43795,-3540701.48677,4650187.92029,3407353.60914,-2755.90517152,-5477.36374286,4611.06603918,4.55767427605,-5.98583132249,-4.38602574993,6758662.11723,1.38649514324,3.0214104792041954,1.4960203910067855,3.1285102819496817,-0.8798283233443015,-0.4743169960467128,2.1619730508023953,-1.979895708393292E-5,-0.0013241795660093368,-1.0337330211307512E-4,392714.634271,2.96475721796E-12,941.062957605,4.55767427605,-5.98583132249,-4.38602574993
5040.00000001,3571018.12061,4418817.60653,3673196.70132,-3697727.44658,4311029.49095,3675912.12124,-2476.27146613,-5823.55186503,4337.42656198,4.75986104189,-5.54932769406,-4.73177949215,6758662.11723,1.39087041233,2.9810522993059356,1.5080301606381226,3.0891019813176177,-0.9131164112961289,-0.5291641892223021,2.2286725480860903,-1.979895708393292E-5,-0.0013391626656686052,-1.069985821278548E-4,393575.995165,2.9383651039E-12,942.74756366,4.75986104189,-5.54932769406,-4.73177949215
5100.00000001,3212095.7497,4477679.13556,3924604.69079,-3837624.50091,3951901.17771,3927442.78085,-2185.16143113,-6142.77005143,4043.68937919,4.94007189515,-5.08717722014,-5.05569257674,6758662.11723,1.39524568142,2.9217484612941993,1.5207312938556894,3.030592969807711,-0.9521873949466586,-0.5825299756970607,2.3004197622253333,-1.979895708393292E-5,-0.0013513403470830048,-1.1085855580479032E-4,394410.697979,2.91929535405E-12,944.854844169,4.94007189515,-5.08717722014,-5.05569257674
5160.00000001,2838793.73354,4519087.47898,4157832.33478,-3959744.13965,3574466.08639,4160779.94782,-1883.91902024,-6433.54250685,3731.2101261,5.09747711592,-4.6014990955,-5.35627551185,6758662.11723,1.39962095051,2.8225894524058956,1.5338154478626846,2.9320796811681666,-0.9976452775016086,-0.6338336010195651,2.3778489032319072,-1.979895708393292E-5,-0.0013605419132311646,-1.1490682461099514E-4,395202.499547,2.90883760332E-12,947.429232731,5.09747711592,-4.6014990955,-5.35627551185
5220.00000001,2452680.66113,4542969.73843,4371798.45793,-4063519.922,3180471.99013,4374841.93887,-1573.93489026,-6694.52385504,3401.43067591,5.23135023802,-4.09451983058,-5.63214426347,6758662.11723,1.40399621959,2.618592791756026,1.5466611124815235,2.728588386921304,-1.050080083437254,-0.6824207202045719,2.4615814336341613,-1.979895708393292E-5,-0.0013666374607683137,-1.1909212075336192E-4,395935.537425,2.90828290847E-12,950.516202765,5.23135023802,-4.09451983058,-5.63214426347
5280.00000001,2055383.86564,4549319.5926,4565510.7594,-4148470.09074,2771743.31692,4568636.0083,-1256.64010515,-6924.50528615,3055.87262399,5.34107133428,-3.56856345886,-5.8820264548,6758662.11723,1.40837148868,2.053457276746466,1.5569375564605352,2.1638292821496927,-1.1100043978087173,-0.7275666187852761,2.552162422968899,-1.979895708393292E-5,-0.0013695404526136734,-1.233592536643327E-4,396594.626012,2.91894962574E-12,954.162871194,5.34107133428,-3.56856345886,-5.8820264548
5340.00000001,1648582.58078,4538196.85595,4738070.38967,-4214199.80313,2350172.78614,4741262.9268,-933.499656144,-7122.42010356,2696.13041397,5.42612985797,-3.02604131792,-6.10476710489,6758662.11723,1.41274675777,0.9854350348075501,1.5560997419913378,1.096068321199136,-1.1777591238564469,-0.7684885129880532,2.6499660534042,-1.979895708393292E-5,-0.0013692094774692357,-1.2765015997574547E-4,397165.541087,2.94220226063E-12,958.41769949,5.42612985797,-3.02604131792,-6.10476710489
5400.00000001,1234000.85375,4509726.80105,4888676.1051,-4260402.96815,1917712.73092,4891921.13779,-606.005825092,-7287.34864573,2323.86413382,5.48612702795,-2.46944144101,-6.29933388303,6758662.11723,1.41712202686,0.4880417011486034,1.545263170488576,0.5988371281861312,-1.2533888856421396,-0.804371696777019,2.755070730313692,-1.979895708393292E-5,-0.001365649097498257,-1.3190502850448827E-4,397635.287741,2.97945624016E-12,963.328798147,5.48612702795,-2.46944144101,-6.29933388303
5460.00000001,813400.243808,4464099.24923,5016627.98145,-4286863.68153,1476366.14453,5019910.47242,-275.671418609,-7418.52256082,1940.79201188,5.52077774633,-1.90131759758,-6.46482185663,6758662.11723,1.42149729595,0.3024638689511689,1.5323815559582863,0.4133401345589957,-1.3365008470286273,-0.8344139186636587,2.867117591628044,-1.979895708393292E-5,-0.0013589097359836477,-1.360634678376262E-4,397992.347058,3.0321592582E-12,968.940263737,5.52077774633,-1.90131759758,-6.46482185663
5520.00000001,388572.336006,4401567.43492,5121330.66924,-4293457.25169,1028177.49014,5124635.40604,55.9770985219,-7515.32841418,1548.68264364,5.5299120386,-1.32427802287,-6.60045771136,6758662.11723,1.42587256503,0.20897679127947105,1.5193910991737678,0.3198719301447907,-1.4261407713048524,-0.8578893056822241,2.9851862599748173,-1.979895708393292E-5,-0.0013490866125514674,-1.4006568269444024E-4,398226.897326,3.10173978898E-12,975.286154449,5.5299120386,-1.32427802287,-6.60045771136
5580.00000001,-38668.8987572,4322446.64981,5202296.17572,-4280150.81135,575223.314713,5205607.84101,387.406541821,-7577.31061137,1149.34698168,5.51347600736,-0.740973877866,-6.70560342383,6758662.11723,1.43024783412,0.15141519977992685,1.5068467441199038,0.2622877005202218,-1.520738873932332,-0.8742264716228022,3.1077404072379107,-1.979895708393292E-5,-0.0013363177884457937,-1.4385362654221434E-4,398331.005993,3.18951795849E-12,982.382306354,5.51347600736,-0.740973877866,-6.70560342383
5640.00000001,-466494.865928,4227112.67352,5259146.16031,-4247003.51145,119602.708288,5262449.4027,717.083988026,-7604.17362171,744.630122134,5.47153229246,-0.154087482833,-6.77975936839,6758662.11723,1.43462310321,0.11110609992619916,1.495037350802452,0.2219356191619064,-1.618178554904388,-0.8830863950030939,-3.0504890743495774,-1.979895708393292E-5,-0.0013207814319957216,-1.4737210177063792E-4,398298.78915,3.29658512187E-12,990.217249976,5.47153229246,-0.154087482833,-6.77975936839
5700.00000001,-893070.199265,4115999.99794,5291613.73233,-4194166.29559,-336572.348753,5294893.23735,1043.48376865,-7595.78349017,336.402922188,5.40426003154,0.433679631157,-6.82256684099,6758662.11723,1.4389983723,0.08024017980033366,1.4841692691201385,0.19102784059166017,-1.7160077892290588,-0.8844188843181676,-2.9255516584904298,-1.979895708393292E-5,-0.0013026924497372052,-1.5056978453814728E-4,398126.535827,3.42367473266E-12,998.744692521,5.40426003154,0.433679631157,-6.82256684099
5760.00000001,-1316560.66962,3989599.8534,5299544.74184,-4121881.25539,-791186.707578,5302785.30284,1365.09444609,-7552.1686281,-73.4465160521,5.31195431658,1.01961880659,-6.83380998483,6758662.11723,1.44337364139,0.05499115351019157,1.4744095362750285,0.16575942507198949,-1.8117518831260175,-0.8784781190245865,-2.803076416061836,-1.979895708393292E-5,-0.0012822986482280872,-1.5340015842743126E-4,397812.794976,3.57106093847E-12,1007.88062989,5.31195431658,1.01961880659,-6.83380998483
5820.00000001,-1735141.11704,3848458.04486,5282898.55682,-4030480.56838,-1242131.79842,5286085.14536,1680.42574188,-7473.51987588,-483.021458885,5.19502514392,1.60102643231,-6.81341710429,6758662.11723,1.44774891047,0.03325469682029461,1.4658985822947506,0.14404686193815602,-1.9032337215536315,-0.865789987572705,-2.685210609376057,-1.979895708393292E-5,-0.001259876594085222,-1.5582234831976551E-4,397358.423623,3.7385213555E-12,1017.50731979,5.19502514392,1.60102643231,-6.81341710429
5880.00000001,-2147003.37238,3693172.60724,5241748.32183,-3920385.02255,-1687315.35993,5244866.15734,1988.01538684,-7360.18983391,-890.42521454,5.0539958566,2.17521615575,-6.76146135523,6758662.11723,1.45212417956,0.013762539473294956,1.458754287628046,0.12464176529353956,-1.988803485359368,-0.8470808999782996,-2.573575267115995,-1.979895708393292E-5,-0.0012357273260857513,-1.5780185250373606E-4,396766.595257,3.92538015518E-12,1027.48400002,5.0539958566,2.17521615575,-6.76146135523
5940.00000001,-2550364.1343,3524391.28931,5176280.69576,-3792102.13293,-2124671.10633,5179315.31406,2286.43586238,-7212.69146083,-1293.76982917,4.88950108006,2.73953108461,-6.67816080219,6758662.11723,1.45649944865,-0.004313371238950874,1.4530731627534699,0.10673466531027233,-2.0674274787020432,-0.8231893900148572,-2.469176244887242,-1.979895708393292E-5,-0.001210172046088807,-1.5931117612940125E-4,396042.768155,4.13061467529E-12,1037.66151364,4.88950108006,2.73953108461,-6.67816080219
6000.00000001,-2943472.76749,3342808.87618,5086795.06833,-3646223.85764,-2552168.28866,5089732.38875,2574.30100298,-7031.69594127,-1691.18476707,4.70228415407,3.29135592625,-6.56387783486,6758662.11723,1.46087471774,-0.02155740100294785,1.448930505190956,0.08975813767776306,-2.1386483190096315,-0.7949824683997847,-2.372443815743233,-1.979895708393292E-5,-0.0011835478791176308,-1.603303721207337E-4,395194.613969,4.35298276682E-12,1047.89658813,4.70228415407,3.29135592625,-6.56387783486
6060.00000001,-3324618.98799,3149164.36069,4973702.25762,-3483423.92288,-2967821.10616,4976528.64844,2850.27242952,-6818.02982845,-2080.82553658,4.49319406585,3.8281290127,-6.41911793876,6758662.11723,1.46524998683,-0.03841760211844938,1.4463802177153027,0.07327912900672445,-2.2024671015635033,-0.7632908303484095,-2.283350169380774,-1.979895708393292E-5,-0.0011562037523457406,-1.6084749624090098E-4,394231.907527,4.59112467507E-12,1058.06221171,4.49319406585,3.8281290127,-6.41911793876
6120.00000001,-3692140.40164,2944237.97472,4837522.69291,-3304454.76758,-3369697.92476,4840225.03469,3113.06578376,-6572.67147001,-2460.8822227,4.26318189139,4.34735415755,-6.24452781759,6758662.11723,1.46962525591,-0.05527085836011583,1.4454545624357913,0.056933555634847005,-2.259201732397137,-0.7288672108189874,-2.2015506185616793,-1.979895708393292E-5,-0.0011284964027784392,-1.6085898116467007E-4,393166.379416,4.84361130426E-12,1068.05264919,4.26318189139,4.34735415755,-6.24452781759
6180.00000001,-4044429.86193,2728848.09142,4678884.08963,-3110144.12077,-3755930.25982,4681449.83629,3361.45673485,-6296.74672878,-2829.5878877,4.01329675464,4.84661229097,-6.04089286716,6758662.11723,1.474000525,-0.07246824419034122,1.4461639639317727,0.04038073684051591,-2.309358301020902,-0.6923652475020826,-2.1265116355940368,-1.979895708393292E-5,-0.0011007864890798659,-1.6036993047091692E-4,392011.533561,5.10893581089E-12,1077.78371233,4.01329675464,4.84661229097,-6.04089286716
6240.00000001,-4379942.61426,2503848.01022,4498518.62547,-2901391.22606,-4124721.48142,4500935.86271,3594.2867292,-5991.52401358,-3185.22680065,3.74468131612,5.32357281808,-5.80913400399,6758662.11723,1.47837579409,-0.09037314385726629,1.4484969021034138,0.023265119574568977,-2.3535317872795556,-0.6543332977560729,-2.0576094218961045,-1.979895708393292E-5,-0.0010734347578647914,-1.5939432797026088E-4,390782.432571,5.38546365075E-12,1087.18999397,3.74468131612,5.32357281808,-5.80913400399
6300.00000001,-4697203.19389,2270122.6363,4297259.62913,-2679162.72958,-4474355.20112,4299517.13002,3810.46845586,-5658.40863806,-3526.14245756,3.45856680525,5.77600464603,-5.55030385439,6758662.11723,1.48275106318,-0.10940123847619138,1.4524198945037297,0.005176187728614171,-2.392337947696525,-0.615217606599654,-1.9941971650444383,-1.979895708393292E-5,-0.0010467982017821303,-1.5795515156092043E-4,389495.454263,5.67136269718E-12,1096.22083778,3.45856680525,5.77600464603,-5.55030385439
6360.00000001,-4994812.04601,2028585.06697,4076037.79533,-2444488.24916,-4803203.30081,4078125.0727,4008.99100062,-5298.93652931,-3850.74535382,3.15626761312,6.20178682501,-5.26558231304,6758662.11723,1.48712633227,-0.13007194193314633,1.4578775312486598,-0.01440302523360512,-2.426371203454129,-0.5753704657752814,-1.9356461648920795,-1.979895708393292E-5,-0.0010212261470923872,-1.5608437474837135E-4,388168.023264,5.96453287662E-12,1104.83630794,3.15626761312,6.20178682501,-5.26558231304
6420.00000001,-5271451.83686,1780173.09724,3835876.94211,-2198455.6443,-5109733.56495,3837784.29759,4188.92466288,-4914.7673109,-4157.52047161,2.83917546489,6.59891874888,-4.95627148337,6758662.11723,1.49150160135,-0.15308542760042712,1.4647924703989255,-0.036172963922007084,-2.4561814674302043,-0.5350604668883188,-1.8813678974275467,-1.979895708393292E-5,-9.970562223201131E-4,-1.5382283409579302E-4,386818.322156,6.26254913159E-12,1113.0038162,2.83917546489,6.59891874888,-4.95627148337
6480.00000001,-5525893.42659,1525845.65752,3577889.32859,-1942206.00776,-5392516.87992,3579607.89799,4349.42541091,-4507.67678851,-4445.03444548,2.50875319372,6.96552986174,-4.62379001531,6758662.11723,1.49587687044,-0.17945101526635768,1.473065191748179,-0.061145891132348924,-2.482263518808156,-0.49448315250743746,-1.830823416846062,-1.979895708393292E-5,-9.746101853444516E-4,-1.512199381120505E-4,385464.987041,6.56262603837E-12,1120.69560478,2.50875319372,6.96552986174,-4.62379001531
6540.00000002,-5757001.4749,1266579.19609,3303270.55352,-1676928.40143,-5650233.96527,3304792.3484,4489.73895208,-4079.5488692,-4711.94237066,2.16652814048,7.29988881794,-4.26966685946,6758662.11723,1.50025213953,-0.21072012083618288,1.482573058328048,-0.09087874663562426,-2.505054045058032,-0.4537711981955602,-1.7835249862281277,-1.979895708393292E-5,-9.54189621506362E-4,-1.483331932249819E-4,384126.792817,6.86160842013E-12,1127.88702314,2.16652814048,7.29988881794,-4.26966685946
6600.00000002,-5963739.65288,1003364.01964,3013294.05716,-1403854.35991,-5881681.60392,3014612.00232,4609.2043966,-3632.36694881,-4956.9942196,1.81408520624,7.60041204429,-3.89553446009,6758662.11723,1.50462740862,-0.24944485376687614,1.4931676189790888,-0.1279316138998747,-2.5249329760487504,-0.41300376762824126,-1.7390333224622485,-1.979895708393292E-5,-9.36071565753879E-4,-1.4522752605120043E-4,382822.333747,7.15598971722E-12,1134.55542921,1.81408520624,7.60041204429,-3.89553446009
6660.00000002,-6145175.43517,737200.604859,2709305.25092,-1124252.18709,-6085778.34074,2710413.21771,4707.25749461,-3168.20480485,-5179.04083401,1.45305958683,7.86567165523,-3.50312141305,6758662.11723,1.50900267771,-0.30016690500690574,1.5046673906394004,-0.17685644208551707,-2.5422269321729316,-0.3722149655216849,-1.6969526412098102,-1.979895708393292E-5,-9.205041431220543E-4,-1.4197438830084586E-4,381569.705136,7.44195810878E-12,1140.67952686,1.45305958683,7.86567165523,-3.50312141305
6720.00000002,-6300484.4489,469095.894289,2392715.30112,-839421.071709,-6261569.62072,2393608.13634,4783.43342878,-2689.21703502,-5377.03946085,1.0851292214,8.0944026738,-3.09424461794,6758662.11723,1.51337794679,-0.3717978535109382,1.5168380458573956,-0.24657715609880473,-2.5572134589694464,-0.33140145136806276,-1.6569248322264918,-1.979895708393292E-5,-9.077023585101088E-4,-1.3865064106085033E-4,380386.192012,7.71546883982E-12,1146.23897034,1.0851292214,8.0944026738,-3.09424461794
6780.00000002,-6428954.35731,200059.58982,2064994.59522,-550685.049096,-6408232.34096,2065668.14547,4837.36914588,-2197.62908436,-5550.05880334,0.71200698895,8.28550951414,-2.67080095753,6758662.11723,1.51775321588,-0.4841778715649698,1.5293322814552643,-0.35694813942325865,-2.570125285150833,-0.2905293312153856,-1.618623523649323,-1.979895708393292E-5,-8.978441940938095E-4,-1.35337228112229E-4,379287.970735,7.97233944067E-12,1151.21408929,0.71200698895,8.28550951414,-2.67080095753
6840.00000002,-6529988.25818,-68899.5431589,1727665.9203,-259386.837224,-6525078.79305,1728117.05171,4868.80521362,-1695.72690678,-5697.28355922,0.335432689132,8.43807168389,-2.23475854054,6758662.11723,1.52212848497,-0.6889703815511693,1.541473208270671,-0.5596486465338776,-2.5811541954016435,-0.2495404535413543,-1.58174842814569,-1.979895708393292E-5,-8.91067186294983E-4,-1.3211766218629756E-4,378289.829283,8.20836158832E-12,1155.58556369,0.335432689132,8.43807168389,-2.23475854054
6900.00000002,-6603107.57911,-336777.347722,1382297.38536,33118.4241099,-6611559.97539,1382523.99857,4877.58719077,-1185.84630873,-5818.01842161,-0.0428351543324,8.55134866875,-1.78814754743,6758662.11723,1.52650375406,-1.1320834928371943,1.5513248566450701,-1.0006039773402466,-2.590454321859969,-0.2083582223831022,-1.546020137208788,-1.979895708393292E-5,-8.874656515440178E-4,-1.2907636213259618E-4,377404.91173,8.41943450714E-12,1159.33446243,-0.0428351543324,8.55134866875,-1.78814754743
6960.00000002,-6647954.45414,-602577.910513,1030495.12036,325469.50147,-6667268.25785,1030496.16065,4863.66650119,-670.362025152,-5911.69151974,-0.421027627629,8.62478396499,-1.33305072162,6758662.11723,1.53087902315,-1.9348828606771504,1.5533898251280105,-1.801198058775623,-2.598144779110828,-0.16689302012980992,-1.511175392521369,-1.979895708393292E-5,-8.870887099423233E-4,-1.2629689127569582E-4,376644.492032,8.60172604119E-12,1162.44313616,-0.421027627629,8.62478396499,-1.33305072162
7020.00000002,-6664293.56828,-865317.147179,673895.786178,616305.433341,-6691939.38418,673671.248721,4827.10080469,-151.676579898,-5977.85727953,-0.797373856485,8.65800823011,-0.87159355173,6758662.11723,1.53525429223,-2.5254581850825697,1.5455819491395555,-2.3895396543080323,-2.6043116294618094,-0.1250473113436582,-1.476962781362943,-1.979895708393292E-5,-8.899392199517509E-4,-1.238601562326178E-4,376017.781688,8.75183116957E-12,1164.89595985,-0.797373856485,8.65800823011,-0.87159355173
7080.00000002,-6652013.45928,-1124026.32552,314158.930759,904271.902733,-6685453.80103,313709.861003,4768.05386036,367.79101586,-6016.19868723,-1.17010948845,8.65084152626,-0.40593419288,6758662.11723,1.53962956132,-2.7939070951543505,1.5339161757304096,-2.6557459494247158,-2.6090091911197066,-0.08272048187507115,-1.4431387550442591,-1.979895708393292E-5,-8.959736886253303E-4,-1.2184262999835816E-4,375531.775242,8.86691647642E-12,1166.6798577,-1.17010948845,8.65084152626,-0.40593419288
7140.00000002,-6611127.26811,-1377755.514,-47040.7722015,1188027.5863,-6647837.30532,-47712.2831345,4686.79488046,885.616672054,-6026.52894159,-1.53748518371,8.60329463603,0.0617468224194,6758662.11723,1.54400483041,-2.9318913977188155,1.5214198758199333,-2.7914984940815875,-2.6122607056218783,-0.039813456314686274,-1.40946384130372,-1.979895708393292E-5,-9.051031660745472E-4,-1.2031466253576329E-4,375191.136803,8.94484299954E-12,1167.78470353,-1.53748518371,8.60329463603,0.0617468224194
7200.00000002,-6541772.93253,-1625576.94368,-408021.365155,1466250.44943,-6579261.00527,-408912.189932,4583.69737574,1399.38267889,-6008.79248375,-1.89777506955,8.51556943547,0.529257031084,6758662.11723,1.5483800995,-3.0158541819567284,1.5090498597380653,-2.8732599963041094,-2.614058370369183,0.0037668676715135814,-1.3756989052763067,-1.979895708393292E-5,-9.171950758589636E-4,-1.1933893645951302E-4,374998.12994,8.9842599549E-12,1168.20364042,-1.89777506955,8.51556943547,0.529257031084
7260.00000002,-6444212.82066,-1866588.27181,-767101.491529,1737643.95686,-6480040.59386,-768207.480951,4459.2374957,1906.68915984,-5963.065397,-2.24928511305,8.38805831438,0.994402589679,6758662.11723,1.55275536859,-3.073564843598831,1.4972336554704295,-2.928819032851874,-2.614362723798845,0.048103327312279544,-1.3416013038508139,-1.979895708393292E-5,-9.320758814635949E-4,-1.1896911534982445E-4,374952.592411,8.98466344125E-12,1167.93334832,-2.24928511305,8.38805831438,0.994402589679
