time,gePosition_m_X,gePosition_m_Y,gePosition_m_Z,eiPosition_m_X,eiPosition_m_Y,eiPosition_m_Z,eiVelocity_m_s_X,eiVelocity_m_s_Y,eiVelocity_m_s_Z,eiAccel_m_s2_X,eiAccel_m_s2_Y,eiAccel_m_s2_Z,semiMajorAxis_m,gast_rad,eulerAngle_rad_Roll,eulerAngle_rad_Pitch,eulerAngle_rad_Yaw,eulerAngleWrtEi_rad_Roll,eulerAngleWrtEi_rad_Pitch,eulerAngleWrtEi_rad_Yaw,bodyAngularRateWrtEi_rad_s_Roll,bodyAngularRateWrtEi_rad_s_Pitch,bodyAngularRateWrtEi_rad_s_Yaw,altitudeMsl_m,airDensity_kg_m3,ambientTemperature_dgK,eiGravitation_m_s2_X,eiGravitation_m_s2_Y,eiGravitation_m_s2_Z
0.0,-1428622.31112709,4163200.4655738,5136049.67204027,-4292653.41,955168.47,5139356.57,109.649663,-7527.72649,1484.521489,5.5289865693572,-1.23026788740987,-6.61954989994585,6758662.11722884,1.02331944621101,1.48354308793975,0.001521078032323,0.0173868908823789,-1.37314475876785,-0.867737478486544,3.05977258920154,-1.9798957084E-5,-9.597485664705E-4,0.0,398252.763838142,3.1122E-12,976.192653674721,5.5289865693572,-1.23026788740987,-6.61954989994585
60.0,-1789712.64876688,3920255.3134273,5213136.60397904,-4276130.76360613,501640.15063872,5216447.94770978,440.899504425955,-7584.04304560366,1084.18939672292,5.50841669093322,-0.646201702281534,-6.71971240615587,6758662.11722887,1.02769471546425,1.49457345133053,0.0015129472720172,0.0172455738962807,-1.44136330271435,-0.877176584827012,-3.1359178469318,-1.9798957084E-5,-9.416286994366E-4,-4.9255690468E-6,398335.161468169,3.2024E-12,983.369143358291,5.50841669093322,-0.646201702281534,-6.71971240615587
120.0,-2144732.0333194,3662345.3126043,5266057.24088062,-4239785.46485071,45786.449266332,5269357.68010073,770.149856360686,-7605.20775889381,678.777242699508,5.46236021841803,-0.0589893241270332,-6.78881750197499,6758662.11722883,1.0320699847175,1.50662225597727,0.0015060434626292,0.0168243891989129,-1.50999319238883,-0.882941138312689,-3.04844072352455,-1.9798957084E-5,-9.260397828888E-4,-9.7733391676E-6,398280.483168024,3.312E-12,991.275655191297,5.46236021841803,-0.0589893241270332,-6.78881750197499
180.0,-2492166.12299056,3390599.0029,5294562.85672707,-4183783.25764152,-410279.480789291,5297837.08956815,1095.87688042975,-7591.11290731489,270.159254331849,5.39101509822693,0.52866574084301,-6.82652947798943,6758662.11722882,1.03644525395931,1.51953174806086,0.0015268974882337,0.0161314204688583,-1.57844263598756,-0.885137290831005,-2.96148231362575,-1.9798957084E-5,-9.131985243315E-4,-1.44846220063E-5,398085.3786748,3.4417E-12,999.861374013802,5.39101509822693,0.52866574084301,-6.82652947798943
240.0,-2830524.93283794,3106195.85223943,5298517.62697299,-4108380.89026465,-864442.894077516,5301750.47079899,1416.5720940025,-7541.81319429643,-139.77448384783,5.29469509567264,1.11405482451904,-6.83265572642931,6758662.11722884,1.04082052320969,1.53313212221548,0.0016018335110352,0.0151799412523488,-1.64616232381218,-0.883880621298506,-2.87549998246198,-1.9798957084E-5,-9.032858338913E-4,-1.90030251733E-5,397748.768104346,3.5916E-12,1009.03826093396,5.29469509567264,1.11405482451904,-6.83265572642931
300.0,-3158349.27068251,2810361.12607352,5277899.32207647,-4013924.98616908,-1314597.20057467,5281075.78379538,1730.74928789973,-7457.52569377281,-549.126655787512,5.17382866282785,1.69447627941292,-6.80714795491088,6758662.11722881,1.04519579246293,1.54724373183786,0.0017562009455908,0.0139882306876819,-1.71266206503805,-0.87928818055724,-2.79089097074124,-1.9798957084E-5,-8.964433772892E-4,-2.32756374299E-5,397271.883714379,3.7614E-12,1018.68603174665,5.17382866282785,1.69447627941292,-6.80714795491088
360.0,-3474217.0876188,2504360.59818322,5232799.48200484,-3900850.50203112,-1758653.68795,5235904.82755069,2036.95136094463,-7338.62906255864,-956.00139364551,5.02895729882105,2.26724769265305,-6.75010277495461,6758662.1172288,1.04957106170188,1.56167950086234,0.0020136203295461,0.0125792491430396,-1.77752009222481,-0.871471443818583,-2.70798327243566,-1.9798957084E-5,-8.927707330993E-4,-2.72541766312E-5,396658.271816294,3.9505E-12,1028.66356558606,5.02895729882105,2.26724769265305,-6.75010277495461
420.0,-3776749.7157209,2189495.1251204,5163423.06959608,-3769678.77900142,-2194551.17459278,5166442.89226163,2333.75704093037,-7185.6620201973,-1358.5129738363,4.86073340379137,2.82971808104516,-6.66176165594907,6758662.11722882,1.05394633095227,1.57624749950639,0.0023952775425743,0.0109801772118881,-1.84038542414149,-0.860530825070553,-2.62703348969796,-1.9798957084E-5,-8.923233058158E-4,-3.08960548685E-5,395913.754633969,4.1579E-12,1038.82359594937,4.86073340379137,2.82971808104516,-6.66176165594907
480.0,-4064617.96585945,1867095.10630415,5070087.60293968,-3621015.19485927,-2620265.54951359,5073007.89024476,2619.7874617098,-6999.32109896086,-1754.79449109399,4.66991762971392,3.37928001560926,-6.54251023745084,6758662.11722886,1.05832160020265,1.5907536368425,0.0029192992662491,0.0092218293517376,-1.90097470097705,-0.846552134112372,-2.54823021336352,-1.9798957084E-5,-8.951111125722E-4,-3.41653161337E-5,395046.352534709,4.3822E-12,1049.02643605174,4.66991762971392,3.37928001560926,-6.54251023745084
540.0,-4336548.05765017,1538514.85367808,4953221.76924825,-3455546.42660972,-3033819.1554875,4956028.9680342,2893.71256636816,-6780.45766980691,-2143.00647189947,4.45737573340151,3.91338162296548,-6.39287699509342,6758662.11722893,1.06269686945303,1.60500441556778,0.0036002386057019,0.0073379608836312,-1.95906539170351,-0.829605066909641,-2.47170098999249,-1.9798957084E-5,-9.010985145222E-4,-3.70334066676E-5,394066.16768517,4.6222E-12,1059.14947100887,4.45737573340151,3.91338162296548,-6.39287699509342
600.0,-4591327.35512146,1205126.89368974,4813363.52501608,-3274037.3348504,-3433289.97224998,4816044.60446428,3154.25730682291,-6530.07425328215,-2521.34538840932,4.22407493918389,4.42953841007283,-6.21353125792587,6758662.11722894,1.06707213870913,1.61880968988067,0.0044486936575479,0.0053644933195785,-2.01448725404419,-0.809743572698835,-2.39752095578381,-1.9798957084E-5,-9.102049089226E-4,-3.9479746564E-5,392985.230809613,4.8764E-12,1069.09131825969,4.22407493918389,4.42953841007283,-6.21353125792587
660.0,-4827809.88150349,868316.225201669,4651157.68959356,-3077327.48299947,-3816820.55719276,4653700.20187414,3400.20761071366,-6249.32012759414,-2888.05203397396,3.97107982105512,4.92534485815692,-6.00528057770761,6758662.11722897,1.0714474079538,1.6319853664709,0.0054710740119805,0.0033386874031208,-2.06711356184787,-0.787007770034098,-2.32572158518638,-1.9798957084E-5,-9.223063410726E-4,-4.14920823413E-5,391817.313344238,5.1433E-12,1078.7715032867,3.97107982105512,4.92534485815692,-6.00528057770761
720.0,-5044921.58717981,529474.557546531,4467353.04163684,-2866327.30620534,-4182626.70183817,4469745.17990409,3630.41608710307,-5939.48624933574,-3241.41972144966,3.69954771645439,5.39848573122372,-5.76906745354871,6758662.11722898,1.07582267720419,1.64435599141107,0.0066695214156354,0.0012982954011529,-2.11685309560454,-0.761426996496313,-2.25629852441002,-1.9798957084E-5,-9.372379429524E-4,-4.30666128381E-5,390577.707881745,5.4213E-12,1088.12741165133,3.69954771645439,5.39848573122372,-5.76906745354871
780.0,-5241665.34592555,189994.551533034,4262798.93021112,-2642013.94644413,-4529005.76339734,4265029.58367307,3843.80744331259,-5601.99950563094,-3579.80226580135,3.41072368629182,5.84674704437561,-5.50596541829295,6758662.11722894,1.08019794645171,1.65575717189828,0.0080419818918869,-7.192760786102E-4,-2.16364337956594,-0.733023562615295,-2.18921799660545,-1.9798957084E-5,-9.54797063555E-4,-4.42078935435E-5,389282.980377661,5.7085E-12,1097.11022049672,3.41072368629182,5.84674704437561,-5.50596541829295
840.0,-5417125.65492679,-148735.911961008,4038441.41462094,-2405426.77194363,-4854344.63194301,4040500.22042338,4039.38358616868,-5238.41631975528,-3901.62171297128,3.10593503833543,6.26802663725425,-5.21717449618087,6758662.11722895,1.08457321569067,1.66603779063408,0.0095824182996852,-0.0026777640085478,-2.20744524202281,-0.701816820134457,-2.12442167705873,-1.9798957084E-5,-9.74746928908E-4,-4.49285359826E-5,387950.698134415,6.0029E-12,1105.68096071401,3.10593503833543,6.26802663725425,-5.21717449618087
900.0,-5570473.01547434,-485339.412664834,3795318.94930193,-2157662.60064381,-5157127.29514867,3797196.34098099,4216.22838203827,-4850.41563555375,-4205.37577765728,2.7865854336178,6.66034429835598,-4.90401604458787,6758662.11722896,1.08894848494105,1.67506198115725,0.0112811452807574,-0.0045427832706642,-2.24823851176366,-0.667827226665958,-2.0618302046556,-1.9798957084E-5,-9.968206600322E-4,-4.52487278984E-5,386599.138079688,6.3018E-12,1113.80733938154,2.7865854336178,6.66034429835598,-4.90401604458787
960.0,-5700967.97210349,-818454.597994031,3534557.63232429,-1899870.64890394,-5435941.96416277,3536244.88459677,4373.51205128819,-4439.79130921346,-4489.6449535128,2.45414859808208,7.02185138672565,-4.56792699598511,6758662.11722897,1.09332375419143,1.68271084351343,0.0131252632758426,-0.0062824787448718,-2.28601853741422,-0.631080174155747,-2.00134562567371,-1.9798957084E-5,-0.0010207254846865,-4.51956059534E-5,385246.980300878,6.6025E-12,1121.46132185438,2.45414859808208,7.02185138672565,-4.56792699598511
1020.0,-5807964.78929802,-1146741.69255305,3257366.0382143,-1633247.22808712,-5689487.72599526,3258855.3078914,4510.49517421355,-4008.44394012615,-4753.09926035203,2.11016166424597,7.35083989865653,-4.21045351969828,6758662.117229,1.09769902344753,1.68888389011976,0.015099165030196,-0.0078680827707937,-2.32079319645791,-0.591609432972194,-1.94285308790338,-1.9798957084E-5,-0.0010461470017133,-4.48025152202E-5,383912.992172884,6.9017E-12,1128.61758947139,2.11016166424597,7.35083989865653,-4.21045351969828
1080.0,-5890914.74618771,-1468887.88854309,2965029.65788749,-1359030.21298398,-5916580.68979203,2966314.02071485,4626.53228704321,-3558.37217567435,-4994.50459422186,1.75621817019126,7.64575092852467,-3.83324412651147,6758662.11722893,1.10207429269791,1.69350022057189,0.0171850867749992,-0.0092743717678648,-2.35258010829467,-0.549460137270741,-1.8862220557633,-1.9798957084E-5,-0.0010727533913951,-4.41081889923E-5,382615.708710365,7.1959E-12,1135.25254461002,1.75621817019126,7.64575092852467,-3.83324412651147
1140.0,-5949369.0312497,-1783612.5943091,2658904.97049029,-1078493.30727021,-6116159.59655273,2659978.45373574,4721.07504834272,-3091.66352777368,-5212.72864769034,1.39396074566216,7.90518247477936,-3.43804224265412,6758662.11722895,1.10644956193401,1.69649943072518,0.0193636768878845,-0.0104800212890376,-2.38140384453415,-0.504691295412363,-1.83130723641615,-1.9798957084E-5,-0.0011001995066251,-4.31558789747E-5,381373.114973407,7.4812E-12,1141.34373969863,1.39396074566216,7.90518247477936,-3.43804224265412
1200.0,-5982981.22062771,-2089672.51982012,2340413.17385551,-792940.132318386,-6287290.86420417,2341270.7844855,4793.67495799488,-2610.48474187409,-5406.74636939725,1.02507351744905,8.12789654441039,-3.02667828318415,6758662.11722898,1.11082483119011,1.69784226527595,0.0216145569927095,-0.0114678631682378,-2.40729301225189,-0.457377850076787,-1.77794932043537,-1.9798957084E-5,-0.0011281308225637,-4.19924605296E-5,380202.336445099,7.7535E-12,1146.86955458213,1.02507351744905,8.12789654441039,-3.02667828318415
1260.0,-5991509.32500534,-2385866.5794125,2011033.60207702,-503698.16669436,-6429173.042467,2011671.35038273,4843.98561293818,-2117.07176184575,-5575.64493381733,0.651274268517162,8.31282551191723,-2.60106125820466,6758662.11722899,1.11520010044049,1.69751102424739,0.0239168537773807,-0.0122250514623896,-2.43027715489608,-0.407612337417403,-1.72597556571266,-1.9798957084E-5,-0.0011561872616452,-4.06675313144E-5,379119.343271715,8.0086E-12,1151.80897714089,0.651274268517162,8.31282551191723,-2.60106125820466
1320.0,-5974817.39272324,-2671040.59001858,1672296.86038922,-212112.56455431,-6541140.6546351,1672711.77894476,4871.76448597512,-1613.71933672153,-5718.62819429269,0.274306387483965,8.45907769192004,-2.16316994869345,6758662.117229,1.11957536967945,1.69550973255981,0.0262496839029461,-0.0127431455372386,-2.45038346303031,-0.355506205960126,-1.6752001982077,-1.9798957084E-5,-0.0011840069418021,-3.92325153252E-5,378138.674100816,8.2422E-12,1156.14131746527,0.274306387483965,8.45907769192004,-2.16316994869345
1380.0,-5932876.65781449,-2944091.74744898,1325777.70908434,80460.1180872135,-6622667.40621776,1325967.86694114,4876.8742162195,-1102.7703176167,-5835.02059469547,-0.104069352975052,8.56594208806799,-1.715043691941,6758662.11722895,1.12395063893269,1.69186407882762,0.0285925788988681,-0.0130181190214518,-2.46763331232674,-0.301190857607897,-1.6254245691358,-1.9798957084E-5,-0.0012112299151322,-3.7739778896E-5,377273.184967215,8.4502E-12,1159.84640445432,-0.104069352975052,8.56594208806799,-1.715043691941
1440.0,-5865766.22382437,-3203972.86290322,973087.729604974,372658.259632584,-6673368.74335871,973052.241648627,4859.28340212075,-586.604695271457,-5924.27051757402,-0.482083148432695,8.63289228480459,-1.25877281964979,6758662.11722899,1.12832590818593,1.68662112546724,0.0309258416010227,-0.0130503027051344,-2.48203865280501,-0.244818468899671,-1.57643699243098,-1.9798957084E-5,-0.0012375019697702,-3.62417612598E-5,376533.828260442,8.6288E-12,1162.90556110442,-0.482083148432695,8.63289228480459,-1.25877281964979
1500.0,-5773673.27712897,-3449696.34164391,615867.807197708,663121.541664056,-6693003.74702991,615606.838616801,4819.06689047301,-67.6284305422186,-5985.9530493058,-0.857964603812728,8.65958945282898,-0.796488794607543,6758662.11722899,1.13270117743631,1.67984878801278,0.033230830268993,-0.0128442681208942,-2.4935982670034,-0.186562644096296,-1.52801218428208,-1.9798957084E-5,-0.0012624785587271,-3.47901202464E-5,375929.466263016,8.7746E-12,1165.30237071448,-0.857964603812728,8.65958945282898,-0.796488794607543
1560.0,-5656892.82461752,-3680337.88927615,255780.465598208,950497.319819383,-6681476.35218847,255295.231437642,4756.40555737188,451.73786822014,-6019.77214561535,-1.22995122006623,8.64588444371375,-0.330354094468689,6758662.11722897,1.13707644668384,1.67163507812002,0.0354901708498635,-0.0124086568880842,-2.50229390188136,-0.126618945621106,-1.47991023385704,-1.9798957084E-5,-0.0012858288966968,-3.3434893689E-5,375466.723088685,8.8849E-12,1167.02323326331,-1.22995122006623,8.64588444371375,-0.330354094468689
1620.0,-5515826.95340565,-3895039.9308628,-105497.909872624,1233446.96624131,-6638835.88436154,-106205.150077749,4671.58557970746,969.070365641116,-6025.56218379897,-1.59629688216489,8.5918189540851,0.137448106468298,6758662.11722895,1.14145171592279,1.6620871028943,0.0376879018032745,-0.0117559592878569,-2.50808626586547,-0.0652053439950159,-1.43187504806081,-1.9798957084E-5,-0.0013072402315844,-3.22236789836E-5,375149.878083675,8.9577E-12,1168.05779321931,-1.59629688216489,8.5918189540851,0.137448106468298
1680.0,-5350983.61257858,-4093014.72954424,-466284.923695406,1510652.1530577,-6565276.90947246,-467210.876185622,4564.99719846212,1481.95346135839,-6003.28889111467,-1.95528030341496,8.49762574499596,0.604724404554614,6758662.11722894,1.14582698517889,1.6513298135245,0.0398095593447976,-0.01090224428253,-2.51091087435761,-0.0025626299447303,-1.38363223257575,-1.9798957084E-5,-0.0013264222554074,-3.12008365674E-5,374980.802903324,8.9916E-12,1168.39927877386,-1.95528030341496,8.49762574499596,0.604724404554614
1740.0,-5162974.91843944,-4273547.19386603,-824900.058379691,1780821.04650638,-6461138.39612124,-826040.410293359,4437.13297779464,1987.99123663926,-5953.04964202478,-2.30521338066818,8.36372790758928,1.0692817285131,6758662.11722892,1.15020225442927,1.63950449910123,0.0418422137767053,-0.0098668425313911,-2.51067373028917,0.0610451638235997,-1.33488639856013,-1.9798957084E-5,-0.0013431115740188,-3.04067272666E-5,374958.943562422,8.9864E-12,1168.04477903315,-2.30521338066818,8.36372790758928,1.0692817285131
1800.0,-4952514.98876372,-4435997.36205582,-1179672.56155015,2042694.38163965,-6326902.19296386,-1181022.00083517,4288.58556662327,2484.81882823115,-5875.07312029932,-2.64444941490613,8.1907371718141,1.52893793960155,6758662.11722894,1.15457752367966,1.62676702698661,0.0437744696240589,-0.0086719840145229,-2.50724684832471,0.125330275301102,-1.28531792470224,-1.9798957084E-5,-0.0013570761122567,-2.98769977568E-5,375081.347804565,8.9425E-12,1166.99547821383,-2.64444941490613,8.1907371718141,1.52893793960155
1860.0,-4720417.31177547,-4579802.55599024,-1528949.29377129,2295051.38802784,-6163190.82727827,-1530501.53379618,4120.04497214574,2970.11367207645,-5769.71834537809,-2.97139115191287,7.97945126076767,1.9815324132759,6758662.11722897,1.15895279293004,1.61328583889599,0.0455964434477021,-0.0073423926635084,-2.50046368233611,0.189980594431106,-1.23457926767142,-1.9798957084E-5,-0.0013681192962743,-2.96419320331E-5,375342.73717172,8.8612E-12,1165.25686060381,-2.97139115191287,7.97945126076767,1.9815324132759
1920.0,-4467591.65945038,-4704479.19686224,-1871102.49905694,2536715.53752901,-5970764.63423897,-1872850.30780825,3932.29535743579,3441.6065598536,-5637.47306582436,-3.28449859833492,7.73085029914256,2.4249365448675,6758662.11722899,1.16332806216899,1.59923972133415,0.047299733353895,-0.0059048418017145,-2.4901146108001,0.254658839185929,-1.18229101590248,-1.9798957084E-5,-0.0013760838330121,-2.97258890871E-5,375735.622207122,8.7448E-12,1162.83889605431,-3.28449859833492,7.73085029914256,2.4249365448675
1980.0,-4195040.55666981,-4809624.27685717,-2204537.46028362,2766560.08600013,-5750518.22982524,-2206472.69401429,3726.21137791165,3897.09245199399,-5478.95152615822,-3.58229656936021,7.4460922902021,2.85706412166967,6758662.117229,1.16770333142223,1.58481537932268,0.0488773933015831,-0.0043876760019654,-2.47594279579094,0.319001453069437,-1.12803804505819,-1.9798957084E-5,-0.0013808549018979,-3.01468474154E-5,376250.458318801,8.596E-12,1159.75621270568,-3.58229656936021,7.4460922902021,2.85706412166967
2040.0,-3903855.31899984,-4894916.48363007,-2527700.00220742,2983513.3817907,-5503476.34364012,-2529813.64337879,3502.75407406107,4334.44099186723,-5294.89161680589,-3.86338192552636,7.12650768163134,3.27588150414579,6758662.11722902,1.17207860067547,1.57020485241573,0.0503239233375819,-0.0028203068880381,-2.45764098906702,0.382617168941515,-1.07136639038673,-1.9798957084E-5,-0.0013823625877829,-3.09160752508E-5,376875.838993535,8.4182E-12,1156.02826133882,-3.86338192552636,7.12650768163134,3.27588150414579
2100.0,-3595211.67602848,-4960116.97407085,-2839083.80546986,3186563.91497868,-5230789.03119491,-2841366.00480917,3262.96634031037,4751.60666722407,-5086.15142031892,-4.1264304577897,6.77359304645847,3.67941755972944,6758662.11722901,1.17645386991157,1.55560282074094,0.0516352839784987,-0.0012326921244545,-2.43485025307429,0.445085235043038,-1.01178184229308,-1.9798957084E-5,-0.0013805834164193,-3.20379415401E-5,377598.722302018,8.2153E-12,1151.67947389085,-4.1264304577897,6.77359304645847,3.67941755972944
2160.0,-3270364.99776836,-5005069.79715692,-3137237.49586789,3374765.08257431,-4933726.28839849,-3139677.61834287,3007.96799231993,5146.63856673043,-4853.70517037444,-4.37020338193555,6.38900391094964,4.06577329388592,6758662.11722907,1.1808291391591,1.541203855239,0.0528089393169376,3.451919340364E-4,-2.40716213854388,0.505953404328928,-0.948751840722272,-1.9798957084E-5,-0.0013755409015257,-3.35098770358E-5,378404.685995256,7.9915E-12,1146.73941664901,-4.37020338193555,6.38900391094964,4.06577329388592
2220.0,-2930645.14339684,-5029701.96720964,-3420771.47425171,3547239.64632245,-4613672.0940596,-3423358.14874461,2738.95045725709,5517.68968150628,-4598.63864334116,-4.59355340567688,5.97454676689681,4.43313112473822,6758662.11722905,1.18520440840948,1.5271996696628,0.0538439293564701,0.0018838729434135,-2.37412664149878,0.564735977060942,-0.881713019879626,-1.9798957084E-5,-0.001367305070592,-3.53224880223E-5,379278.20597086,7.751E-12,1141.24293547986,-4.59355340567688,5.97454676689681,4.43313112473822
2280.0,-2577450.95559301,-5034023.1890373,-3688364.4536949,3703183.8612728,-4272117.90914548,-3691085.62614034,2457.17111372191,5863.02570398799,-4322.14400535768,-4.79543033434893,5.53217031097946,4.77976374961544,6758662.11722905,1.18957967766558,1.5137764318382,0.054740967927925,0.0033548899270903,-2.33526921844446,0.620912494117465,-0.810087705457002,-1.9798957084E-5,-0.001355990998429,-3.7459817964E-5,380202.952497485,7.4981E-12,1135.23028469051,-4.79543033434893,5.53217031097946,4.77976374961544
2340.0,-2212244.42325245,-5018125.2398008,-3938769.67204942,3841871.25494627,-3910655.66432023,-3941612.66178343,2163.94730996203,6181.03327914375,-4025.51414089648,-4.97488618394351,5.06395595884157,5.10404255434567,6758662.11722905,1.1939549469131,1.50111218818714,0.0555025586736816,0.0047312756762672,-2.29012108740658,0.673928134834153,-0.733313610368443,-1.9798957084E-5,-0.001341756435929,-3.98997455858E-5,381162.098326338,7.2371E-12,1128.74722066978,-4.97488618394351,5.06395595884157,5.10404255434567
2400.0,-1836544.53879732,-4982181.01278231,-4170820.74964127,3962656.0386994,-3530970.26989712,-4173772.30869328,1860.65009079793,6470.22766607027,-3710.13649165393,-5.13107977330633,4.57210768612703,5.40444551895833,6758662.11722903,1.19833021615206,1.48937444897861,0.0561331183375052,0.005988006299547,-2.23826750837584,0.723197475743774,-0.650891436345586,-1.9798957084E-5,-0.0013247986698872,-4.26145023659E-5,382138.632693792,6.9721E-12,1121.84502408977,-5.13107977330633,4.57210768612703,5.40444551895833
2460.0,-1451920.876792,-4926443.23047299,-4383437.16367372,4064976.13476226,-3134831.6847598,-4386483.53871902,1548.69766527187,6729.25977126165,-3377.48643729296,-5.26328077061895,4.05894125292038,5.67956457666304,6758662.11722904,1.2027054854053,1.47871797295505,0.0566390942208947,0.0071024121242657,-2.17941778400232,0.76811392365535,-0.562454132135935,-1.9798957084E-5,-0.0013053507828535,-4.55712887285E-5,383115.675220448,6.7067E-12,1114.58038820284,-5.26328077061895,4.05894125292038,5.67956457666304
2520.0,-1059986.92219812,-4851242.83558609,-4575629.31287015,4148355.80438889,-2724086.58302654,-4578756.30954747,1229.54864842329,6956.92251834345,-3029.12025204798,-5.37087317276826,3.52687287180051,5.92811238649638,6758662.11722906,1.20708075465283,1.46928277986855,0.0570290613193989,0.0080545463153986,-2.11349692768124,0.808067582549136,-0.467857762212189,-1.9798957084E-5,-0.0012836774967746,-4.87329666818E-5,384076.783833767,6.4444E-12,1107.01507606967,-5.37087317276826,3.52687287180051,5.92811238649638
2580.0,-662393.179166488,-4756987.06967161,-4746503.14799752,4212407.8646,-2300649.65923339,-4749696.19728514,904.695111768889,7152.15652277818,-2666.66767346598,-5.45335819983568,2.97840738299949,6.14892848384064,6758662.11722907,1.21145602389464,1.46119240913789,0.0573137843836937,0.0088275094864428,-2.04075088447121,0.842474036161862,-0.367285875883191,-1.9798957084E-5,-0.0012600707800667,-5.20588072775E-5,385006.251072346,6.1884E-12,1099.21521217583,-5.45335819983568,2.97840738299949,6.14892848384064
2640.0,-260820.090419522,-4644157.25109703,-4895264.34614737,4256835.48310176,-1866494.61458587,-4898508.57248131,575.655478019826,7314.05504394427,-2291.82412158403,-5.51035659068179,2.41612600293897,6.34098477708032,6758662.11722906,1.21583129314788,1.45455243334853,0.0575062309161842,0.0094077299530099,-1.96184489385388,0.870814828717873,-0.261346968802469,-1.9798957084E-5,-0.0012348453765471,-5.55052737618E-5,385889.383457114,5.9412E-12,1091.25004959984,-5.51035659068179,2.41612600293897,6.34098477708032
2700.0,143029.200640046,-4513306.26484232,-5021222.0090031,4281433.54311999,-1423644.86836366,-5024502.29981305,243.967296295855,7441.86819103667,-1906.34260862108,-5.54161028941853,1.8426737146673,6.50339036292982,6758662.11722904,1.22020656239826,1.44944922753449,0.0576215228016501,0.0097851999302862,-1.87792188157858,0.892686810551608,-0.151131926519449,-1.9798957084E-5,-0.0012083343801005,-5.9026825129E-5,386712.759026604,5.7051E-12,1083.19007167143,-5.54161028941853,1.8426737146673,6.50339036292982
2760.0,547436.21160298,-4365055.77786721,-5123791.86777146,4286089.57207991,-974164.039852042,-5127092.94410331,-88.8200654070877,7535.00636340341,-1512.02538077689,-5.54698351641569,1.26074637043157,6.6353956373971,6758662.11722904,1.22458183164864,1.44594898971309,0.0576768167301534,0.0099536678174113,-1.79058352509753,0.907852467926925,-0.0381940972695116,-1.9798957084E-5,-0.0011808849361737,-6.25767292763E-5,387464.458614429,5.4818E-12,1075.10438442342,-5.54698351641569,1.26074637043157,6.6353956373971
2820.0,950674.573836446,-4200093.19507742,-5202498.97998936,4270784.23027696,-520146.247208985,-5205805.46787883,-421.15277347353,7593.04291018305,-1110.71533497795,-5.52646322133994,0.673077577775959,6.73639568389456,6758662.11722905,1.22895710090188,1.44409700527603,0.0576911066462636,0.0099107857838621,-1.70177102862606,0.916279012243608,0.0755709661394174,-1.9798957084E-5,-0.0011528541058428,-6.61078793427E-5,388134.266986495,5.2727E-12,1067.0575582423,-5.52646322133994,0.673077577775959,6.73639568389456
2880.0,1351017.54215959,-4019168.37169611,-5256979.90601575,4235591.3579072,-63706.2704566121,-5260276.40827409,-751.479890591863,7615.71599841328,-704.287254380612,-5.48015891954017,0.0824254411658065,6.80593292462789,6758662.11722903,1.23333237013798,1.44391714752695,0.0576849450079516,0.0096582103298551,-1.61355715758326,0.918153600145707,0.188134539865167,-1.9798957084E-5,-0.0011246048858474,-6.95736103897E-5,388713.840538909,5.0787E-12,1059.10635733756,-5.48015891954017,0.0824254411658065,6.80593292462789
2940.0,1746745.52681707,-3823090.09901963,-5286984.35566802,4180677.58104461,393030.373694563,-5290255.52373987,-1078.26070947834,7602.92968310498,-294.638907134816,-5.40830191683057,-0.508440768803242,6.84369902603605,6758662.11722903,1.23770763938837,1.44541160853561,0.0576800835409113,0.0092016515878629,-1.52790030649219,0.91386757681541,0.297581755661678,-1.9798957084E-5,-0.0010965023435178,-7.2928515757E-5,389196.83887576,4.9E-12,1051.29704197727,-5.40830191683057,-0.508440768803242,6.84369902603605
3000.0,2136153.61456935,-3612722.3808703,-5292376.2981441,4106301.479354,847937.397219235,-5295606.90369749,-1399.97202194823,7554.75417708781,116.317946673517,-5.31124393135566,-1.09675394702352,6.84953605367844,6758662.11722904,1.24208290863875,1.44856085793564,0.0576990383245829,0.0085508651911856,-1.44643005369491,0.903972316098615,0.402327156038756,-1.9798957084E-5,-0.0010689098026807,-7.61292628046E-5,389579.018227837,4.7368E-12,1043.66396878157,-5.31124393135566,-1.09675394702352,6.84953605367844
3060.0,2517559.04336611,-3388980.51939098,-5273134.53107079,4012812.32049638,1298897.69837611,-5276309.53698159,-1715.11528750719,7471.4253227025,526.666594844423,-5.18945512471062,-1.67976241572116,6.82343687652494,6758662.11722907,1.2464581778777,1.45332383152475,0.0577645883370361,0.0077195789207924,-1.37031816609815,0.88911801250585,0.501244800437577,-1.9798957084E-5,-0.0010421850078065,-7.91354061818E-5,389858.285331199,4.5885E-12,1036.22993227441,-5.18945512471062,-1.67976241572116,6.82343687652494
3120.0,2889308.59736021,-3152827.02902276,-5229352.70721779,3900648.36831084,1743813.26381001,-5232457.33761456,-2022.22366646689,7353.34327160783,934.494414724551,-5.04352155781167,-2.25474304740578,6.76554482505608,6758662.11722909,1.25083344713094,1.45963835563732,0.0578992208841799,0.0067253454175641,-1.30025071406889,0.869990116951435,0.593697245138516,-1.9798957084E-5,-0.0010166761996945,-8.19101933466E-5,390034.711051019,4.4547E-12,1029.00816025733,-5.04352155781167,-2.25474304740578,6.76554482505608
3180.0,3249785.88900021,-2905267.39768537,-5161238.82010046,3770334.77392579,2180614.96793476,-5164258.6291408,-2319.86888361335,7201.07038306276,1337.90187217558,-4.87414209013697,-2.8190141817371,6.676152611891,6758662.11722909,1.25520871638133,1.46742181635741,0.058124541462715,0.0055893123350646,-1.23648098644093,0.847255368048746,0.679483687551643,-1.9798957084E-5,-9.927180561767E-4,-8.44213521654E-5,390110.503703828,4.3343E-12,1022.0053607684,-4.87414209013697,-2.8190141817371,6.676152611891
3240.0,3597418.49436665,-2647345.71556312,-5069114.15234606,3622481.06095598,2607272.22311576,-5072035.09140276,-2606.66788966231,7015.32835500632,1735.01143396727,-4.6821247438661,-3.36994827148201,6.5557005277888,6758662.11722909,1.25958398563171,1.47657208393367,0.0584606693114295,0.0043359026466247,-1.17892630443311,0.821523469642391,0.758744155561247,-1.9798957084E-5,-9.706274834352E-4,-8.66418446667E-5,390089.942695625,4.2266E-12,1015.22498710971,-4.6821247438661,-3.36994827148201,6.5557005277888
3300.0,3930684.91033609,-2380140.19098516,-4953411.69330459,3457778.21786699,3021802.43514517,-4956220.17624809,-2881.2892891083,6796.99460606673,2123.97635060154,-4.46838255711736,-3.90498419548339,6.40477392978706,6758662.11722906,1.26395925488209,1.48696870165208,0.0589256428885325,0.0029924005232683,-1.1272746127501,0.793324907932558,0.831853843496799,-1.9798957084E-5,-9.50699283988E-4,-8.85505651986E-5,389979.273747649,4.1305E-12,1008.67000825432,-4.46838255711736,-3.90498419548339,6.40477392978706
3360.0,4248121.30189623,-2104758.57380907,-4814674.03493072,3276995.41242787,3422280.21970103,-4817357.00120441,-3142.45950460107,6547.09793026495,2502.98926769107,-4.23392895290099,-4.42163917965244,6.22410004191866,6758662.11722904,1.26833452412105,1.49847434459932,0.0595348614284067,0.0015884422222701,-1.08107904941341,0.763102047685261,0.899329375256238,-1.9798957084E-5,-9.33201771534E-4,-9.0132956252E-5,389786.567620952,4.0449E-12,1002.34480000736,-4.23392895290099,-4.42163917965244,6.22410004191866
3420.0,4548328.00928642,-1822333.50678985,-4653550.75743573,3080976.34491468,3806846.33689109,-4656095.73263202,-3388.96864964488,6266.81344961684,2870.29062534671,-3.97987265256373,-4.91752027038839,6.01454409236431,6758662.11722905,1.27270979337429,1.51093654722741,0.060300589238256,1.554165491132E-4,-1.03983128461439,0.731209541910267,0.961756190673796,-1.9798957084E-5,-9.183724452855E-4,-9.13815119642E-5,389521.544868114,3.969E-12,996.256103343861,-3.97987265256373,-4.91752027038839,6.01454409236431
3480.0,4829975.78627297,-1534017.82434583,-4470795.31859513,2870635.25836753,4173716.30259295,-4473190.47225278,-3619.67608320143,5957.45689306545,3224.17680655454,-3.70741216438568,-5.39033530847363,5.77710481403167,6758662.11722903,1.27708506262181,1.52418968978281,0.0612315482084314,-0.001274214717155,-1.00301294660128,0.697920408762856,1.01973772993268,-1.9798957084E-5,-9.06413871639E-4,-9.22961385803E-5,389195.369730048,3.9017E-12,990.413208361755,-3.70741216438568,-5.39033530847363,5.77710481403167
3540.0,5091811.74116184,-1240979.81993645,-4267261.46288673,2646952.62573247,4521188.63709865,-4269495.66324399,-3833.51562166667,5620.47823317791,3563.00799722945,-3.41782987960479,-5.83790335534593,5.51290933839072,6758662.11722902,1.28146033186077,1.53805722320382,0.0623326209659068,-0.0026676600550118,-0.970128617165153,0.6634350240334,1.07386293464791,-1.9798957084E-5,-8.974899440139E-4,-9.28843434411E-5,388820.416848307,3.8422E-12,984.827601006282,-3.41782987960479,-5.83790335534593,5.51290933839072
3600.0,5332664.95467096,-944398.501065189,-4043899.16881665,2410970.53513246,4847652.7135426,-4045962.03426974,-4029.50038566907,5257.45471480681,3885.2157224999,-3.1124858094836,-6.25816452766269,5.22320751492804,6758662.11722904,1.28583560110829,1.55235410100111,0.0636046822113393,-0.0039925831856645,-0.940725047298023,0.627891212685996,1.12468742617866,-1.9798957084E-5,-8.917226986054E-4,-9.31612295362E-5,388410.014971599,3.7895E-12,979.512298198724,-3.1124858094836,-6.25816452766269,5.22320751492804
3660.0,5551451.74969387,-645458.851390035,-3801750.15485664,2163787.79580348,5151596.17072007,-3803632.1018894,-4206.72726118828,4870.08331243855,4189.31002578799,-2.79281099810524,-6.64918920020122,4.90936569080623,6758662.11722903,1.29021087036154,1.56688937605415,0.0650445692699419,-0.0052179034964259,-0.914400873063659,0.59137436936873,1.17272410320795,-1.9798957084E-5,-8.891898526313E-4,-9.31492810419E-5,387978.172287956,3.7427E-12,974.481045777091,-2.79281099810524,-6.64918920020122,4.90936569080623
3720.0,5747180.5896237,-345347.119522059,-3541942.96635779,1906554.78839926,5431611.85717704,-3543635.25372557,-4364.38095659912,4460.17265522184,4473.88625938351,-2.46030064639365,-7.00918654133816,4.57285998722558,6758662.11722906,1.29458613960906,1.5814689113311,0.06664519519427,-0.0063145828387287,-0.890810191004626,0.553927052074336,1.21843983261294,-1.9798957084E-5,-8.899232026451E-4,-9.28779358491E-5,387539.288402796,3.7009E-12,969.747495397337,-2.46030064639365,-7.00918654133816,4.57285998722558
3780.0,5918956.58385293,-45246.1530393195,-3265687.66761614,1640468.08440698,5686404.27585255,-3267182.4365849,-4501.7376393938,4029.63446068898,4737.63145744966,-2.11650698341198,-7.33651234958111,4.21526911059205,6758662.11722903,1.29896140886516,1.59589814727345,0.0683957995013121,-0.0072563689417768,-0.86966239660053,0.515557811890042,1.26225587434419,-1.9798957084E-5,-8.93907976221E-4,-9.23829528297E-5,387107.858293845,3.6634E-12,965.324428232253,-2.11650698341198,-7.33651234958111,4.21526911059205
3840.0,6065985.58076717,253669.204969592,-2974270.16493936,1366764.8603268,5914795.50107068,-2975560.47540013,-4618.16813850936,3580.47451994697,4979.3302647256,-1.76303192131057,-7.62967616384154,3.83826673789821,6758662.11722901,1.30333667810126,1.60998486569412,0.070282323533154,-0.0080204671885335,-0.850719902077277,0.476249201368481,1.30455047812487,-1.9798957084E-5,-9.010831755154E-4,-9.17055932379E-5,386698.173799822,3.6292E-12,961.223058660455,-1.76303192131057,-7.62967616384154,3.83826673789821
3900.0,6187577.83033227,550236.637787164,-2669046.18809527,1086717.13304608,6115730.542292,-2670126.0503934,-4713.14070037307,3114.78327862854,5197.87039658654,-1.40151953039067,-7.88734762431078,3.44361351674073,6758662.11722903,1.30771194735164,1.62354189084408,0.0722878902416047,-0.0085881160862482,-0.833794773023557,0.435964994518917,1.34566267503783,-1.9798957084E-5,-9.113428920532E-4,-9.08916458901E-5,386324.02832654,3.5976E-12,957.452429175451,-1.40151953039067,-7.88734762431078,3.44361351674073
3960.0,6283151.20038635,843310.780925425,-2351434.95890966,801625.843487449,6288282.1317308,-2352299.36124893,-4786.22328896472,2634.72605915899,5392.24760857179,-1.0336483706372,-8.10836206489171,3.03314872113891,6758662.1172291,1.31208721660202,1.63638967269628,0.0743933625635813,-0.0089450470550788,-0.818744931270851,0.394656689490153,1.38589668581082,-1.9798957084E-5,-9.245385154149E-4,-8.99903335339E-5,385998.430474983,3.5677E-12,954.018895184443,-1.0336483706372,-8.10836206489171,3.03314872113891
4020.0,6352233.93266323,1131767.53370983,-2022912.57701922,512814.816126111,6431654.91571021,-2023557.50832108,-4837.08542236712,2142.53297091679,5561.57015597622,-0.661123715771268,-8.29172532212302,2.60878160479874,6758662.11722912,1.31646248583812,1.64835870495218,0.0765779509515379,-0.0090818155815362,-0.805470320107524,0.352269374982174,1.42552662413991,-1.9798957084E-5,-9.404817107292E-4,-8.90531423074E-5,385733.33220347,3.5389E-12,950.925692017849,-0.661123715771268,-8.29172532212302,2.60878160479874
4080.0,6394466.92669125,1414508.24230268,-1685005.15387398,221624.622359367,6545189.03244638,-1685427.62199388,-4865.49954042626,1640.48855565354,5705.06272660789,-0.28566970540172,-8.43661774938323,2.17248249371032,6758662.11722915,1.3208377550885,1.6592917399379,0.0788198392918187,-0.0089939976560082,-0.793909274902957,0.308747038222901,1.46480133027271,-1.9798957084E-5,-9.58948006158E-4,-8.81326171132E-5,385539.376924726,3.5104E-12,948.172573723124,-0.28566970540172,-8.43661774938323,2.17248249371032
4140.0,6409605.54142777,1690463.74056777,-1339281.72702224,-70593.6240300353,6628363.0618126,-1339479.77224601,-4871.34190025938,1130.9212161002,5822.06983232943,0.0909785397668333,-8.54239742886254,1.72627365998851,6758662.11722913,1.32521302433889,1.66904577335944,0.0810967993701705,-0.008682252044528,-0.784035254026434,0.264037384602808,1.50394926143658,-1.9798957084E-5,-9.796808150388E-4,-8.72811632524E-5,385425.672607369,3.4816E-12,945.755512245536,0.0909785397668333,-8.54239742886254,1.72627365998851
4200.0,6397520.90705735,1958598.23348016,-987346.987497593,-362484.510941684,6680796.33552171,-987319.691262689,-4854.59299842423,616.192476030009,5912.05864751141,0.467082805464259,-8.60860257731945,1.27222001869013,6758662.11722913,1.32958829359213,1.67749378270437,0.0833867669866062,-0.0081522547333294,-0.775854037181063,0.218096231391398,1.54318341655327,-1.9798957084E-5,-0.001002395718854,-8.65498893881E-5,385399.594503656,3.452E-12,943.666445143318,0.467082805464259,-8.60860257731945,1.27222001869013
4260.0,6358200.74092404,2217913.0118744,-630833.853765509,-652694.583171313,6702250.59906611,-630581.342573761,-4815.33752059034,98.6861201863636,5974.62128501957,0.840909640779444,-8.6349531449924,0.812419688990696,6758662.11722915,1.33396356284251,1.68452621286782,0.0856683573640599,-0.0074145163935618,-0.769401474242055,0.170891532555837,1.58270630028494,-1.9798957084E-5,-0.0010267848552856,-8.59875197568E-5,385466.621565094,3.4211E-12,941.893059161598,0.840909640779444,-8.6349531449924,0.812419688990696
4320.0,6291749.66400293,2467449.9860296,-271395.926175164,-939878.580495419,6692631.01965859,-270919.370685339,-4753.76382152531,-419.202737574436,6009.47650282697,1.21073815208788,-8.62135161020103,0.348994460598848,6758662.11722913,1.33833883208147,1.6900522105001,0.0879213031234517,-0.0064840967115724,-0.764741856454473,0.122407089354134,1.6227149470181,-1.9798957084E-5,-0.0010525212869115,-8.56393955906E-5,385630.20994779,3.3884E-12,940.418595083009,1.21073815208788,-8.62135161020103,0.348994460598848
4380.0,6198389.01630561,2706295.02728258,89300.143796437,-1222705.63057801,6651986.53731182,89998.5344861251,-4670.16294012214,-935.078609817834,6016.47083677599,1.57486770261568,-8.56788297514797,-0.115919794348138,6758662.11722915,1.34271410133185,1.69400061405991,0.0901268042734704,-0.0053802308990125,-0.761966976457927,0.0726460021229979,1.66340603555753,-1.9798957084E-5,-0.0010792632659207,-8.55465780221E-5,385891.706262489,3.3537E-12,939.22631033922,1.57486770261568,-8.56788297514797,-0.115919794348138
4440.0,6078456.17129795,2933581.10856779,449582.335024273,-1499865.36899004,6580509.55906889,450499.323872019,-4564.92715604359,-1446.55656705062,5995.57915740792,1.93162548735304,-8.47481397122141,-0.580182724408417,6758662.11722914,1.34708937058509,1.69632070936772,0.0922677858909264,-0.0041258838048612,-0.761195939610761,0.021633922221073,1.70498113322489,-1.9798957084E-5,-0.0011066583532347,-8.57450582128E-5,386250.302408852,3.3171E-12,938.312067776928,1.93162548735304,-8.47481397122141,-0.580182724408417
4500.0,5932403.35223323,3148491.23370562,807780.954400755,-1770073.95908075,6478534.99924296,808912.291642345,-4438.54809634324,-1951.27309811003,5946.9046511234,2.27937395414908,-8.34259148470085,-1.04165907831225,6758662.11722912,1.35146463983547,1.69698276066207,0.0943290650351376,-0.0027472461078224,-0.762575783230083,-0.0305778309872751,1.74765211406777,-1.9798957084E-5,-0.0011343473913104,-8.6265075727E-5,386703.032971475,3.2789E-12,937.670908632945,2.27937395414908,-8.34259148470085,-1.04165907831225
4560.0,5760795.95459817,3350261.14825014,1162236.31623305,-2032079.98499319,6346538.67132891,1163576.75925433,-4291.61440213902,-2446.89685303485,5870.67822823028,2.61651804296417,-8.17184021619981,-1.49822822302582,6758662.11722915,1.35583990908586,1.69597832512835,0.0962974336380823,-0.0012731854631679,-0.766282949358966,-0.0839092153288282,1.79164679774746,-1.9798957084E-5,-0.0011619683639365,-8.71305435724E-5,387244.815266682,3.2392E-12,937.293181380604,2.61651804296417,-8.17184021619981,-1.49822822302582
4620.0,5564310.38107365,3538181.82484581,1511306.36913888,-2284670.19177084,6185135.04000881,1512849.70690483,-4124.80896706129,-2931.1392228996,5767.25736267261,2.94151221641248,-7.96335958944041,-1.94779356358973,6758662.11722917,1.36021517832195,1.69332035518144,0.0981616684309153,2.653363752126E-4,-0.772525635870619,-0.138248391021167,1.83721484835442,-1.9798957084E-5,-0.0011891601998086,-8.8358577847E-5,387868.53124169,3.1985E-12,937.164631261985,2.94151221641248,-7.96335958944041,-1.94779356358973
4680.0,5343731.39782218,3711601.7163202,1853374.23656035,-2526675.04725295,5995074.34437411,1855113.31848596,-3938.90576077539,-3401.76471209284,5637.12437041435,3.25286725588706,-7.71811992706593,-2.38829182890917,6758662.11722919,1.36459044757234,1.68904308818763,0.099912482277227,0.0018358711590564,-0.781547012498993,-0.193448533534429,1.88463394726058,-1.9798957084E-5,-0.0012155665871164,-8.99591312332E-5,388565.149562458,3.1572E-12,937.265942274326,3.25286725588706,-7.71811992706593,-2.38829182890917
4740.0,5099949.02163671,3869928.77267722,2186855.63749682,-2756974.10130009,5777239.10612564,2188782.40662544,-3734.7662523858,-3856.60105964254,5480.8841355698,3.54915679871398,-7.43725791317124,-2.81770218868467,6758662.1172292,1.36896571681986,1.68320171863667,0.101542433511199,0.0034051084674916,-0.793629220031046,-0.249324432355868,1.93421619732714,-1.9798957084E-5,-0.0012408398628003,-9.19347321364E-5,389323.885407506,3.1155E-12,937.570044649688,3.54915679871398,-7.43725791317124,-2.81770218868467
4800.0,4833954.95116943,4012632.21609561,2510206.1546651,-2974501.11882295,5532640.03908002,2512311.68500089,-3513.33544996846,-4293.54906742871,5299.26129543133,3.82902359292462,-7.12207136408136,-3.23405516769656,6758662.11722924,1.37334098605596,1.675871843852,0.103045810984844,0.0049395094009762,-0.809097951757691,-0.305648768384665,1.98631460580742,-1.9798957084E-5,-0.0012646450229772,-9.42803343393E-5,390132.394733289,3.0737E-12,938.04207566431,3.82902359292462,-7.12207136408136,-3.23405516769656
4860.0,4546838.55575832,4139244.07160733,2821928.31802354,-3178248.96410412,5262411.37880056,2824202.85584647,-3275.63757384784,-4710.59209446774,5093.09689754081,4.09118544736238,-6.77401333065545,-3.63544132468403,6758662.11722924,1.37771625531206,1.66714867191144,0.104418512493893,0.0064059422713141,-0.828327214143031,-0.36214796736852,2.04132929738812,-1.9798957084E-5,-0.0012866638721953,-9.69832848855E-5,390976.999109614,3.0335E-12,938.729698844784,4.09118544736238,-6.77401333065545,-3.63544132468403
4920.0,4239782.43716974,4249360.45147533,3120578.47244311,-3367274.21499868,4967805.65357691,3123011.48141746,-3022.77138253987,-5105.80517790036,4863.34454388668,4.33444085595154,-6.39468555705357,-4.02001966408515,6758662.11722925,1.38209152455673,1.65714598014813,0.105657933076631,0.0077723122493563,-0.851743530829595,-0.418497553428275,2.09971277917751,-1.9798957084E-5,-0.0013065992918441,-1.000234197711E-4,391842.936655525,2.9964E-12,939.697612392562,4.33444085595154,-6.39468555705357,-4.02001966408515
4980.0,3914057.58323609,4342642.59005251,3404773.39926906,-3540701.48677222,4650187.92029398,3407353.60913966,-2755.90517151846,-5477.36374285864,4611.06603918071,4.55767427604939,-5.98583132249326,-4.38602574992476,6758662.1172292,1.38646679380997,1.64599481480122,0.106762877393578,0.0090081758186006,-0.879828325151173,-0.474316995939246,2.16197305089978,-1.9798957084E-5,-0.0013241795664954,-1.033732973171E-4,392714.634147864,2.9639E-12,940.996748315359,4.55767427604939,-5.98583132249326,-4.38602574992476
5040.0,3571018.13092588,4418817.63039561,3673196.66258784,-3697727.44658011,4311029.49095145,3675912.12124256,-2476.27146613593,-5823.55186502594,4337.42656198245,4.75986104188422,-5.54932769406031,-4.73177949215122,6758662.11722923,1.39084206306035,1.63384192720979,0.107733507077545,0.0100853295932525,-0.913116413249813,-0.529164188800601,2.22867254852472,-1.9798957084E-5,-0.0013391626661513,-1.06998577437E-4,393575.99503181,2.9374E-12,942.672923180137,4.75986104188422,-5.54932769406031,-4.73177949215122
5100.0,3212095.76094742,4477679.16132307,3924604.65219189,-3837624.50090482,3951901.17771453,3927442.78085411,-2185.16143113557,-6142.77005143248,4043.68937918948,4.94007189515286,-5.08717722013871,-5.05569257673435,6758662.1172292,1.3952173322993,1.62084794921714,0.108571329742787,0.0109783619223363,-0.952187397033861,-0.582529974947799,2.30041976298704,-1.9798957084E-5,-0.0013513403475535,-1.10858551307E-4,394410.697837504,2.9182E-12,944.769888379992,4.94007189515286,-5.08717722013871,-5.05569257673435
5160.0,2838793.74574435,4519087.50651583,4157832.29651619,-3959744.13964633,3574466.08639093,4160779.94781692,-1883.91902023766,-6433.54250684784,3731.21012610358,5.09747711591778,-4.60149909550205,-5.35627551184676,6758662.1172292,1.39959260154969,1.60718531969809,0.109279231495388,0.0116651550522668,-0.997645279697992,-0.633833599931898,2.37784890427606,-1.9798957084E-5,-0.0013605419136808,-1.149068203903E-4,395202.499398683,2.9076E-12,947.331174763801,5.09747711591778,-4.60149909550205,-5.35627551184676
5220.0,2452680.6742893,4542969.76763576,4371798.42020101,-4063519.92199906,3180471.99012924,4374841.93886784,-1573.93489025998,-6694.52385503773,3401.43067591238,5.23135023801723,-4.094519830577,-5.63214426347024,6758662.1172292,1.40396787080293,1.5930359845998,0.109861549620144,0.0121273257436715,-1.05008008569826,-0.682420718775713,2.46158143492623,-1.9798957084E-5,-0.0013666374611858,-1.190921168887E-4,395935.53727096,2.9068E-12,950.401353646095,5.23135023801723,-4.094519830577,-5.63214426347024
5280.0,2055383.87964896,4549319.62339918,4565510.72241213,-4148470.09074421,2771743.31691978,4568636.00830019,-1256.64010514876,-6924.50528614755,3055.87262399535,5.34107133428357,-3.56856345885736,-5.88202645480092,6758662.11722919,1.40834314003902,1.57858890365462,0.110324177031894,0.0123505933185795,-1.11000440007172,-0.727566617017728,2.55216242443352,-1.9798957084E-5,-0.0013695404529924,-1.233592502284E-4,396594.625854733,2.9172E-12,954.026705185152,5.34107133428357,-3.56856345885736,-5.88202645480092
5340.0,1648582.59565364,4538196.88818807,4738070.35361848,-4214199.80313508,2350172.78614029,4741262.92679832,-933.499656145007,-7122.42010355801,2696.13041396821,5.42612985797307,-3.02604131792347,-6.10476710488718,6758662.1172292,1.41271840928941,1.56403740694623,0.1106746855106,0.0123250661931489,-1.17775912603884,-0.768488510895195,2.64996605496086,-1.9798957084E-5,-0.0013692094778002,-1.276501570333E-4,397165.540928224,2.9401E-12,958.254996472367,5.42612985797307,-3.02604131792347,-6.10476710488718
5400.0,1234000.86945902,4509726.83460113,4888676.07018468,-4260402.96814946,1917712.7309237,4891921.13779238,-606.005825093051,-7287.34864572994,2323.86413382169,5.48612702794745,-2.46944144101217,-6.29933388303111,6758662.11722916,1.41709367853979,1.54957645277822,0.110922451117447,0.012045440910115,-1.25338888763862,-0.804371694385433,2.75507073184221,-1.9798957084E-5,-0.0013656490977754,-1.319050261115E-4,397635.287581553,2.9769E-12,963.133874709175,5.48612702794745,-2.46944144101217,-6.29933388303111
5460.0,813400.260291747,4464099.28395229,5016627.94787733,-4286863.68152647,1476366.14452689,5019910.47242419,-275.671418610654,-7418.52256081724,1940.79201188434,5.52077774633033,-1.90131759758626,-6.464821856631,6758662.11722916,1.42146894779017,1.53539984395018,0.111078762875105,0.0115111112513017,-1.33650084872068,-0.834413916012875,2.86711759299569,-1.9798957084E-5,-0.0013589097362014,-1.3606346604E-4,397992.346901059,3.0291E-12,968.707301039434,5.52077774633033,-1.90131759758626,-6.464821856631
5520.0,388572.353197756,4401567.47066998,5121330.63720616,-4293457.25168661,1028177.49014247,5124635.40603819,55.9770985203107,-7515.32841417938,1548.68264364238,5.52991203859694,-1.32427802287302,-6.60045771135565,6758662.11722921,1.4258442170377,1.52169746200264,0.111156895031075,0.0107261887929697,-1.42614077257751,-0.857889302829926,2.98518626108642,-1.9798957084E-5,-0.0013490866127046,-1.400656815272E-4,398226.897172692,3.0981E-12,975.009621213271,5.52991203859694,-1.32427802287302,-6.60045771135565
5580.0,-38668.8809573593,4322446.68644109,5202296.14541878,-4280150.81135381,575223.314714511,5205607.84101101,387.406541819673,-7577.31061136888,1149.34698167809,5.51347600735644,-0.740973877868451,-6.70560342382951,6758662.11722919,1.43021948627666,1.50865257800626,0.111172124095849,0.0096994398146995,-1.52073887468603,-0.874226468639735,3.10774040796565,-1.9798957084E-5,-0.0013363177885308,-1.438536260293E-4,398331.00584574,3.1852E-12,982.057456832267,5.51347600735644,-0.740973877868451,-6.70560342382951
5640.0,-466494.847527497,4227112.71085284,5259146.13193739,-4247003.51144806,119602.70828965,5262449.40270336,717.083988024789,-7604.17362170503,744.63012213629,5.4715322924611,-0.154087482835547,-6.77975936839208,6758662.11722923,1.4345947555299,1.49643929418061,0.111141674279334,0.0084441463469837,-1.61817855507599,-0.883086391971917,-3.05048907406144,-1.9798957084E-5,-0.0013207814320102,-1.473721019241E-4,398298.789011421,3.2915E-12,989.840650303313,5.4715322924611,-0.154087482835547,-6.77975936839208
5700.0,-893070.180352889,4116000.03581356,5291613.70606078,-4194166.2955935,-336572.348750671,5294893.23735494,1043.48376865128,-7595.78349017202,336.402922190534,5.40426003153691,0.433679631154499,-6.82256684098482,6758662.11722927,1.43897002478028,1.48522016352931,0.111084578711327,0.0069779009874212,-1.71600778880779,-0.884418881325536,-2.92555165866056,-1.9798957084E-5,-0.0013026924496808,-1.505697853581E-4,398126.53569792,3.4177E-12,998.314702222739,5.40426003153691,0.433679631154499,-6.82256684098482
5760.0,-1316560.65032303,3989599.89162865,5299544.71785209,-4121881.2553861,-791186.707576023,5302785.30284115,1365.09444608539,-7552.1686280986,-73.4465160499388,5.31195431658095,1.01961880659178,-6.83380998482707,6758662.11722924,1.44334529401923,1.47514402555443,0.111021448586303,0.0053223457150599,-1.8117518821593,-0.878478116156607,-2.80307641664401,-1.9798957084E-5,-0.0012822986481014,-1.534001599019E-4,397812.794857882,3.5643E-12,1007.39775292288,5.31195431658095,1.01961880659178,-6.83380998482707
5820.0,-1735141.09741313,3848458.08327312,5282898.535284,-4030480.56837745,-1242131.79842146,5286085.14536326,1680.42574188223,-7473.51987588207,-483.021458883102,5.19502514392215,1.60102643230515,-6.81341710428605,6758662.11722926,1.44772056326676,1.46634408592545,0.110974147725407,0.0035028642457972,-1.90323372011978,-0.865789984901618,-2.68521061029485,-1.9798957084E-5,-0.0012598765938886,-1.558223504253E-4,397358.423517474,3.7308E-12,1016.97435530113,5.19502514392215,1.60102643230515,-6.81341710428605
5880.0,-2147003.35251427,3693172.64564918,5241748.30291342,-3920385.02255525,-1687315.35992329,5244866.15734529,1988.01538683444,-7360.18983391241,-890.425214537321,5.05399585659745,2.17521615575074,-6.76146135523037,6758662.11722927,1.45209583251429,1.45893625773901,0.110965375605688,0.0015482356387132,-1.98880348357188,-0.847080897564319,-2.57357526826257,-1.9798957084E-5,-0.0012357273258234,-1.578018552054E-4,396766.595165055,3.9168E-12,1026.90596767521,5.05399585659745,2.17521615575074,-6.76146135523037
5940.0,-2550364.11427764,3524391.32753745,5176280.67960115,-3792102.13292771,-2124671.10632701,5179315.3140558,2286.43586237375,-7212.69146082603,-1293.76982916303,4.88950108005584,2.73953108460416,-6.67816080219175,6758662.11722931,1.45647110176467,1.45301777265254,0.111018167323422,-5.097458179825E-4,-2.06742747668425,-0.823189387903468,-2.4691762461281,-1.9798957084E-5,-0.0012101720457632,-1.593111793815E-4,396042.768077469,4.1212E-12,1037.04538442989,4.88950108005584,2.73953108460416,-6.67816080219175
6000.0,-2943472.74741364,3342808.91403137,5086795.0550682,-3646223.8576424,-2552168.28865699,5089732.38875029,2574.3010029817,-7031.69594126711,-1691.18476706567,4.70228415407498,3.29135592624968,-6.56387783485616,6758662.11722927,1.46084637101505,1.44866606245841,0.11115532396762,-0.0026366825260631,-2.13864831687174,-0.794982466619864,-2.37244381696619,-1.9798957084E-5,-0.0011835478787339,-1.603303758679E-4,395194.613906784,4.3428E-12,1047.25089156029,4.70228415407498,3.29135592624968,-6.56387783485616
6060.0,-3324618.9679996,3149164.39795958,4973702.24738614,-3483423.92288332,-2967821.10616167,4976528.64843742,2850.27242952033,-6818.02982845206,-2080.82553657364,4.49319406584879,3.82812901269523,-6.41911793875984,6758662.11722927,1.46522164025686,1.44593790608438,0.111398791299085,-0.0047960184531379,-2.20246709940374,-0.763290828915877,-2.28335017049497,-1.9798957084E-5,-0.0011562037519083,-1.608475004184E-4,394231.907479512,4.5803E-12,1057.39659898205,4.49319406584879,3.82812901269523,-6.41911793875984
6120.0,-3692140.38183325,2944238.01120753,4837522.68582007,-3304454.76758465,-3369697.92476038,4840225.0346941,3113.06578375619,-6572.67147000855,-2460.88222270267,4.26318189138703,4.34735415754629,-6.24452781758872,6758662.11722927,1.46959690949868,1.44486883375893,0.111769008349327,-0.0069495206551556,-2.25920173028821,-0.728867209737316,-2.20155061948425,-1.9798957084E-5,-0.0011284964022952,-1.608589857001E-4,393166.37938437,4.8323E-12,1067.37747270536,4.26318189138703,4.34735415754629,-6.24452781758872
6180.0,-4044429.84239782,2728848.12697715,4678884.08577614,-3110144.12076956,-3755930.25982309,4681449.83629023,3361.45673484711,-6296.74672878471,-2829.58788770116,4.01329675463957,4.84661229096699,-6.04089286715842,6758662.11722926,1.47397217874906,1.4454727790804,0.112284250504687,-0.0090578027099667,-2.30935829903095,-0.692365246769317,-2.12651163626594,-1.9798957084E-5,-0.001100786488559,-1.603699352847E-4,392011.53354411,5.0973E-12,1077.10965163402,4.01329675463957,4.84661229096699,-6.04089286715842
6240.0,-4379942.59513852,2503848.04461953,4498518.62493643,-2901391.22605764,-4124721.48141346,4500935.8627152,3594.28672919667,-5991.52401358398,-3185.22680065033,3.74468131612207,5.32357281807998,-5.80913400399128,6758662.11722922,1.47834744799087,1.44774197063133,0.11295999376573,-0.0110808955993607,-2.35353178543479,-0.654333297362834,-2.05760942226669,-1.9798957084E-5,-0.0010734347573156,-1.593943329776E-4,390782.432569401,5.3737E-12,1086.52773335303,3.74468131612207,5.32357281807998,-5.80913400399128
6300.0,-4697203.17529024,2270122.66938667,4297259.63198554,-2679162.7295776,-4474355.20112145,4299517.13002195,3810.46845586023,-5658.40863806199,-3526.14245755676,3.4585668052544,5.77600464603196,-5.55030385439148,6758662.11722929,1.4827227172384,1.45164705704436,0.113808328089728,-0.0129788703400256,-2.39233794602363,-0.615217606530988,-1.99419716509401,-1.9798957084E-5,-0.0010467982012126,-1.57955156673E-4,389495.454275012,5.6596E-12,1095.58078722048,3.4585668052544,5.77600464603196,-5.55030385439148
6360.0,-4994812.02802466,2028585.09857021,4076037.80163285,-2444488.24916377,-4803203.30080447,4078125.07270463,4008.99100061413,-5298.93652930792,-3850.7453538219,3.15626761311996,6.20178682501175,-5.26558231303969,6758662.11722927,1.48709798648878,1.45713746239321,0.114837447913663,-0.0147125138662119,-2.42637120197591,-0.575370466015243,-1.93564616461496,-1.9798957084E-5,-0.0010212261465143,-1.560843798738E-4,388168.023288563,5.9531E-12,1104.22835633463,3.15626761311996,6.20178682501175,-5.26558231303969
6420.0,-5271451.81963113,1780173.12717569,3835876.95190273,-2198455.64429685,-5109733.56494575,3837784.29759615,4188.92466287765,-4914.7673109065,-4157.52047161107,2.83917546489013,6.59891874887449,-4.95627148336694,6758662.11722927,1.49147325573631,1.46414197174595,0.116051246953985,-0.0162440554282476,-2.45618146614906,-0.535060467414391,-1.88136789683233,-1.9798957084E-5,-9.970562217428E-4,-1.538228391422E-4,386818.32219163,6.2516E-12,1112.4371088973,2.83917546489013,6.59891874887449,-4.95627148336694
6480.0,-5525893.41021741,1525845.68563087,3577889.34188704,-1942206.00776145,-5392516.87992364,3579607.89799461,4349.42541090939,-4507.67678851735,-4445.03444547988,2.50875319372038,6.96552986173285,-4.62379001530904,6758662.11722926,1.49584852498669,1.47256954900929,0.117449042004589,-0.017537935386393,-2.4822635177091,-0.494483153299354,-1.83082341592556,-1.9798957084E-5,-9.746101847797E-4,-1.512199429877E-4,385464.987086274,6.5523E-12,1120.17834264038,2.50875319372038,6.96552986173285,-4.62379001530904
6540.0,-5757001.45952758,1266579.22215802,3303270.57032269,-1676928.40142728,-5650233.96526407,3304792.34839769,4489.73895208405,-4079.54886919801,-4711.942370654,2.16652814048294,7.29988881793525,-4.26966685945702,6758662.11722931,1.50022379422564,1.48231039024014,0.119025446543462,-0.0185616022065256,-2.50505404412603,-0.453771199227601,-1.78352498500593,-1.9798957084E-5,-9.541896209641E-4,-1.483331978407E-4,384126.792869486,6.8522E-12,1127.4262850151,2.16652814048294,7.29988881793525,-4.26966685945702
6600.0,-5963739.63860232,1003364.04358263,3013294.07745504,-1403854.35990661,-5881681.60391551,3014612.00232297,4609.20439659461,-3632.36694880894,-4956.99421960318,1.81408520623766,7.60041204428995,-3.8955344600877,6758662.11722934,1.50459906347603,1.49323721499236,0.120770409421609,-0.0192863172965082,-2.5249329752925,-0.413003768877018,-1.73903332096565,-1.9798957084E-5,-9.360715652463E-4,-1.452275303218E-4,382822.33380503,7.1476E-12,1134.15702278101,1.81408520623766,7.60041204428995,-3.8955344600877
6660.0,-6145175.42210593,737200.626505008,2709305.27466635,-1124252.18709066,-6085778.3407371,2710413.21771168,4707.25749461373,-3168.20480485603,-5179.0408340044,1.45305958682882,7.86567165522442,-3.50312141304811,6758662.11722937,1.50897433272355,1.50520679578394,0.122669426788128,-0.0196879417408524,-2.5422269315684,-0.372214966960998,-1.69695263945988,-1.9798957084E-5,-9.205041426589E-4,-1.419743921468E-4,381569.705196414,7.4348E-12,1140.34787421252,1.45305958682882,7.86567165522442,-3.50312141304811
6720.0,-6300484.4371612,469095.913473676,2392715.32827264,-839421.071710431,-6261569.62071989,2393608.13633838,4783.43342878336,-2689.21703501852,-5377.03946085094,1.08512922140369,8.09440267379959,-3.09424461794589,6758662.11722938,1.51334960196536,1.51806172141048,0.124703926924411,-0.0197476746986036,-2.55721345849049,-0.331401452969571,-1.65692483025467,-1.9798957084E-5,-9.077023581031E-4,-1.386506444097E-4,380386.192073405,7.7097E-12,1145.97703511567,1.08512922140369,8.09440267379959,-3.09424461794589
6780.0,-6428954.34700334,200059.606473872,2064994.62571099,-550685.049097389,-6408232.34095841,2065668.14546919,4837.36914588042,-2197.62908435874,-5550.05880333621,0.712006988952095,8.28550951414005,-2.67080095753542,6758662.11722942,1.51772487121575,1.53163238381437,0.126851818248009,-0.0194527108645252,-2.57012528479789,-0.290529332952039,-1.61862352149105,-1.9798957084E-5,-8.97844193751E-4,-1.353372309005E-4,379287.970794971,7.9681E-12,1151.02335269148,0.712006988952095,8.28550951414005,-2.67080095753542
6840.0,-6529988.24940477,-68899.5291659936,1727665.95403991,-259386.837225443,-6525078.79304841,1728117.05171158,4868.80521361667,-1695.72690678659,-5697.28355921426,0.335432689134322,8.43807168388858,-2.2347585405448,6758662.11722939,1.52210014046327,1.54573917096176,0.129088181030755,-0.0187967844452992,-2.5811541951541,-0.249540455384536,-1.58174842583421,-1.9798957084E-5,-8.910671860255E-4,-1.321176643603E-4,378289.829338222,8.2056E-12,1155.4660531133,0.335432689134322,8.43807168388858,-2.2347585405448
6900.0,-6603107.57196645,-336777.336470082,1382297.42224467,33118.4241082628,-6611559.97539368,1382523.99856987,4877.58719076927,-1185.84630873375,-5818.01842161252,-0.0428351543301382,8.55134866874393,-1.78814754742858,6758662.11722938,1.52647540971366,1.56019484026525,0.131386074138996,-0.0177805698232873,-2.59045432169504,-0.208358224303966,-1.54602013478428,-1.9798957084E-5,-8.874656513543E-4,-1.290763636495E-4,377404.911778648,8.4183E-12,1159.28476536794,-0.0428351543301382,8.55134866874393,-1.78814754742858
