time,gePosition_m_X,gePosition_m_Y,gePosition_m_Z,eiPosition_m_X,eiPosition_m_Y,eiPosition_m_Z,eiVelocity_m_s_X,eiVelocity_m_s_Y,eiVelocity_m_s_Z,eiAccel_m_s2_X,eiAccel_m_s2_Y,eiAccel_m_s2_Z,semiMajorAxis_m,gast_rad,eulerAngle_rad_Roll,eulerAngle_rad_Pitch,eulerAngle_rad_Yaw,eulerAngleWrtEi_rad_Roll,eulerAngleWrtEi_rad_Pitch,eulerAngleWrtEi_rad_Yaw,bodyAngularRateWrtEi_rad_s_Roll,bodyAngularRateWrtEi_rad_s_Pitch,bodyAngularRateWrtEi_rad_s_Yaw,altitudeMsl_m,airDensity_kg_m3,ambientTemperature_dgK,eiGravitation_m_s2_X,eiGravitation_m_s2_Y,eiGravitation_m_s2_Z
0.0,-1428622.3120664244,4163200.465251461,5136049.672040268,-4292653.410000001,955168.4699999995,5139356.569999999,109.64966299999782,-7527.726490000002,1484.5214890000007,5.528986569357204,-1.230267887409868,-6.619549899945847,6758662.117228848,1.0233194459853856,0.19689735485747065,1.4818059945046167,0.19765940137335777,-1.3731447587678467,-0.8677374784865443,3.0597725892015397,-1.9798957083974874E-5,-9.597485664705244E-4,1.2874900798265365E-19,398252.76383814117,3.1125051777514152E-12,976.2183377126014,5.528986569357204,-1.230267887409868,-6.619549899945847
60.0,-1789712.6496693231,3920255.313014938,5213136.603979294,-4276130.763605977,501640.15063717,5216447.947710037,440.8995044269196,-7584.043045623147,1084.1893967259227,5.508416690933063,-0.6462017022795102,-6.719712406156255,6758662.117263554,1.027694715234372,0.22266181425028977,1.4926251178255365,0.2235171736566969,-1.4413633027142687,-0.8771765848269927,-3.135917846931927,-1.9798957083974874E-5,-9.41628699435284E-4,-4.925569046830879E-6,398335.16146815225,3.2027933494634593E-12,983.3970713722676,5.508416690933063,-0.6462017022795102,-6.719712406156255
120.0,-2144732.0341794845,3662345.3121002857,5266057.2408811925,-4239785.464850451,45786.44926321739,5269357.680101298,770.149856362321,-7605.20775891319,678.7772427016238,5.46236021841705,-0.058989324122982044,-6.788817501974939,6758662.117263755,1.0320699844833425,0.2564922976849336,1.5044319171702791,0.2574582986958139,-1.5099931923887369,-0.8829411383127179,-3.0484407235247977,-1.9798957083974874E-5,-9.2603978288741E-4,-9.773339167690675E-6,398280.4831682923,3.312437785884759E-12,991.3056589075247,5.46236021841705,-0.058989324122982044,-6.788817501974939
180.0,-2492166.1237640986,3390599.0023314618,5294562.856727812,-4183783.2576410878,-410279.4807939532,5297837.089568896,1095.8768804319984,-7591.112907333935,270.15925433311025,5.39101509822493,0.5286657408489086,-6.826529477988571,6758662.117263807,1.0364452537322815,0.30487300379123256,1.517032238847447,0.30598631685179,-1.578442635987274,-0.8851372908310211,-2.9614823136261537,-1.9798957083974874E-5,-9.13198524330256E-4,-1.4484622006372604E-5,398085.3786753998,3.442114983131878E-12,999.8931987452186,5.39101509822493,0.5286657408489086,-6.826529477988571
240.0,-2830524.933552639,3106195.851588955,5298517.62697371,-4108380.8902639444,-864442.8940837069,5301750.470799711,1416.5720940053013,-7541.813194315,-139.7744838473676,5.294695095669548,1.1140548245265889,-6.832655726427421,6758662.117263698,1.0408205229812044,0.3830033447504054,1.530166957934771,0.3843192690688156,-1.6461623238118506,-0.8838806212983935,-2.8754999824623537,-1.9798957083974874E-5,-9.032858338901977E-4,-1.900302517340223E-5,397748.7681052731,3.5920371658941047E-12,1009.0715707172562,5.294695095669548,1.1140548245265889,-6.832655726427421
300.0,-3158349.2713430426,2810361.125333363,5277899.32207716,-4013924.9861680833,-1314597.2005823464,5281075.783796071,1730.749287902969,-7457.525693790666,-549.1266557877692,5.173828662823243,1.694476279421762,-6.807147954907414,6758662.117263536,1.0451957922300796,0.5355439354330271,1.5433825285102152,0.5371353967417271,-1.7126620650373394,-0.8792881805568044,-2.79089097074206,-1.9798957083974874E-5,-8.964433772884084E-4,-2.3275637430087378E-5,397271.88371581945,3.761926957752725E-12,1018.720424929598,5.173828662823243,1.694476279421762,-6.807147954907414
360.0,-3474217.0881843474,2504360.597403019,5232799.482005453,-3900850.5020298115,-1758653.6879591248,5235904.827551302,2036.9513609482015,-7338.629062575654,-956.0013936463739,5.0289572988146745,2.2672476926627407,-6.750102774949119,6758662.11726345,1.049571061478955,0.942362995173349,1.5552460375695554,0.9443192730499946,-1.7775200922236818,-0.8714714438179089,-2.707983272436951,-1.9798957083974874E-5,-8.927707330989046E-4,-2.7254176631626003E-5,396658.2718183812,3.951071213678393E-12,1028.698598390408,5.0289572988146745,2.2672476926627407,-6.750102774949119
420.0,-3776749.716220731,2189495.1242659804,5163423.069596519,-3769678.7789998176,-2194551.1746032713,5166442.892262069,2333.7570409341124,-7185.662020213449,-1358.5129738376263,4.860733403783159,2.8297180810551517,-6.6617616559412225,6758662.117263525,1.0539463307277828,2.0296642339759354,1.5585492192288162,2.0320894392273763,-1.8403854241399582,-0.8605308250696879,-2.627033489699762,-1.9798957083974874E-5,-8.923233058158056E-4,-3.089605486914096E-5,395913.75463680265,4.158432375152997E-12,1038.858809178122,4.860733403783159,2.8297180810551517,-6.6617616559412225
480.0,-4064617.966290806,1867095.1053778476,5070087.602939864,-3621015.194857294,-2620265.549525399,5073007.890244936,2619.787461713581,-6999.321098976092,-1754.7944910956335,4.669917629703795,3.379280015619046,-6.54251023744045,6758662.117263537,1.0583215999766105,2.7081917250735588,1.5488361237202148,2.711203049095437,-1.9009747009751379,-0.8465521341114601,-2.548230213365871,-1.9798957083974874E-5,-8.951111125728536E-4,-3.416531613465063E-5,395046.35253835376,4.382772734383866E-12,1049.0613796841412,4.669917629703795,3.379280015619046,-6.54251023744045
540.0,-4336548.05801061,1538514.8526825644,4953221.769248266,-3455546.4266073876,-3033819.1555005293,4956028.968034219,2893.7125663718643,-6780.457669821119,-2143.0064719012576,4.457375733389262,3.9133816229742138,-6.392876995080196,6758662.117263681,1.0626968692254064,2.9300845292569213,1.5358361986454947,2.9338102886328854,-1.9590653917012737,-0.829605066908679,-2.4717009899953335,-1.9798957083974874E-5,-9.010985145235684E-4,-3.70334066689112E-5,394066.1676898207,4.622747463447989E-12,1059.183722962798,4.457375733389262,3.9133816229742138,-6.392876995080196
600.0,-4591327.355415765,1205126.892601685,4813363.52501586,-3274037.3348476943,-3433289.972264222,4816044.604464059,3154.2573068264423,-6530.07425329537,-2521.345388411061,4.2240749391695696,4.429538410079901,-6.21353125790968,6758662.117263822,1.0670721384741706,3.0302277178029184,1.5225081601487642,3.0348052188861834,-2.0144872540417333,-0.8097435726978778,-2.3975209557870216,-1.9798957083974874E-5,-9.102049089247905E-4,-3.947974656563259E-5,392985.2308153561,4.876942339722824E-12,1069.1244959579026,4.2240749391695696,4.429538410079901,-6.21353125790968
660.0,-4827809.881716005,868316.2240770409,4651157.689593077,-3077327.4829964433,-3816820.5572081567,4653700.201873656,3400.207610716838,-6249.320127606397,-2888.052033975426,3.9710798210389013,4.925344858161553,-6.005280577688357,6758662.11726393,1.0714474077229348,3.0870336336610995,1.509534624861279,3.092606883630009,-2.067113561845198,-0.7870077700331352,-2.3257215851898425,-1.9798957083974874E-5,-9.223063410755719E-4,-4.149208234338923E-5,391817.313351195,5.143856633126436E-12,1078.8032686845766,3.9710798210389013,4.925344858161553,-6.005280577688357
720.0,-5044921.587314979,529474.5563698211,4467353.0416360935,-2866327.306201878,-4182626.7018546243,4469745.179903342,3630.4160871057184,-5939.486249347101,-3241.4197214506503,3.6995477164364177,5.398485731225292,-5.769067453526695,6758662.11726381,1.075822676973096,3.1239273156017595,1.497233884674926,3.130644608584153,-2.1168530956015315,-0.7614269964952771,-2.2562985244138454,-1.9798957083974874E-5,-9.372379429563033E-4,-4.306661284065874E-5,390577.7078899345,5.421847910433865E-12,1088.1574714559642,3.6995477164364177,5.398485731225292,-5.769067453526695
780.0,-5241665.345982761,189994.55031634137,4262798.930210197,-2642013.946440338,-4529005.7634147275,4265029.583672149,3843.8074433145894,-5601.9995056416565,-3579.8022658016635,3.4107236862724006,5.846747044373203,-5.505965418268321,6758662.117263894,1.0801979462217968,-3.133117539833655,1.485826660446463,-3.125106130503631,-2.1636433795632426,-0.7330235626144217,-2.1892179966087277,-1.9798957083974874E-5,-9.547970635597775E-4,-4.420789354649366E-5,389282.9803872168,5.709060323504211E-12,1097.1383234698612,3.4107236862724006,5.846747044373203,-5.505965418268321
840.0,-5417125.654908279,-148735.91316610356,4038441.414619802,-2405426.7719394895,-4854344.631961328,4040500.220422246,4039.383586169938,-5238.416319765404,-3901.621712970755,3.105935038314895,6.268026637247303,-5.217174496153902,6758662.11726381,1.0845732154704657,-3.113450792985111,1.4754916953424206,-3.103995982542505,-2.207445242020398,-0.7018168201337197,-2.1244216770614757,-1.9798957083974874E-5,-9.747469289136247E-4,-4.4928535986066105E-5,387950.6981453878,6.003354973306764E-12,1105.7069030484847,3.105935038314895,6.268026637247303,-5.217174496153902
900.0,-5570473.015381515,-485339.4139137805,3795318.9493006533,-2157662.6006394173,-5157127.295167793,3797196.3409797065,4216.228382038662,-4850.415635563619,-4205.375777655728,2.7865854335966906,6.660344298343837,-4.904016044559048,6758662.11726375,1.0889484847191346,-3.0979957778216702,1.4663809291015812,-3.0869516611034697,-2.2482385117615773,-0.6678272266652461,-2.0618302046577575,-1.9798957083974874E-5,-9.968206600385761E-4,-4.524872790228622E-5,386599.13809212524,6.3022552359459614E-12,1113.8309307707082,2.7865854335966906,6.660344298343837,-4.904016044559048
960.0,-5700967.97193601,-818454.5992824226,3534557.632322941,-1899870.648899307,-5435941.964182729,3536244.8845954104,4373.51205128768,-4439.791309223358,-4489.64495351008,2.4541485980607782,7.021851386707668,-4.567926995954861,6758662.117263839,1.0933237539677718,-3.085443321798647,1.4586240488973619,-3.0726699478502715,-2.2860185374128976,-0.631080174154827,-2.0013456256751305,-1.9798957083974874E-5,-0.001020725484693515,-4.51956059576116E-5,385246.9803148942,6.602914711987613E-12,1121.4824120403075,2.4541485980607782,7.021851386707668,-4.567926995954861
1020.0,-5807964.789049276,-1146741.6939093359,3257366.0382129075,-1633247.2280823484,-5689487.726016075,3258855.30789,4510.495174212037,-4008.4439401363834,-4753.09926034798,2.1101616642250702,7.350839898632212,-4.210453519667105,6758662.11726384,1.0976990232163775,-3.0749800594223684,1.4523296721338028,-3.060345947360533,-2.3207931964572954,-0.5916094329710705,-1.9428530879039694,-1.9798957083974874E-5,-0.0010461470017207098,-4.48025152246759E-5,383912.99218855187,6.902111755963976E-12,1128.6360540055973,2.1101616642250702,7.350839898632212,-4.210453519667105
1080.0,-5890914.74586262,-1468887.889929524,2965029.6578861144,-1359030.2129790985,-5916580.689813687,2966314.020713468,4626.532287040762,-3558.3721756852397,-4994.504594216515,1.7562181701713815,7.6457509284936895,-3.833244126480092,6758662.11726385,1.1020742924649671,-3.0660700177008975,1.4475853739081652,-3.049454569416491,-2.3525801082947035,-0.5494601372693528,-1.8862220557630847,-1.9798957083974874E-5,-0.0010727533914027735,-4.410818899698486E-5,382615.708727712,7.196272139137048E-12,1135.2682817483478,1.7562181701713815,7.6457509284936895,-3.833244126480092
1140.0,-5949369.030874317,-1783612.5956353873,2658904.9704889962,-1078493.3072652563,-6116159.596575227,2659978.453734451,4721.075048339306,-3091.663527785602,-5212.728647683574,1.3939607456439365,7.905182474741515,-3.4380422426233173,6758662.117263787,1.1064495617135248,-3.0583409426864705,1.4444573486204686,-3.0396367066886123,-2.3814038445347476,-0.5046912954106796,-1.8313072364151664,-1.9798957083974874E-5,-0.0011001995066328126,-4.31558789795953E-5,381373.1149924541,7.481519686664953E-12,1141.3566677724714,1.3939607456439365,7.905182474741515,-3.4380422426233173
1200.0,-5982981.220169905,-2089672.5211993398,2340413.1738543734,-792940.1323134261,-6287290.864227551,2341270.7844843594,4793.6749579905945,-2610.4847418874847,-5406.746369389092,1.025073517433162,8.127896544365615,-3.0266782831547188,6758662.117263785,1.110824830962067,-3.0515206944977806,1.442990020537078,-3.030635434963943,-2.4072930122529765,-0.45737785007473347,-1.777949320433757,-1.9798957083974874E-5,-0.0011281308225712502,-4.1992460534612365E-5,380202.33646586456,7.753753155183935E-12,1146.8796097072827,1.025073517433162,8.127896544365615,-3.0266782831547188
1260.0,-5991509.324476492,-2385866.5808051135,2011033.6020761335,-503698.16668943095,-6429173.042491344,2011671.3503818307,4843.985612933164,-2117.0717618609583,-5575.6449338077,0.6512742685042502,8.312825511865528,-2.6010612581774475,6758662.117263609,1.115200100210593,-3.04539909897404,1.4432057395575626,-3.0222576250907136,-2.4302771548976447,-0.4076123374149222,-1.7259755657104119,-1.9798957083974874E-5,-0.0011561872616523612,-4.066753131947064E-5,379119.3432942344,8.008745735882709E-12,1151.8161109323682,0.6512742685042502,8.312825511865528,-2.6010612581774475
1320.0,-5974817.392155418,-2671040.5913506984,1672296.8603886312,-212112.56454944742,-6541140.654660569,1672711.7789441734,4871.764485969544,-1613.7193367389596,-5718.6281942818205,0.27430638747468755,8.459077691861454,-2.1631699486692644,6758662.117263746,1.1195753694590873,-3.039803150543026,1.4451046258045053,-3.014348863629066,-2.450383463032027,-0.3555062059573631,-1.6752001982050257,-1.9798957083974874E-5,-0.0011840069418087556,-3.92325153302563E-5,378138.6741251683,8.2422606029598E-12,1156.1454952602837,0.27430638747468755,8.459077691861454,-2.1631699486692644
1380.0,-5932876.657173607,-2944091.748800416,1325777.709084118,80460.11809197914,-6622667.406244351,1325967.8669409188,4876.874216213462,-1102.7703176367204,-5835.0205946835795,-0.10406935298003238,8.565942088003151,-1.7150436919208176,6758662.117263585,1.123950638707566,-3.034578960997159,1.4486645961415323,-3.0067750807576794,-2.4676333123285086,-0.30119085760503306,-1.6254245691327707,-1.9798957083974874E-5,-0.0012112299151380824,-3.7739778900984725E-5,377273.18499328836,8.450190257354586E-12,1159.8476063837018,-0.10406935298003238,8.565942088003151,-1.7150436919208176
1440.0,-5865766.2231109785,-3203972.86426805,973087.729605185,372658.25963722914,-6673368.743386666,973052.2416488352,4859.28340211447,-586.604695294427,-5924.270517561183,-0.4820831484327475,8.632892284733735,-1.2587728196344283,6758662.117263554,1.1283259079560126,-3.0295761844729374,1.4538415930248791,-2.9994066210188386,-2.4820386528067244,-0.24481846889664513,-1.5764369924277204,-1.9798957083974874E-5,-0.001237501969775235,-3.6241761264747164E-5,376533.8282883523,8.628721067740808E-12,1162.9037832394765,-0.4820831484327475,8.632892284733735,-1.2587728196344283
1500.0,-5773673.276353834,-3449696.342999383,615867.8071984024,663121.5416685733,-6693003.747059431,615606.8386174935,4819.066890466814,-67.62843056848496,-5985.953049292398,-0.8579646038072489,8.659589452752693,-0.7964887945978826,6758662.117263779,1.1327011772044275,-3.0246311876955554,1.4605700305913782,-2.992101032571814,-2.493598267005139,-0.1865626440932096,-1.5280121842782517,-1.9798957083974874E-5,-0.001262478558731135,-3.479012025115488E-5,375929.4662927791,8.774492640908619E-12,1165.2976259458096,-0.8579646038072489,8.659589452752693,-0.7964887945978826
1560.0,-5656892.823793789,-3680337.890599987,255780.4655994143,950497.3198237768,-6681476.35221964,255295.23143884697,4756.405557366029,451.7378681902855,-6019.772145601613,-1.2299512200547236,8.64588444363309,-0.3303540944655995,6758662.117263655,1.1370764464528427,-3.019544121530485,1.4687634688272455,-2.9846797387558337,-2.502293901883085,-0.12661894561800763,-1.4799102338527992,-1.9798957083974874E-5,-0.0012858288966996199,-3.343489369354203E-5,375466.723120188,8.884741839599015E-12,1167.0155520130434,-1.2299512200547236,8.64588444363309,-0.3303540944655995
1620.0,-5515826.952570921,-3895039.932102641,-105497.90987090758,1233446.9662456072,-6638835.884394636,-106205.1500760347,4671.585579702366,969.07036560743,-6025.56218378537,-1.5962968821468628,8.591818954000864,0.13744810646407288,6758662.11726393,1.1414517157012258,-3.0140411887271417,1.478315519369186,-2.9768898955140943,-2.5080862658673264,-0.06520534399187919,-1.431875048056396,-1.9798957083974874E-5,-0.0013072402315858057,-3.222367898778994E-5,375149.878116966,8.957423584719339E-12,1168.0472239999676,-1.5962968821468628,8.591818954000864,0.13744810646407288
1680.0,-5350983.611670241,-4093014.7307897457,-466284.9236931942,1510652.1530619946,-6565276.909507628,-467210.87618341274,4564.997198458113,1481.9534613206677,-6003.288891101447,-1.9552803033901403,8.497625744909362,0.6047244045423789,6758662.117263853,1.1458269849495775,-3.0077029338230323,1.4891009687161099,-2.9683322699400847,-2.510910874359623,-0.002562629941568109,-1.3836322325712154,-1.9798957083974874E-5,-0.001326422255407402,-3.1200836571254706E-5,374980.8029383165,8.991300971293695E-12,1168.3858885935274,-1.9552803033901403,8.497625744909362,0.6047244045423789
1740.0,-5162974.917483282,-4273547.19507981,-824900.0583770161,1780821.046510722,-6461138.3961588135,-826040.4102906869,4437.132977792048,1987.9912365973844,-5953.049642012473,-2.305213380636162,8.363727907501291,1.069281728492203,6758662.117264085,1.1502022541979289,-2.9998095411544945,1.5009770572409815,-2.9583061354952296,-2.5106737302911672,0.061045163826707285,-1.334886398555554,-1.9798957083974874E-5,-0.0013431115740171644,-3.0406727270072998E-5,374958.9435991867,8.985999005042018E-12,1168.0286536478513,-2.305213380636162,8.363727907501291,1.069281728492203
1800.0,-4952514.987763044,-4435997.3632323155,-1179672.561547079,2042694.3816441332,-6326902.193003992,-1181022.0008320997,4288.585566622522,2484.818828185104,-5875.073120288278,-2.6444494148668074,8.190737171726227,1.5289379395715057,6758662.117264085,1.154577523446217,-2.9889568720123636,1.513784706384143,-2.945424924533497,-2.5072468483264982,0.1253302753040591,-1.285317924697531,-1.9798957083974874E-5,-0.0013570761122535106,-2.9876997759945398E-5,375081.3478429765,8.9420187860525E-12,1166.9767222191758,-2.6444494148668074,8.190737171726227,1.5289379395715057
1860.0,-4720417.310734258,-4579802.557123461,-1528949.2937678962,2295051.388032571,-6163190.827321126,-1530501.5337927847,4120.04497214719,2970.1136720262025,-5769.718345368773,-2.971391151866264,7.979451260681497,1.9815324132363556,6758662.11726387,1.1589527926945367,-2.971908620311727,1.5273489217699905,-2.92646802678054,-2.500463682337709,0.18998059443403717,-1.2345792676670297,-1.9798957083974874E-5,-0.0013681192962693735,-2.9641932035863957E-5,375342.7372116581,8.860711867487675E-12,1165.2355973654649,-2.971391151866264,7.979451260681497,1.9815324132363556
1920.0,-4467591.658426252,-4704479.197895718,-1871102.499053369,2536715.5375341023,-5970764.634284799,-1872850.3078046842,3932.295357439833,3441.6065597992692,-5637.47306581731,-3.284498598281043,7.730850299059522,2.4249365448182476,6758662.117263723,1.163328061942793,-2.9390270263241773,1.5414745451671554,-2.891811181984727,-2.490114610801445,0.25465883918886073,-1.1822910158986835,-1.9798957083974874E-5,-0.0013760838330053962,-2.9725889089487523E-5,375735.6222485478,8.74421745236345E-12,1162.8152674705857,-3.284498598281043,7.730850299059522,2.4249365448182476
1980.0,-4195040.5556008415,-4809624.277851504,-2204537.4602800077,2766560.086005747,-5750518.22987436,-2206472.6940106815,3726.2113779186643,3897.092451935808,-5478.951526154048,-3.5822965692991238,7.446092290123566,2.857064121610492,6758662.117263872,1.1677033311910492,-2.842895025900501,1.555903547244486,-2.794048351972252,-2.475942795792063,0.3190014530722718,-1.12803804505503,-1.9798957083974874E-5,-0.001380854901889361,-3.01468474175764E-5,376250.4583617251,8.595367721511994E-12,1159.7303787914136,-3.5822965692991238,7.446092290123566,2.857064121610492
2040.0,-3903855.3178966194,-4894916.4845728595,-2527700.0022039255,2983513.381796972,-5503476.343692698,-2529813.643375298,3502.754074071487,4334.440991805479,-5294.891616805075,-3.8633819254584285,7.126507681559072,3.275881504076778,6758662.117263864,1.1720786004407024,-1.4125128718191955,1.5679439333790306,-1.362188115465405,-2.4576409890679813,0.38261716894419007,-1.0713663903843123,-1.9798957083974874E-5,-0.0013823625877726292,-3.091607525286173E-5,376875.839037804,8.417568630078307E-12,1156.0003996206394,-3.8633819254584285,7.126507681559072,3.275881504076778
2100.0,-3595211.674973107,-4960116.974899757,-2839083.8054666873,3186563.9149858784,-5230789.031251164,-2841366.004806005,3262.9663403245363,4751.6066671591025,-5086.151420322009,-4.12643045771534,6.773593046393915,3.679417559650741,6758662.11726392,1.176453869688895,-0.08118968793007245,1.5556164469092577,-0.02954505179416102,-2.434850253075494,0.44508523504528424,-1.0117818422914808,-1.9798957083974874E-5,-0.0013805834164072855,-3.2037941542198914E-5,377598.722347601,8.214664774368382E-12,1151.6497785897518,-4.12643045771534,6.773593046393915,3.679417559650741
2160.0,-3270364.996709366,-5005069.797913494,-3137237.4958652933,3374765.082582596,-4933726.288458371,-3139677.6183402794,3007.967992338131,5146.638566662712,-4853.705170382026,-4.370203381855629,6.389003910894614,4.065773293798237,6758662.11726374,1.180829138937088,0.011642602750736496,1.5411836286747105,0.06444644127566809,-2.4071621385453716,0.5059534043306666,-0.9487518407214323,-1.9798957083974874E-5,-0.0013755409015121123,-3.350987703792738E-5,378404.68604187644,7.990797330743899E-12,1146.708097622309,-4.370203381855629,6.389003910894614,4.065773293798237
2220.0,-2930645.1423243727,-5029701.967899779,-3420771.4742499865,3547239.6463320907,-4613672.094123312,-3423358.1487428914,2738.950457279654,5517.689681436372,-4598.638643353695,-4.593553405591957,5.974546766852592,4.433131124642006,6758662.117263673,1.1852044081852489,0.04303583858335994,1.5270578375637864,0.096838755620017,-2.3741266415004976,0.5647359770621254,-0.8817130198793673,-1.9798957083974874E-5,-0.001367305070576819,-3.532248802445124E-5,379278.2060185055,7.750263624187151E-12,1141.2102168894198,-4.593553405591957,5.974546766852592,4.433131124642006
2280.0,-2577450.9544826597,-5034023.189671532,-3688364.4536943166,3703183.8612840744,-4272117.909213144,-3691085.6261397623,2457.1711137490524,5863.025703916536,-4322.14400537565,-4.7954303342598115,5.532170310947402,4.779763749511321,6758662.117263677,1.1895796774333782,0.05852578483377155,1.51349497878006,0.1131712220760649,-2.3352692184465687,0.6209124941180543,-0.8100877054575059,-1.9798957083974874E-5,-0.0013559909984124107,-3.745981796618752E-5,380202.9525460721,7.497385709869449E-12,1135.196403339046,-4.7954303342598115,5.532170310947402,4.779763749511321
2340.0,-2212244.4221518654,-5018125.2403519545,-3938769.6720502633,3841871.254959426,-3910655.664391927,-3941612.661784278,2163.947309993982,6181.03327907144,-4025.5141409202506,-4.974886183851123,5.063955958822987,5.1040425542345105,6758662.117263601,1.1939549466814758,0.06749003811143241,1.5006906419955448,0.12282793549968267,-2.2901210874092723,0.6739281348341518,-0.7333136103698477,-1.9798957083974874E-5,-0.0013417564359110424,-3.989974558794113E-5,381162.0983757452,7.2363936148808206E-12,1128.7124239433438,-4.974886183851123,5.063955958822987,5.1040425542345105
2400.0,-1836544.537753807,-4982181.013232792,-4170820.749643883,3962656.0387146873,-3530970.2699728203,-4173772.308695902,1860.6500908348476,6470.227665997848,-3710.1364916838425,-5.1310797732117335,4.572107686123095,5.404445518841243,6758662.117263363,1.1983302159295892,0.07307744626879173,1.4888206805463653,0.12896703426407558,-2.2382675083794044,0.7231974757431934,-0.6508914363480757,-1.9798957083974874E-5,-0.0013247986698679156,-4.261450236809212E-5,382138.6327438597,6.971326792613337E-12,1121.8095674222493,-5.1310797732117335,4.572107686123095,5.404445518841243
2460.0,-1451920.8757384035,-4926443.230848812,-4383437.163678457,4064976.134779944,-3134831.6848394596,-4386483.538723768,1548.6976653138167,6729.259771189938,-3377.4864373293362,-5.263280770523253,4.058941252932037,5.679564576541217,6758662.11726312,1.2027054851776549,0.07663624464819528,1.4780452232705423,0.13294863876021765,-2.1794177840067133,0.7681139236540147,-0.5624541321394861,-1.9798957083974874E-5,-0.0013053507828330968,-4.55712887305866E-5,383115.6752710489,6.705955096179737E-12,1114.5445319824348,-5.263280770523253,4.058941252932037,5.679564576541217
2520.0,-1059986.9211670435,-4851242.83587575,-4575629.312877419,4148355.8044092823,-2724086.583110085,-4578756.309554757,1229.5486484703015,6956.92251827332,-3029.1202520910083,-5.370873172672564,3.5268728718284583,5.92811238637104,6758662.11726289,1.207080754425705,0.07883372420902948,1.4685081934573874,0.1354542695435806,-2.113496927686765,0.808067582547076,-0.4678577622172057,-1.9798957083974874E-5,-0.0012836774967530892,-4.873296668374203E-5,384076.78388482245,6.443718399035897E-12,1106.979081916612,-5.370873172672564,3.5268728718284583,5.92811238637104
2580.0,-662393.1781890418,-4756987.069870706,-4746503.148007747,4212407.864623401,-2300649.6593207396,-4749696.197295379,904.6951118209113,7152.156522710728,-2666.6676735157757,-5.453358199741057,2.9784073830443027,6.148928483713045,6758662.117263031,1.211456023673723,0.08003130421231006,1.4603360294880228,0.1368616242098642,-2.0407508844785154,0.8424740361593472,-0.3672858758904749,-1.9798957083974874E-5,-0.0012600707800443014,-5.2058807279250245E-5,385006.2511237939,6.187682135342382E-12,1099.1793385541841,-5.453358199741057,2.9784073830443027,6.148928483713045
2640.0,-260820.08944515832,-4644157.25121283,-4895264.346160917,4256835.483128504,-1866494.6146767882,-4898508.572494879,575.6554780767626,7314.055043880351,-2291.8241216407446,-5.510356590589523,2.4161260030009983,6.340984776951879,6758662.1172630545,1.2158312929217412,0.08043463725361817,1.4536363602982387,0.13739434831127995,-1.9618448938632473,0.8708148287152965,-0.2613469688122507,-1.9798957083974874E-5,-0.0012348453765239807,-5.5505273763245795E-5,385889.3835088325,5.940504838145584E-12,1091.2145468341118,-5.510356590589523,2.4161260030009983,6.340984776951879
2700.0,143029.20159355662,-4513306.264870616,-5021222.009020368,4281433.54315029,-1423644.86845792,-5024502.299830335,243.96729635750148,7441.868190977304,-1906.3426086846393,-5.541610289329867,1.8426737147467471,6.503390362802129,6758662.117263076,1.2202065621697118,0.08016137438190911,1.4484968407915757,0.13718943644914855,-1.877921881590213,0.8926868105492166,-0.15113192653193747,-1.9798957083974874E-5,-0.0012083343800767554,-5.902682513018299E-5,386712.7590784521,5.704413656481582E-12,1083.1551765771153,-5.541610289329867,1.8426737147467471,6.503390362802129
2760.0,547436.2125313648,-4365055.777806097,-5123791.8677928755,4286089.572114102,-974164.0399493171,-5127092.944124755,-88.82006534097941,7535.006363349631,-1512.0253808472037,-5.546983516331778,1.2607463705282957,6.635395637271546,6758662.117263363,1.2245818314176822,0.07927423063409599,1.44498421011645,0.13632991287664342,-1.7905835251114566,0.9078524679249979,-0.03819409728478606,-1.9798957083974874E-5,-0.0011808849361495195,-6.257672927730245E-5,387464.4586663513,5.481185261560839E-12,1075.070314944095,-5.546983516331778,1.2607463705282957,6.635395637271546
2820.0,950674.5747476022,-4200093.194922555,-5202498.980015197,4270784.230315263,-520146.247308912,-5205805.467904691,-421.1527734032763,7593.042910135684,-1110.715335054829,-5.526463221262212,0.6730775778897322,6.736395683772875,6758662.117263259,1.228957100665621,0.07779757019248991,1.4431435898381342,0.13486102012186538,-1.7017710286422878,0.9162790122424328,0.07557096612138929,-1.9798957083974874E-5,-0.0011528541058182695,-6.61078793434802E-5,388134.2670382748,5.27213258810226E-12,1067.0245086695738,-5.526463221262212,0.6730775778897322,6.736395683772875
2880.0,1351017.5429795391,-4019168.371467002,-5256979.906046445,4235591.35794974,-63706.27055876816,-5260276.408304816,-751.4798905178667,7615.715998373313,-704.2872544637582,-5.480158919469667,0.0824254412960591,6.805932924511734,6758662.11726323,1.2333323699135281,0.07572509208959663,1.442998022564624,0.13279750583185695,-1.6135571576015701,0.9181536001454851,0.18813453984458536,-1.9798957083974874E-5,-0.001124604885822719,-6.957361039025229E-5,388713.8405904377,5.07810171436297E-12,1059.0744947570558,-5.480158919469667,0.0824254412960591,6.805932924511734
2940.0,1746745.52760198,-3823090.0987018696,-5286984.355703998,4180677.581091678,393030.37359064387,-5290255.523775882,-1078.2607094010734,7602.929683073221,-294.63890722384366,-5.408301916768227,-0.5084407686572566,6.843699025926726,6758662.117263331,1.2377076391614352,0.07302176651827524,1.4445482462009795,0.1301251668222026,-1.527900306512464,0.9138675768160505,0.29758175563858164,-1.9798957083974874E-5,-0.0010965023434930854,-7.292851575727078E-5,389196.83892703167,4.89948593563053E-12,1051.266504449275,-5.408301916768227,-0.5084407686572566,6.843699025926726
3000.0,2136153.615315563,-3612722.3804632253,-5292376.298185686,4106301.4794056905,847937.3971140741,-5295606.903739107,-1399.972021868184,7554.75417706511,116.3179465790641,-5.311243931302547,-1.096753946862766,6.849536053577574,6758662.1172633665,1.2420829084093103,0.0696209361413112,1.4477726982793169,0.12679757299252475,-1.4464300537168087,0.9039723161003674,0.4023271560135032,-1.9798957083974874E-5,-0.0010689098026560862,-7.612926280449739E-5,389579.0182786972,4.736263349874598E-12,1043.6348654372985,-5.311243931302547,-1.096753946862766,6.849536053577574
3060.0,2517559.0440313774,-3388980.518923174,-5273134.531118164,4012812.320552848,1298897.6982702627,-5276309.537029004,-1715.1152874249212,7471.425322689642,526.6665947450996,-5.189455124667881,-1.6797624155468291,6.823436876434044,6758662.11726328,1.246458177657154,0.06541589671750274,1.4526277455250283,0.12272729276514757,-1.3703181661213468,0.8891180125089345,0.5012448004104405,-1.9798957083974874E-5,-0.0010421850077821822,-7.913540618132873E-5,389858.2853814658,4.588059056302561E-12,1036.202345052307,-5.189455124667881,-1.6797624155468291,6.823436876434044
3120.0,2889308.597991525,-3152827.02846166,-5229352.707271162,3900648.3683721875,1743813.2637041025,-5232457.337667971,-2022.2236663830433,7353.343271605546,934.4944146209858,-5.043521557780214,-2.254743047219356,6.765544824976548,6758662.117263213,1.2508334469049975,0.060243396048699015,1.4590481333027219,0.11776906525451813,-1.3002507140930641,0.8699901169561488,0.5936972451098013,-1.9798957083974874E-5,-0.0010166761996706361,-8.19101933457407E-5,390034.7111005494,4.4542253698384716E-12,1028.9821466768099,-5.043521557780214,-2.254743047219356,6.765544824976548
3180.0,3249785.8895847737,-2905267.397038556,-5161238.820159992,3770334.7739920574,2180614.967829417,-5164258.629200377,-2319.8688835286225,7201.0703830716375,1337.9018720684912,-4.874142090117593,-2.8190141815402034,6.6761526118241665,6758662.117262987,1.2552087161527934,0.05385325071050751,1.4669476442830127,0.11168912355436973,-1.2364809864656592,0.8472553680551628,0.6794836875217449,-1.9798957083974874E-5,-9.927180561535025E-4,-8.442135216409133E-5,390110.50375245954,4.333927528951219E-12,1021.9809570669004,-4.874142090117593,-2.8190141815402034,6.6761526118241665
3240.0,3597418.4949014364,-2647345.7148315795,-5069114.152412005,3622481.0610272344,2607272.2230116664,-5072035.091468758,-2606.6678895774344,7015.3283550268325,1735.011433857426,-4.682124743859268,-3.3699482712763054,6.555700527735577,6758662.11726292,1.2595839854005895,0.045851410118037214,1.4762199386824353,0.10410800228282448,-1.1789263044580294,0.8215234696505278,0.7587441555305339,-1.9798957083974874E-5,-9.706274834128455E-4,-8.66418446649591E-5,390089.9427433519,4.226221560343036E-12,1015.2022112234533,-4.682124743859268,-3.3699482712763054,6.555700527735577
3300.0,3930684.9108182783,-2380140.190170108,-4953411.6933771055,3457778.2179432116,3021802.435043033,-4956220.176320661,-2881.289289023952,6796.994606099331,2123.9763504897696,-4.468382557123467,-3.904984195270695,6.404773929748422,6758662.117262911,1.2639592546483536,0.03558728767686292,1.4867395026565793,0.09438765141246826,-1.1272746127748647,0.7933249079423821,0.8318538434656889,-1.9798957083974874E-5,-9.506992839666282E-4,-8.855056519641807E-5,389979.27379438916,4.1301151301189085E-12,1008.6488624039229,-4.468382557123467,-3.904984195270695,6.404773929748422
3360.0,4248121.302299164,-2104758.5729606384,-4814674.035009837,3276995.412508982,3422280.2196015823,-4817357.001283582,-3142.459504518052,6547.097930309989,2502.989267578237,-4.233928952920389,-4.421639179434822,6.224100041895439,6758662.117262981,1.268334523896086,0.02191161137060735,1.4983625057028265,0.08138910980615514,-1.0810790494376126,0.7631020476969523,0.8993293752253159,-1.9798957083974874E-5,-9.332017715136102E-4,-9.013295624938718E-5,389786.56766658154,4.044608381219411E-12,1002.3252728542766,-4.233928952920389,-4.421639179434822,6.224100041895439
3420.0,4548328.009637465,-1822333.5058585552,-4653550.757521471,3080976.3450005446,3806846.3367950735,-4656095.732717821,-3388.9686495639553,6266.81344967449,2870.290625233786,-3.979872652596563,-4.917520270167942,6.01454409235717,6758662.117263096,1.2727097931452471,0.002592761916447041,1.5109269804483474,0.06288870662460501,-1.03983128463808,0.7312095419238634,0.9617561906430989,-1.9798957083974874E-5,-9.183724452662716E-4,-9.138151196118305E-5,389521.5449125331,3.968716823409325E-12,996.2381717796491,-3.979872652596563,-4.917520270167942,6.01454409235717
3480.0,4829975.786562572,-1534017.8233537425,-4470795.318687475,2870635.2584579643,4173716.3025011257,-4473190.472345197,-3619.6760831233405,5957.4568931356625,3224.1768064424577,-3.7074121644319056,-5.390335308252473,5.777104814041049,6758662.1172630545,1.2770850623929477,-0.027337331534246823,1.5242502967869997,0.033923859804645594,-1.0030129466242232,0.6979204087781113,1.0197377299022015,-1.9798957083974874E-5,-9.064138716210439E-4,-9.229613857700725E-5,389195.36977318866,3.901480932565129E-12,990.3968390122834,-3.7074121644319056,-5.390335308252473,5.777104814041049
3540.0,5091811.741378989,-1240979.8189314406,-4267261.462985538,2646952.6258273115,4521188.63701171,-4269495.6633428745,-3833.51562159221,5620.478233260637,3563.0079971192085,-3.41782987966435,-5.837903355126271,5.512909338416945,6758662.117263052,1.2814603316406326,-0.08157225971874799,1.5381148034695655,-0.019196051296182466,-0.9701286171869945,0.6634350240503567,1.073862934618142,-1.9798957083974874E-5,-8.974899439973455E-4,-9.288434343754643E-5,388820.4168900506,3.841967525609168E-12,984.8127514613288,-3.41782987966435,-5.837903355126271,5.512909338416945
3600.0,5332664.954828715,-944398.5000100461,-4043899.168921807,2410970.535231422,4847652.713461259,-4045962.0343749705,-4029.5003855989603,5257.454714901849,3885.2157223924796,-3.112485809556147,-6.25816452744672,5.2232075149712465,6758662.117263064,1.2858356008883016,-0.21567393092224285,1.5521765998481418,-0.15203250604535573,-0.9407250473187553,0.6278912127046128,1.1246874261496607,-1.9798957083974874E-5,-8.917226985901658E-4,-9.316122953249143E-5,388410.0150118619,3.789267161934642E-12,979.4989180729528,-3.112485809556147,-6.25816452744672,5.2232075149712465
3660.0,5551451.749796101,-645458.8502573845,-3801750.1549679246,2163787.795906301,5151596.170645037,-3803632.102000765,-4206.7272611233475,4870.083312545526,4189.310025684328,-2.7928109981903404,-6.649189199991088,4.909365690866286,6758662.117263071,1.2902108701359387,-0.9700719435949535,1.564484393376342,-0.9050172027975639,-0.9144008730830655,0.5913743693888094,1.1727241031798115,-1.9798957083974874E-5,-8.891898526175448E-4,-9.314928103824042E-5,387978.17232666945,3.742490619934265E-12,974.4690775455048,-2.7928109981903404,-6.649189199991088,4.909365690866286
3720.0,5747180.58966541,-345347.11834706215,-3541942.96647497,1906554.7885055987,5431611.857109048,-3543635.2538428307,-4364.380956539982,4460.17265534032,4473.886259284557,-2.4603006464906354,-7.009186541135876,4.572859987302128,6758662.11726319,1.29458613938356,-2.625042632217254,1.5580388705310886,-2.5584310591425568,-0.8908101910224216,0.5539270520958376,1.2184398325861165,-1.9798957083974874E-5,-8.899232026327463E-4,-9.28779358454348E-5,387539.2884399519,3.7007663788761204E-12,969.7368750673434,-2.4603006464906354,-7.009186541135876,4.572859987302128
3780.0,5918956.58383501,-45246.15177600821,-3265687.6677388367,1640468.0845164352,5686404.275792186,-3267182.436707686,-4501.737639341074,4029.6344608184,4737.63145735634,-2.116506983520179,-7.336512349388889,4.21526911068474,6758662.117263037,1.2989614086311496,-2.8659432172042254,1.5441947821467132,-2.7976382842492407,-0.8696623966166283,0.515557811912664,1.2622558743184928,-1.9798957083974874E-5,-8.939079762101014E-4,-9.238295282634263E-5,387107.8583292919,3.663240170109183E-12,965.3150858683075,-2.116506983520179,-7.336512349388889,4.21526911068474
3840.0,6065985.580690315,253669.20619726751,-2974270.1650672513,1366764.8604389802,5914795.501018518,-2975560.4755281024,-4618.168138463696,3580.4745200865787,4979.330264638825,-1.7630319214291466,-7.6296761636613,3.838266738006429,6758662.117262905,1.3033366778787392,-2.942925404369201,1.5302478216538686,-2.872799869817186,-0.8507199020917765,0.47624920139211735,1.3045504781002255,-1.9798957083974874E-5,-9.01083175505819E-4,-9.17055932348662E-5,386698.17383350537,3.629077048113698E-12,961.214918792035,-1.7630319214291466,-7.6296761636613,3.838266738006429
3900.0,6187577.830196451,550236.6390595814,-2669046.1882278984,1086717.1331605415,6115730.54224867,-2670126.0505261207,-4713.140700335014,3114.783278777574,5197.8703965072355,-1.401519530518606,-7.8873476241442635,3.443613516863572,6758662.11726302,1.307711947126297,-2.9823632587307998,1.5167480534499405,-2.9103013251093266,-0.8337947730364614,0.435964994543292,1.345662675014036,-1.9798957083974874E-5,-9.113428920449555E-4,-9.089164588744042E-5,386324.02835845546,3.5974660109114034E-12,957.4454111110763,-1.401519530518606,-7.8873476241442635,3.443613516863572
3960.0,6283151.20019106,843310.7822380469,-2351434.9590465273,801625.8436037125,6288282.131696832,-2352299.361385878,-4786.223288934735,2634.726059316506,5392.247608500732,-1.033648370773416,-8.108362064740584,3.03314872127533,6758662.117263119,1.312087216373823,-3.007667550768532,1.503941224503951,-2.933566854636516,-0.8187449312819245,0.3946566895153795,1.3858966857883679,-1.9798957083974874E-5,-9.245385154078762E-4,-8.99903335317659E-5,385998.43050510035,3.5676269039239054E-12,954.0129132571731,-1.033648370773416,-8.108362064740584,3.03314872127533
4020.0,6352233.93242426,1131767.5349668472,-2022912.5771597826,512814.81624366704,6431654.9156859685,-2023557.508461728,-4837.0854223456045,2142.5329710818087,5561.570155914134,-0.6611237159146025,-8.291725321988952,2.6087816049476977,6758662.1172630135,1.3164624856213492,-3.0262744386863063,1.4920180550831876,-2.950047842456847,-0.8054703201170516,0.35226937500797423,1.4255266241182236,-1.9798957083974874E-5,-9.404817107232338E-4,-8.90531423058293E-5,385733.3322316747,3.5388191225848285E-12,950.9206557779341,-0.6611237159146025,-8.291725321988952,2.6087816049476977
4080.0,6394466.926396475,1414508.2435890785,-1685005.1540176761,221624.6224777033,6545189.032432368,-1685427.6221376695,-4865.499540413605,1640.4885558249787,5705.062726555419,-0.2856697055509192,-8.436617749267295,2.172482493870427,6758662.117263129,1.3208377548688435,-3.041281884294094,1.48114444417727,-2.96285904123248,-0.7939092749109918,0.30874703824908384,1.464801330251758,-1.9798957083974874E-5,-9.589480061531374E-4,-8.813261711219381E-5,385539.37695109285,3.510351459241695E-12,948.1683880892641,-0.2856697055509192,-8.436617749267295,2.172482493870427
4140.0,6409605.541077222,1690463.741878507,-1339281.7271685011,-70593.62391146319,6628363.061809143,-1339479.7723923628,-4871.341900255846,1130.9212162769065,5822.06983228714,0.09097853961305925,-8.542397428765769,1.7262736601584399,6758662.117263219,1.325213024116306,-3.054217639482196,1.4714670865948591,-2.9735463039037455,-0.7840352540332668,0.2640373846294524,1.5039492614161525,-1.9798957083974874E-5,-9.79680815035031E-4,-8.728116325196706E-5,385425.6726319096,3.4815923097440673E-12,945.7520776192914,0.09097853961305925,-8.542397428765769,1.7262736601584399
4200.0,6397520.906645634,1958598.2348279469,-987346.9876457647,-362484.5108234304,6680796.335528988,-987319.6914109528,-4854.592998429997,616.1924762108189,5912.058647479792,0.46708280530724244,-8.608602577242921,1.272220018868458,6758662.117263174,1.3295882933637686,-3.065931751497621,1.4631141489823025,-2.9829788076516093,-0.775854037186758,0.21809623141844428,1.5431834165332046,-1.9798957083974874E-5,-0.0010023957188513106,-8.654988938832072E-5,385399.5945262861,3.4519793659694605E-12,943.6636574834223,0.46708280530724244,-8.608602577242921,1.272220018868458
4260.0,6358200.740456442,2217913.013235253,-630833.8539149454,-652694.5830539339,6702250.599084286,-630581.3427232894,-4815.337520605486,98.68612037002937,5974.621284999002,0.8409096406205445,-8.634953144936821,0.8124196891758861,6758662.1172630405,1.3339635626111994,-3.0769459923504416,1.4561947128093662,-2.9916981777071445,-0.7694014742464869,0.17089153258332004,1.582706300265166,-1.9798957083974874E-5,-0.001026784855284017,-8.598751975760883E-5,385466.62158580386,3.4210278791389707E-12,941.8908100080699,0.8409096406205445,-8.634953144936821,0.8124196891758861
4320.0,6291749.663508294,2467449.9873257005,-271395.9263251929,-939878.5803794815,6692631.019687715,-270919.37083545927,-4753.763821549936,-419.20273738919,6009.476502817737,1.2107381519285023,-8.621351610166949,0.348994460789307,6758662.117262831,1.3383388318585985,-3.0876112644864513,1.4507979540765956,-3.000075566302621,-0.7647418564576236,0.12240708938193935,1.6227149469985283,-1.9798957083974874E-5,-0.0010525212869109837,-8.56393955920232E-5,385630.2099665513,3.3883365888451477E-12,940.4167715712988,1.2107381519285023,-8.621351610166949,0.348994460789307
4380.0,6198389.015759551,2706295.0285806,89300.1436465068,-1222705.6304640672,6651986.537352045,89998.53433610455,-4670.1629401560995,-935.0786096322889,6016.47083677824,1.574867702457096,-8.567882975135301,-0.1159197941540619,6758662.11726271,1.3427141011059978,-3.0981871878253227,1.446992367137476,-3.008390896035463,-0.7619669764597807,0.07264600215096179,1.6634060355380595,-1.9798957083974874E-5,-0.001079263265921256,-8.55465780241092E-5,385891.70627944387,3.3536605303024523E-12,939.2248987103214,1.574867702457096,-8.567882975135301,-0.1159197941540619
4440.0,6078456.170693112,2933581.109879095,449582.3348751367,-1499865.368878642,6580509.559120194,450499.32372279395,-4564.927156086794,-1446.5565668660565,5995.5791574218465,1.9316254871965188,-8.47481397123009,-0.5801827242123312,6758662.117262775,1.347089370353365,-3.1088872199599438,1.4448251394493146,-3.016877624642243,-0.761195939611445,0.021633922248953347,1.704981133205466,-1.9798957083974874E-5,-0.0011066583532364322,-8.574505821546016E-5,386250.3024240545,3.317092528126568E-12,938.3111440366102,1.9316254871965188,-8.47481397123009,-0.5801827242123312
4500.0,5932403.351578556,3148491.23500628,807780.9542531089,-1770073.9589724757,6478534.999305194,808912.2914946127,-4438.548096395468,-1951.2730979276953,5946.904651149049,2.2793739539959166,-8.342591484730637,-1.0416590781157546,6758662.117262826,1.3514646396007006,-3.1199080700283357,1.4443217128669301,-3.025751797867227,-0.7625757832294635,-0.030577830959761004,1.747652114048385,-1.9798957083974874E-5,-0.001134347391313161,-8.626507573013186E-5,386703.03298496956,3.278853900768498E-12,937.6705444157876,2.2793739539959166,-8.342591484730637,-1.0416590781157546
4560.0,5760795.953895264,3350261.1495334688,1162236.3160875815,-2032079.9848885473,6346538.671401877,1163576.7591087755,-4291.614402199984,-2446.8968528559953,5870.678228267569,2.6165180428155392,-8.171840216250319,-1.4982282228304729,6758662.117262912,1.3558399088480522,-3.1314528167549764,1.4454855385811807,-3.0352348079243403,-0.7662829493569906,-0.08390921530183011,1.7916467977279713,-1.9798957083974874E-5,-0.0011619683639402534,-8.71305435760697E-5,387244.8152785073,3.239229076265685E-12,937.2934437184899,2.6165180428155392,-8.171840216250319,-1.4982282228304729
4620.0,5564310.380374649,3538181.826025874,1511306.3689963059,-2284670.1916703205,6185135.040092204,1512849.7067621665,-4124.808967130653,-2931.13922272543,5767.257362721289,2.9415122162695244,-7.963359589511056,-1.9477935633971037,6758662.117262822,1.360215178095356,3.139431637481779,1.4482980192778363,-3.0455758042237937,-0.7725256358673064,-0.13824839099472855,1.8372148483347208,-1.9798957083974874E-5,-0.0011891601998133194,-8.835857785100428E-5,387868.53125187935,3.1985547628475575E-12,937.1655819510732,2.9415122162695244,-7.963359589511056,-1.9477935633971037
4680.0,5343731.397081041,3711601.7174729933,1853374.2364213045,-2526675.047157044,5995074.344467679,1855113.318346829,-3938.9057608527105,-3401.7647119244957,5637.124370474304,3.252867255750692,-7.718119927155745,-2.3882918287206016,6758662.117263067,1.3645904473426438,3.1260855810356043,1.4527186218424268,-3.05707911680993,-0.7815470124943847,-0.1934485335085793,1.8846339472405045,-1.9798957083974874E-5,-0.0012155665871220645,-8.99591312375052E-5,388565.1495711619,3.157199010647731E-12,937.2676358673928,3.252867255750692,-7.718119927155745,-2.3882918287206016
4740.0,5099949.020871956,3869928.7737745014,2186855.637361992,-2756974.1012092703,5777239.10622898,2188782.406490534,-3734.766252470633,-3856.6010594811323,5480.8841356406165,3.54915679858514,-7.437257913279225,-2.8177021885015394,6758662.117263245,1.3689657165913447,3.1113085433003937,1.4586851285699045,-3.0701437408220738,-0.7936292200250015,-0.24932443233070192,1.9342161973064618,-1.9798957083974874E-5,-0.0012408398628067977,-9.193473214095746E-5,389323.8854148141,3.1155080545358663E-12,937.5725193543838,3.54915679858514,-7.437257913279225,-2.8177021885015394
4800.0,4833954.9504244,4012632.2170849354,2510206.154535116,-2974501.1187376324,5532640.039192549,2512311.6848708373,-3513.3354500602813,-4293.549067275219,5299.26129551261,3.829023592804243,-7.122071364206559,-3.2340551675202525,6758662.117263272,1.373340985838585,3.0945542772485033,1.4661139627223334,-3.085326849939775,-0.809097951749775,-0.3056487683602275,1.98631460578596,-1.9798957083974874E-5,-0.0012646450229845706,-9.428033434402877E-5,390132.39473919803,3.07379240052434E-12,938.0454034725183,3.829023592804243,-7.122071364206559,-3.2340551675202525
4860.0,4546838.55495614,4139244.072581373,2821928.3178989887,-3178248.9640246592,5262411.378921697,2824202.8557218597,-3275.637573946087,-4710.592094323134,5093.09689763197,4.09118544725126,-6.774013330796711,-3.635441324515783,6758662.11726302,1.3777162550858253,3.075004799075885,1.474900451166476,-3.1034548289637085,-0.8283272141332075,-0.3621479673449012,2.0413292973656567,-1.9798957083974874E-5,-0.0012866638722034654,-9.69832848903379E-5,390976.9991141547,3.0335383383543248E-12,938.734076263792,4.09118544725126,-6.774013330796711,-3.635441324515783
4920.0,4239782.436359953,4249360.452376176,3120578.4723245907,-3367274.2149254153,4967805.653706117,3123011.481298883,-3022.771382643989,-5105.805177765531,4863.344543987215,4.334440855850183,-6.394685557209444,-4.020019663925978,6758662.117262992,1.3820915243330338,3.05136063893861,1.4849187111343765,-3.1258328350002174,-0.8517435308176307,-0.4184975534057473,2.0997127791536183,-1.9798957083974874E-5,-0.0013065992918531448,-1.000234197759666E-4,391842.936658848,2.9964408197656938E-12,939.7032075797852,4.334440855850183,-6.394685557209444,-4.020019663925978
4980.0,3914057.582385088,4342642.590911405,3404773.3991570533,-3540701.4867055407,4650187.920430659,3407353.609027592,-2755.90517162778,-5477.363742734393,4611.0660392900145,4.557674275958295,-5.985831322662249,-4.38602574977545,6758662.117263,1.3864667935802266,3.021410475588965,1.4960203909878953,3.128510280086499,-0.8798283251370309,-0.4743169959179443,2.1619730508744293,-1.9798957083974874E-5,-0.0013241795665052054,-1.0337329732173543E-4,392714.6341501108,2.963971299929863E-12,941.0037201639748,4.557674275958295,-5.985831322662249,-4.38602574977545
5040.0,3571018.130048405,4418817.631194511,3673196.662482861,-3697727.446520254,4311029.491094914,3675912.121137531,-2476.2714662498074,-5823.551864912903,4337.426562099825,4.759861041803733,-5.549327694240935,-4.731779492012599,6758662.117262935,1.3908420628273876,2.981052288603448,1.5080301605861501,3.089101972340025,-0.9131164132336191,-0.5291641887805952,2.228672548498183,-1.9798957083974874E-5,-0.001339162666161924,-1.0699857744145532E-4,393575.99503308436,2.93749614772623E-12,942.6814259229558,4.759861041803733,-5.549327694240935,-4.731779492012599
5100.0,3212095.7600975325,4477679.162019457,3924604.6520943725,-3837624.500852065,3951901.1778641203,3927442.7807565467,-2185.16143125334,-6142.770051331303,4043.6893793142226,4.940071895083166,-5.087177220329398,-5.055692576606936,6758662.117262969,1.3952173320745327,2.921748440220636,1.520731293721301,3.0305929503759708,-0.952187397015617,-0.582529974929211,2.3004197629593337,-1.9798957083974874E-5,-0.0013513403475646764,-1.1085855131119402E-4,394410.6978379632,2.9183211124992644E-12,944.7800727512008,4.940071895083166,-5.087177220329398,-5.055692576606936
5160.0,2838793.744874477,4519087.507144919,4157832.2964265663,-3959744.1396008544,3574466.086545929,4160779.9477272606,-1883.9190203586581,-6433.542506759049,3731.210126234941,5.097477115858955,-4.601499095701283,-5.356275511731031,6758662.117263108,1.399592601321678,2.8225894145903934,1.5338154475480525,2.9320796449095683,-0.9976452796780249,-0.6338335999149796,2.3778489042472684,-1.9798957083974874E-5,-0.0013605419136924373,-1.1490682039416599E-4,395202.49939846585,2.9077238059476704E-12,947.3431873833001,5.097477115858955,-4.601499095701283,-5.356275511731031
5220.0,2452680.673389326,4542969.768199311,4371798.4201196395,-4063519.9219610393,3180471.990288881,4374841.93878643,-1573.934890383539,-6694.523854961615,3401.430676049632,5.231350237969284,-4.094519830783276,-5.632144263366512,6758662.117263132,1.4039678705687753,2.618592724613,1.5466611117529465,2.7285883211998465,-1.0500800856765522,-0.6824207187605363,2.461581434896268,-1.9798957083974874E-5,-0.0013666374611977499,-1.1909211689234546E-4,395935.53727020335,2.9069830698470513E-12,950.4153347669511,5.231350237969284,-4.094519830783276,-5.632144263366512
5280.0,2055383.8788000394,4549319.623854436,4565510.722339262,-4148470.0907137133,2771743.317083262,4568636.008227287,-1256.6401052742053,-6924.50528608443,3055.872624137719,5.341071334246575,-3.5685634590693147,-5.882026454709566,6758662.117262958,1.4083431398158728,2.0534571935542614,1.5569375547195756,2.1638292002243316,-1.1100044000482272,-0.7275666170044877,2.552162424402327,-1.9798957083974874E-5,-0.0013695404530045302,-1.233592502316948E-4,396594.62585346797,2.9174053205185434E-12,954.0427845134661,5.341071334246575,-3.5685634590693147,-5.882026454709566
5340.0,1648582.5947939358,4538196.888565286,4738070.353554424,-4214199.803112189,2350172.7863068255,4741262.926734234,-933.4996562716627,-7122.4201035081,2696.130414114944,5.426129857946767,-3.026041318139638,-6.104767104808251,6758662.11726286,1.4127184090629386,0.9854351093016747,1.5560997398965357,1.0960683968012503,-1.1777591260137115,-0.7684885108840818,2.649966054928509,-1.9798957083974874E-5,-0.0013692094778121934,-1.2765015703631528E-4,397165.54092662426,2.9403439640447548E-12,958.2732866118188,5.426129857946767,-3.026041318139638,-6.104767104808251
5400.0,1234000.8685916825,4509726.834895751,4888676.070129676,-4260402.968134204,1917712.731092443,4891921.137737363,-606.0058252202741,-7287.3486456934,2323.864133972007,5.486127027931594,-2.469441441231142,-6.2993338829646195,6758662.117262749,1.4170936783099726,0.48804178544333887,1.5452631690392598,0.5988372134035722,-1.2533888876118677,-0.8043716943764385,2.755070731808612,-1.9798957083974874E-5,-0.0013656490977871684,-1.319050261142166E-4,397635.2875797511,2.9772048889190973E-12,963.1544618229357,5.486127027931594,-2.469441441231142,-6.2993338829646195
5460.0,813400.2594202681,4464099.284160038,5016627.947831519,-4286863.681518911,1476366.1446970266,5019910.472378364,-275.6714187378177,-7418.522560794134,1940.7920120374652,5.520777746324665,-1.9013175978067378,-6.464821856576769,6758662.117262698,1.4214689475570224,0.3024639353962702,1.5323815548538957,0.4133402017254404,-1.3365008486923728,-0.83441391600615,2.8671175929607333,-1.9798957083974874E-5,-0.00135890973621277,-1.3606346604244155E-4,397992.34689918486,3.029428741038755E-12,968.7302326623067,5.520777746324665,-1.9013175978067378,-6.464821856576769
5520.0,388572.3523381054,4401567.470785693,5121330.63716971,-4293457.25168659,1028177.4903131869,5124635.406001734,55.977098393809236,-7515.328414169672,1548.6826437975883,5.529912038601041,-1.3242780230938556,-6.60045771131362,6758662.117262593,1.4258442168040246,0.2089768452274183,1.5193910982688996,0.3198719846018033,-1.426140772548222,-0.8578893028256592,2.9851862610506563,-1.9798957083974874E-5,-0.0013490866127156024,-1.400656815292546E-4,398226.89717084053,3.098440586800012E-12,975.0348918579884,5.529912038601041,-1.3242780230938556,-6.60045771131362
5580.0,-38668.881764895115,4322446.686463957,5202296.145391797,-4280150.8113613045,575223.3148850247,5205607.840984026,387.40654169441217,-7577.310611372533,1149.346981834618,5.513476007369826,-0.7409738780885696,-6.705603423799292,6758662.117262576,1.430219486051027,0.15141524515349405,1.5068467433533366,0.2622877461809503,-1.5207388746561954,-0.874226468638063,3.1077404079296396,-1.9798957083974874E-5,-0.0013363177885412506,-1.4385362603098453E-4,398331.0058440864,3.1855620663858057E-12,982.0849931396071,5.513476007369826,-0.7409738780885696,-6.705603423799292
5640.0,-466494.8483419816,4227112.710782758,5259146.131919896,-4247003.511463003,119602.70845915683,5262449.402685875,717.0839879013112,-7604.173621721931,744.6301222934218,5.47153229248332,-0.15408748305397904,-6.7797593683732345,6758662.117262765,1.4345947552979816,0.11110613899524724,1.495037350143707,0.22193565829380377,-1.61817855504653,-0.883086391972712,-3.050489074096935,-1.9798957083974874E-5,-0.0013207814320199851,-1.4737210192531923E-4,398298.7890101157,3.2918921562793797E-12,989.8702987132285,5.47153229248332,-0.15408748305397904,-6.7797593683732345
5700.0,-893070.181158305,4116000.0356477415,5291613.706052729,-4194166.295615716,-336572.3485829602,5294893.237346899,1043.4837685301002,-7595.783490201844,336.40292234759227,5.404260031567601,0.43367963093859785,-6.822566840977071,6758662.1172625795,1.4389700245449362,0.08024021391705995,1.4841692685555452,0.19102787454802536,-1.7160077887793965,-0.884418881328635,-2.925551658694883,-1.9798957083974874E-5,-0.0013026924496898481,-1.5056978535882658E-4,398126.5356970232,3.4181787702532446E-12,998.3462228821438,5.404260031567601,0.43367963093859785,-6.822566840977071
5760.0,-1316560.6510701173,3989599.8913797135,5299544.717853483,-4121881.2554154512,-791186.7074108755,5302785.302842557,1365.0944459669847,-7552.168628141168,-73.44651589361148,5.311954316619542,1.019618806379127,-6.833809984829869,6758662.1172625795,1.443345293791875,0.05499118351660932,1.474409535796425,0.1657594546980628,-1.811751882132565,-0.8784781161616545,-2.803076416676569,-1.9798957083974874E-5,-0.0012822986481096335,-1.534001599021139E-4,397812.7948575646,3.564717265645559E-12,1007.4308230473814,5.311954316619542,1.019618806379127,-6.833809984829869
5820.0,-1735141.0981344501,3848458.0829337034,5282898.535294873,-4030480.5684137275,-1242131.7982596387,5286085.145374157,1680.4257417670476,-7473.519875937112,-483.02145872812576,5.195025143967938,1.6010264320963095,-6.8134171042988285,6758662.1172628645,1.447720563038782,0.03325472325718416,1.4658985818938444,0.14404688778276067,-1.9032337200947707,-0.8657899849081354,-2.685210610325719,-1.9798957083974874E-5,-0.0012598765938960103,-1.558223504250016E-4,397358.4235179438,3.7313121278407985E-12,1017.008583099795,5.195025143967938,1.6010264320963095,-6.8134171042988285
5880.0,-2147003.353207137,3693172.645219996,5241748.3029334685,-3920385.022598229,-1687315.3597655392,5244866.157365373,1988.0153867228898,-7360.189833979653,-890.4252143842864,5.053995856650313,2.175216155546314,-6.761461355252862,6758662.117262891,1.4520958322856732,0.013762562687151281,1.4587542873021284,0.12464178771479519,-1.9888034835488904,-0.8470808975719697,-2.573575268291603,-1.9798957083974874E-5,-0.0012357273258299616,-1.578018552047056E-4,396766.59516627726,3.917318134269595E-12,1026.9409148653622,5.053995856650313,2.175216155546314,-6.761461355252862
5940.0,-2550364.114949441,3524391.3270123466,5176280.679630256,-3792102.1329771373,-2124671.1061740154,5179315.314084932,2286.435862266213,-7212.691460905095,-1293.7698290124904,4.889501080115304,2.7395310844045406,-6.678160802223491,6758662.117262938,1.4564711015325642,-0.004313351033303214,1.4530731624962305,0.10673468453809828,-2.067427476663131,-0.8231893879122814,-2.4691762461554445,-1.9798957083974874E-5,-0.001210172045768832,-1.5931117938050243E-4,396042.7680795678,4.1217446967755264E-12,1037.0805927906877,4.889501080115304,2.7395310844045406,-6.678160802223491
6000.0,-2943472.7480609114,3342808.9134095823,5086795.055106166,-3646223.8576980424,-2552168.2885094723,5089732.388788292,2574.3010028785784,-7031.695941357664,-1691.1847669181286,4.7022841541406155,3.291355926055189,-6.563877834896624,6758662.117263028,1.4608463707794237,-0.021557383684024312,1.4489305049973902,0.08975815385136438,-2.1386483168524557,-0.7949824666297068,-2.372443816991913,-1.9798957083974874E-5,-0.0011835478787386657,-1.6033037586662293E-4,395194.6139098865,4.343381158255313E-12,1047.285908193198,4.7022841541406155,3.291355926055189,-6.563877834896624
6060.0,-3324618.968591851,3149164.39726925,4973702.247432756,-3483423.922944856,-2967821.106020266,4976528.64848407,2850.2724294219515,-6818.029828553673,-2080.825536429619,4.4931940659202265,3.8281290125061145,-6.4191179388086805,6758662.117263041,1.4652216400262512,-0.038417587638528435,1.4463802175777167,0.0732791421950674,-2.202467099386166,-0.7632908289265745,-2.2833501705192543,-1.9798957083974874E-5,-0.0011562037519122347,-1.608475004168616E-4,394231.90748368955,4.580897202185622E-12,1057.4309962032473,4.4931940659202265,3.8281290125061145,-6.4191179388086805
6120.0,-3692140.3823662074,2944238.0104604973,4837522.685875104,-3304454.7676517433,-3369697.924625722,4840225.034749181,3113.0657836628593,-6572.671470120745,-2460.882222562662,4.263181891463907,4.347354157362727,-6.244527817645608,6758662.117262945,1.4695969092745076,-0.055270846737078,1.445454562345733,0.05693356584307498,-2.259201730272408,-0.7288672097487174,-2.2015506195068153,-1.9798957083974874E-5,-0.001128496402298253,-1.60858985698408E-4,393166.37938971346,4.832890258084229E-12,1067.4108608128408,4.263181891463907,4.347354157362727,-6.244527817645608
6180.0,-4044429.8428998403,2728848.126140508,4678884.085839296,-3110144.120841893,-3755930.2596958103,4681449.836353433,3361.4567347590746,-6296.746728907166,-2829.5878875656176,4.013296754721625,4.846612290789152,-6.040892867222993,6758662.117262907,1.4739721785212876,-0.07246823550323497,1.4461639638790296,0.040380744015125786,-2.3093582990172212,-0.6923652467812491,-2.126511636286655,-1.9798957083974874E-5,-0.0011007864885613197,-1.6036993528286894E-4,392011.5335507003,5.097876637741603E-12,1077.1416849341272,4.013296754721625,4.846612290789152,-6.040892867222993
