time,gePosition_m_X,gePosition_m_Y,gePosition_m_Z,eiPosition_m_X,eiPosition_m_Y,eiPosition_m_Z,eiVelocity_m_s_X,eiVelocity_m_s_Y,eiVelocity_m_s_Z,eiAccel_m_s2_X,eiAccel_m_s2_Y,eiAccel_m_s2_Z,semiMajorAxis_m,gast_rad,eulerAngle_rad_Roll,eulerAngle_rad_Pitch,eulerAngle_rad_Yaw,eulerAngleWrtEi_rad_Roll,eulerAngleWrtEi_rad_Pitch,eulerAngleWrtEi_rad_Yaw,bodyAngularRateWrtEi_rad_s_Roll,bodyAngularRateWrtEi_rad_s_Pitch,bodyAngularRateWrtEi_rad_s_Yaw,altitudeMsl_m,airDensity_kg_m3,ambientTemperature_dgK,eiGravitation_m_s2_X,eiGravitation_m_s2_Y,eiGravitation_m_s2_Z
0.0,-1428622.33421604,4163200.23408806,5136049.85325658,-4292653.40999999,955168.470000001,5139356.56999999,109.649662999999,-7527.72648999999,1484.521489,5.52898656935719,-1.23026788740987,-6.61954989994584,6758662.11722884,1.02331933954551,0.0,-1.0E-16,-1.0E-16,-2.45673399369087,-0.195157863578589,-1.55662191625545,0.0,-0.0011344542745508,0.0,398254.541169311,3.4018E-12,990.9677734375,5.52898656935719,-1.23026788740987,-6.61954989994584
60.0,-1789712.66688805,3920255.07286162,5213136.77866216,-4276130.76360611,501640.150638724,5216447.94770976,440.899504425956,-7584.04304560365,1084.18939672292,5.50841669093324,-0.646201702281512,-6.7197124061559,6758662.11722884,1.02769460895833,-6.0E-16,2.8900729509E-6,-9.0E-16,-2.46403808350273,-0.142273855138577,-1.5131454542542,0.0,-0.0011344542745508,0.0,398336.992349341,3.2024E-12,984.492431640625,5.50841669093324,-0.646201702281512,-6.7197124061559
120.0,-2144732.04662911,3662345.06425606,5266057.40817675,-4239785.46485069,45786.4492663356,5269357.6801007,770.149856360689,-7605.20775889383,678.777242699508,5.46236021841804,-0.0589893241270064,-6.78881750197501,6758662.11722884,1.03206987837114,0.0,1.18821901662E-5,2.0E-16,-2.46898393749582,-0.0891285719195159,-1.47032473601906,0.0,-0.0011344542745508,0.0,398282.351312239,3.31E-12,992.429565429687,5.46236021841804,-0.0589893241270064,-6.78881750197501
180.0,-2492166.13162727,3390598.74813147,5294563.01581359,-4183783.25764149,-410279.480789288,5297837.08956814,1095.87688042975,-7591.11290731491,270.159254331848,5.39101509822691,0.528665740843039,-6.82652947798945,6758662.11722886,1.03644514778395,-1.4E-15,2.74378411954E-5,-1.2E-15,-2.47163344785323,-0.035822288788167,-1.42790970548241,0.0,-0.0011344542745508,0.0,398087.267115156,3.4386E-12,1001.05029296875,5.39101509822691,0.528665740843039,-6.82652947798945
240.0,-2830524.93703088,3106195.59239748,5298517.77706242,-4108380.89026462,-864442.894077518,5301750.47079897,1416.57209400251,-7541.81319429646,-139.774483847831,5.29469509567264,1.11405482451908,-6.83265572642935,6758662.11722887,1.04082041719676,-2.3E-15,4.99883423253E-5,-2.5E-15,-2.47201970720766,0.01754812940707,-1.38565662496518,0.0,-0.0011344542745508,0.0,397750.659501287,3.5884E-12,1010.26550292968,5.29469509567264,1.11405482451908,-6.83265572642935
300.0,-3158349.27065467,2810360.86253665,5277899.46242047,-4013924.98616905,-1314597.20057466,5281075.78379538,1730.74928789974,-7457.52569377284,-549.126655787515,5.17382866282781,1.69447627941295,-6.80714795491089,6758662.11722887,1.04519568660958,-1.8E-15,7.99328296731E-5,4.0E-16,-2.47014753600731,0.0708871708738339,-1.34332428943728,0.0,-0.0011344542745508,0.0,397273.760669376,3.7594E-12,1019.95324707031,5.17382866282781,1.69447627941295,-6.80714795491089
360.0,-3474217.08356266,2504360.33240191,5232799.61189785,-3900850.5020311,-1758653.68795,5235904.8275507,2036.95136094464,-7338.62906255867,-956.001393645517,5.02895729882099,2.26724769265308,-6.75010277495459,6758662.11722887,1.04957095602238,1.1E-15,1.176363958992E-4,1.4E-15,-2.46599356037771,0.124098662252704,-1.30067025372995,0.0,-0.0011344542745508,0.0,396660.117186663,3.9509E-12,1029.97082519531,5.02895729882099,2.26724769265308,-6.75010277495459
420.0,-3776749.70791158,2189494.85846895,5163423.18837886,-3769678.7790014,-2194551.17459277,5166442.89226163,2333.75704093038,-7185.66202019733,-1358.5129738363,4.86073340379134,2.82971808104519,-6.66176165594908,6758662.11722888,1.0539462254352,5.0E-16,1.634283793621E-4,3.0E-16,-2.45950583704048,0.177083733268996,-1.25744705315704,0.0,-0.0011344542745508,0.0,395915.551843895,4.162E-12,1040.1689453125,4.86073340379134,2.82971808104519,-6.66176165594908
480.0,-4064617.9545509,1867094.84019338,5070087.7100027,-3621015.19485924,-2620265.5495136,5073007.89024474,2619.78746170981,-6999.32109896087,-1754.79449109399,4.6699176297139,3.37928001560932,-6.54251023745084,6758662.11722888,1.05832149484801,1.6E-15,2.176008139045E-4,3.0E-16,-2.45060304250777,0.229738697373168,-1.21339840239373,0.0,-0.0011344542745508,0.0,395048.085877314,4.3915E-12,1050.40612792968,4.6699176297139,3.37928001560932,-6.54251023745084
540.0,-4336548.0431051,1538514.58951189,4953221.86403477,-3455546.42660967,-3033819.15548751,4956028.96803418,2893.71256636816,-6780.4576698069,-2143.00647189948,4.45737573340149,3.91338162296558,-6.39287699509346,6758662.11722889,1.06269676426082,2.9E-15,2.804070468551E-4,-5.0E-16,-2.43917326977574,0.281952784368425,-1.16825537618663,0.0,-0.0011344542745508,0.0,394067.822610331,4.6383E-12,1060.55859375,4.45737573340149,3.91338162296558,-6.39287699509346
600.0,-4591327.33761619,1205126.63283167,4813363.60702509,-3274037.33485035,-3433289.97224997,4816044.60446426,3154.2573068229,-6530.07425328215,-2521.34538840933,4.22407493918386,4.42953841007291,-6.21353125792592,6758662.11722891,1.06707203367362,5.0E-15,3.52060532127E-4,2.7E-15,-2.42507251434679,0.333605660525269,-1.12173261217407,0.0,-0.0011344542745508,0.0,392986.794192726,4.901E-12,1070.52355957031,4.22407493918386,4.42953841007291,-6.21353125792592
660.0,-4827809.86129834,868315.969072557,4651157.7583823,-3077327.48299943,-3816820.55719275,4653700.20187409,3400.20761071366,-6249.32012759414,-2888.05203397398,3.97107982105513,4.92534485815703,-6.00528057770764,6758662.11722891,1.07144730308643,3.2E-15,4.327338045605E-4,3.5E-15,-2.40812299170759,0.384564672847026,-1.07352463756112,0.0,-0.0011344542745508,0.0,391818.773730785,5.1781E-12,1080.21948242187,3.97107982105513,4.92534485815703,-6.00528057770764
720.0,-5044921.5645584,529474.307459848,4467353.0968233,-2866327.3062053,-4182626.70183816,4469745.17990405,3630.41608710308,-5939.48624933572,-3241.41972144967,3.69954771645439,5.39848573122383,-5.76906745354875,6758662.1172289,1.07582257249925,4.9E-15,5.225576408846E-4,2.0E-15,-2.3881115222722,0.434681759523263,-1.02330251806596,0.0,-0.0011344542745508,0.0,390579.055703139,5.4681E-12,1089.58361816406,3.69954771645439,5.39848573122383,-5.76906745354875
780.0,-5241665.32116471,189994.308807832,4262798.97147608,-2642013.94644407,-4529005.76339733,4265029.58367305,3843.80744331259,-5601.99950563092,-3579.80226580137,3.41072368629177,5.84674704437569,-5.50596541829298,6758662.1172289,1.08019784191205,5.1E-15,6.216204119302E-4,1.1E-15,-2.36478836266356,0.483789982400096,-0.970711173942743,0.0,-0.0011344542745508,0.0,389284.208133901,5.7689E-12,1098.56665039062,3.41072368629177,5.84674704437569,-5.50596541829298
840.0,-5417125.62830584,-148736.146015456,4038441.44170972,-2405426.77194357,-4854344.63194299,4040500.22042337,4039.38358616868,-5238.41631975526,-3901.6217129713,3.10593503833537,6.26802663725432,-5.2171744961809,6758662.11722892,1.08457311132487,5.4E-15,7.29967629781E-4,-3.0E-16,-2.33786707275359,0.531699666175086,-0.915367922159364,0.0,-0.0011344542745508,0.0,387951.800539694,6.0783E-12,1107.12976074218,3.10593503833537,6.26802663725432,-5.2171744961809
900.0,-5570472.98726842,-485339.636895992,3795318.96202597,-2157662.60064375,-5157127.29514866,3797196.34098097,4216.22838203828,-4850.41563555372,-4205.3757776573,2.78658543361774,6.66034429835607,-4.90401604458789,6758662.11722891,1.08894838073768,2.9E-15,8.476016928124E-4,-2.5E-15,-2.3070263056264,0.57819418306565,-0.856863105181771,0.0,-0.0011344542745508,0.0,386600.112167763,6.3938E-12,1115.24084472656,2.78658543361774,6.66034429835607,-4.90401604458789
960.0,-5700967.94258065,-818454.811244828,3534557.63056232,-1899870.64890388,-5435941.96416272,3536244.88459674,4373.51205128817,-4439.79130921345,-4489.64495351282,2.45414859808204,7.02185138672578,-4.56792699598518,6758662.11722888,1.09332365015049,4.3E-15,9.744818305459E-4,-2.4E-15,-2.27191480548845,0.623025515222025,-0.794764068043609,0.0,-0.0011344542745508,0.0,385247.825487532,6.7121E-12,1122.87268066406,2.45414859808204,7.02185138672578,-4.56792699598518
1020.0,-5805227.80085757,-1150370.6124794,3260968.61117915,-1628765.80202746,-5688712.6863973,3262454.38018216,4958.61847382833,-3930.9433398184,-4393.207518897,24.5124647773137,11.2251958430063,13.7810372663359,6797433.05282558,1.0976989195633,8.583254848506E-4,0.0011105238402626,0.0753593290270365,-2.2321613860813,0.665909878663474,-0.728624235946964,0.0,-0.0011344542745508,0.0,383927.22170893,7.0271E-12,1129.95971679687,2.10436931901624,7.34983042193753,-4.21509887658466
1080.0,-5847406.40764133,-1527101.10066641,3022634.06575601,-1287373.81990071,-5904188.51831517,3023862.22425555,6416.70210068566,-3248.80433655413,-3556.77926852735,24.0712446824711,11.502945228749,14.0896297074654,7436918.28023749,1.10207418897612,0.0137243821232767,0.0012554822048117,0.292920141190907,-2.18739217347913,0.706523922081755,-0.657999558644964,0.0,-0.0011344542745508,0.0,383414.427551345,7.2279E-12,1135.97705078125,1.66314922417364,7.62757980768022,-3.90650643545515
1140.0,-5832041.40113845,-1942053.28933834,2815181.9855438,-884103.418817464,-6082553.14499725,2816102.95942325,6792.21128961652,-2733.97236792597,-3549.05893962304,1.14033050279524,7.84537276803084,-3.63225391429609,7708504.69121321,1.10644945838892,0.0372195110596294,0.0014084721977675,0.335578723492398,-2.13725775893292,0.7445023348819,-0.582474951965948,0.0,-0.0011344542745508,0.0,386467.17744779,6.979E-12,1141.17114257812,1.14033050279524,7.84537276803084,-3.63225391429609
1200.0,-5792178.56695773,-2349815.45263765,2596186.70137504,-474835.766977708,-6232362.21077448,2596794.72994782,6844.74373864128,-2257.99805743326,-3758.27479908243,0.610413871835268,8.01186560139068,-3.33824794951321,7708504.69121323,1.11082472780174,0.0608650510249481,0.0015682016225571,0.332275557569799,-2.08147277298251,0.779438099832856,-0.501703234399422,0.0,-0.0011344542745508,0.0,393415.318202682,6.3116E-12,1146.0234375,0.610413871835268,8.01186560139068,-3.33824794951321
1260.0,-5729157.39169974,-2747205.02114375,2365182.1106048,-63370.4554711661,-6353344.11190203,2365474.38044115,6865.47223033847,-1773.58498838655,-3949.27726214525,0.0810571380683091,8.12656129808387,-3.02567784982561,7708504.69121325,1.11519999721455,0.0841628425248565,0.0017317711166551,0.327380262653693,-2.0198691989683,0.810887038531567,-0.415457865277881,0.0,-0.0011344542745508,0.0,404186.128653359,5.365E-12,1150.43481445312,0.0810571380683091,8.12656129808387,-3.02567784982561
1320.0,-5643302.67364594,-3132656.62814631,2123291.00179826,348388.354468197,-6445086.00686537,2123266.16634491,6854.58336605869,-1283.85140077688,-4121.05114208032,-0.442668868306798,8.18924884315991,-2.69786236800235,7708504.69121324,1.11957526662736,0.106981228131456,0.0018936055747914,0.320923282995022,-1.95246179217975,0.838378556462896,-0.323697840629029,0.0,-0.0011344542745508,0.0,418720.218734708,4.3027E-12,1154.26684570312,-0.442668868306798,8.18924884315991,-2.69786236800235
1380.0,-5535068.74192865,-3504697.35769152,1871691.01439385,758556.702158475,-6507362.04280822,1871349.18539473,6812.56156494933,-791.903995782397,-4272.78491821324,-0.955926225546226,8.20051819217183,-2.35825714594987,7708504.69121322,1.12395053604017,0.129193908267882,0.0020445998870993,0.312944240040295,-1.87951878173288,0.861434308947335,-0.226637914824973,0.0,-0.0011344542745508,0.0,436934.805999184,3.2696E-12,1157.39196777343,-0.955926225546226,8.20051819217183,-2.35825714594987
1440.0,-5405032.16069106,-3861958.38581574,1611602.23804907,1165288.21278658,-6540131.24575991,1610944.96334835,6740.17190021892,-300.791155346801,-4403.87634624758,-1.45421372303358,8.16171356035727,-2.01036811927491,7708504.69121323,1.12832580545299,0.150681303308656,0.0021714050996563,0.303491281482885,-1.80162410892889,0.879595514246781,-0.124810393801437,0.0,-0.0011344542745508,0.0,458724.817034545,2.3657E-12,1159.71801757812,-1.45421372303358,8.16171356035727,-2.01036811927491
1500.0,-5253882.84263051,-4203184.59416654,1344274.62919439,1566790.27563138,-6543532.70235061,1343304.85775825,6638.43719487197,186.540334069553,-4513.93294291866,-1.93345383978674,8.07486402354109,-1.65766789316474,7708504.69121321,1.13270107486579,0.171331788218506,0.0022558875790725,0.292620331921528,-1.71971120982429,0.892457591777009,-0.0190985003969937,0.0,-0.0011344542745508,0.0,483964.314278091,1.6376E-12,1161.19958496093,-1.93345383978674,8.07486402354109,-1.65766789316474
1560.0,-5082413.86385197,-4527242.03141886,1070975.54452278,1961338.70289956,-6517878.28145255,1069697.57976891,6508.61047579287,667.2838271324,-4602.76763246017,-2.39006013991491,7.94259607190071,-1.30351863418057,7708504.69121321,1.1370763442786,0.191042778661215,0.0022747784101415,0.280394278651492,-1.63504724250397,0.899707930097639,0.0892797942445091,0.0,-0.0011344542745508,0.0,512508.20405283,1.0873E-12,1161.83178710937,-2.39006013991491,7.94259607190071,-1.30351863418057
1620.0,-4891510.29620544,-4833123.17732706,792977.667938886,2347290.62697131,-6463643.20895857,791397.11066318,6352.14401007699,1138.805708506,-4670.39003587959,-2.82098368123499,7.76803341021495,-0.951104353634282,7708504.69121322,1.14145161369142,0.20972165180688,0.0021995207335459,0.266882126151046,-1.54915518001032,0.901159884053862,0.198850058322417,0.0,-0.0011344542745508,0.0,544194.173437414,6.956E-13,1161.64111328125,-2.82098368123499,7.76803341021495,-0.951104353634282
1680.0,-4682137.38154629,-5119950.03941106,511547.573982853,2723095.46900743,-6381454.85476014,509671.256316834,6170.6561916476,1598.67202486291,-4716.99403282301,-3.22373835375863,7.55468950766092,-0.603374650465637,7708504.69121319,1.14582688310422,0.227286489701924,0.0019963135510277,0.252158150521221,-1.46367961800115,0.896775125160459,0.308015962730451,0.0,-0.0011344542745508,0.0,578844.798280982,4.306E-13,1160.67431640625,-3.22373835375863,7.55468950766092,-0.603374650465637
1740.0,-4455328.36570997,-5386975.17930827,227935.129806691,3087303.88736822,-6272080.11714956,225771.04172485,5965.89751496599,2044.66858602294,-4742.94232412492,-3.59640624052678,7.30635820033554,-0.263001121046637,7708504.69121318,1.15020215251704,0.243666637817354,0.0016263422581569,0.23630108088289,-1.38022338332089,0.886668423894421,0.415223039436541,0.0,-0.0011344542745508,0.0,616269.762432678,2.592E-13,1158.98803710937,-3.59640624052678,7.30635820033554,-0.263001121046637
1800.0,-4212172.29043919,-5633580.82188635,-56636.1075136056,3438574.685928,-6136411.79704385,-59078.897586531,5739.71677730325,2474.81456472936,-4748.74877026754,-3.93762504387129,7.02700711153116,0.0676531900420972,7708504.69121318,1.15457742192984,0.25880307603313,0.0010461792310957,0.219393329071053,-1.30019434193313,0.871093526058782,0.519112241863532,0.0,-0.0011344542745508,0.0,656268.128974431,1.526E-13,1156.64306640625,-3.93762504387129,7.02700711153116,0.0676531900420972
1860.0,-3953802.01167748,-5859276.2435744,-340977.388220569,3775679.72672966,-5975454.34452068,-343688.817172531,5494.02850665183,2887.36988797194,-4735.05928058689,-4.24656029993486,6.72067787261546,0.386551665440277,7708504.69121319,1.15895269134266,0.272648603649516,2.083324442689E-4,0.201520282507793,-1.22469741385086,0.850414003335439,0.618628305084669,0.0,-0.0011344542745508,0.0,698630.607604148,8.86E-14,1153.70068359375,-4.24656029993486,6.72067787261546,0.386551665440277
1920.0,-3681382.67549646,-6063693.6664062,-623942.096963723,4097506.94606688,-5790309.33595249,-626911.193662045,5230.78243567321,3280.83692447857,-4702.63198715064,-4.52286550162082,6.39139620359413,0.691990287683506,7708504.69121321,1.16332796075546,0.285167843881406,-9.380835832345E-4,0.182769668503208,-1.15448854888544,0.825066375394572,0.713066157615519,0.0,-0.0011344542745508,0.0,743141.767830963,5.12E-14,1150.22180175781,-4.52286550162082,6.39139620359413,0.691990287683506
1980.0,-3396100.8414548,-6246582.90130714,-904431.886987072,4403061.61657219,-5582161.00482234,-907646.860481091,4951.9356496515,3653.95712750199,-4652.31736485885,-4.76663338258409,6.04309394454033,0.982593522762228,7708504.69121323,1.16770323016828,0.296337076587397,-0.002446582280692,0.163230991992277,-1.08998626277074,0.795523203095665,0.802059791126192,0.0,-0.0011344542745508,0.0,789582.15473475,2.98E-14,1146.2646484375,-4.76663338258409,6.04309394454033,0.982593522762228
2040.0,-3099154.40015306,-6407804.9893246,-1181401.63560017,4691466.02973817,-5352262.10656105,-1184849.96361715,4659.42784306619,4005.70338925137,-4585.038865377,-4.97834152122544,5.67954419976083,1.25730160527815,7708504.69121321,1.17207849958109,0.306143910671092,-0.0043724733432332,0.142995043326569,-1.03132249141823,0.762261804398741,0.885531836609337,0.0,-0.0011344542745508,0.0,837730.272094844,1.78E-14,1141.88586425781,-4.97834152122544,5.67954419976083,1.25730160527815
2100.0,-2791743.38955672,-6547325.08445733,-1453863.26601718,4961957.79382856,-5101920.35078913,-1457531.78265169,4355.15993717612,4335.26890754956,-4501.77452665151,-5.15879515524163,5.3043099279915,1.51535103912132,7708504.69121321,1.1764537689939,0.314586809685546,-0.0067719926585063,0.122153468532787,-0.97841125679308,0.725741281800844,0.963625360360736,0.0,-0.0011344542745508,0.0,887364.406124579,1.1E-14,1137.13989257812,-5.15879515524163,5.3043099279915,1.51535103912132
2160.0,-2475061.77518938,-6665204.8084711,-1720888.5050655,5213886.95229482,-4832485.58614724,-1724763.48671505,4040.97614874263,4642.05336388475,-4403.53991057366,-5.30906970974101,4.92070562383064,1.75625011964555,7708504.69121322,1.18082903840671,0.321674485734736,-0.0097014200693427,0.100798391613462,-0.931017970823732,0.686388019310152,1.03663506092003,0.0,-0.0011344542745508,0.0,938264.271344165,7.2E-15,1132.07861328125,-5.30906970974101,4.92070562383064,1.75625011964555
2220.0,-2150290.22393092,-6761594.28868352,-1981610.66421903,5446712.12898203,-4545337.87592998,-1985677.91297416,3718.6494632369,4925.64717405678,-4291.37261587259,-5.43045508844389,4.53177120665158,1.97975117303225,7708504.69121321,1.18520430781953,0.327425177888098,-0.0132162089409216,0.0790220770476486,-0.888819235737471,0.644588299077347,1.10494801703015,0.0,-0.0011344542745508,0.0,990212.467875703,5.0E-15,1126.75207519531,-5.43045508844389,4.53177120665158,1.97975117303225
2280.0,-1818589.87074141,-6836724.06618225,-2235225.54328748,5659995.90020309,-4241876.55890063,-2239470.46713659,3389.87035710745,5185.81450774533,-4166.31851675539,-5.52440330413878,4.14025686430243,2.18582102642984,7708504.69121321,1.18957957723233,0.331865832101703,-0.0173701487714525,0.056916620578241,-0.851449212395513,0.60068614508896,1.16899792458182,0.0,-0.0011344542745508,0.0,1042995.74635033,3.6E-15,1121.20751953125,-5.52440330413878,4.14025686430243,2.18582102642984
2340.0,-1481097.05256799,-6890897.03614612,-2480991.5625379,5853399.58187638,-3923510.35029382,-2485399.25189169,3056.2385329753,5422.47569083749,-4029.41979360145,-5.59248056771599,3.74861737770121,2.37461099738632,7708504.69121318,1.19395484664514,0.335031200157527,-0.0222145790762138,0.0345736574742039,-0.818532670354987,0.554984582821052,1.22923271966923,0.0,-0.0011344542745508,0.0,1096406.08249646,2.7E-15,1115.49108886718,-5.59248056771599,3.74861737770121,2.37461099738632
2400.0,-1138918.96399995,-6924480.55542918,-2718229.23083972,6026677.60399599,-3591648.50390953,-2722784.53101317,2719.25737716082,5635.68951251577,-3881.7047519644,-5.63632454058464,3.35901435814599,2.54642744796872,7708504.6912132,1.19833011605796,0.336962875449716,-0.0277976696331052,0.0120840794851357,-0.789706813429779,0.507748868329595,1.28609350640443,0.0,-0.0011344542745508,0.0,1150241.56824524,2.1E-15,1109.64453125,-5.63632454058464,3.35901435814599,2.54642744796872
2460.0,-793130.17465078,-6937898.82659776,-2946320.05547726,6179671.62622207,-3247693.02771326,-2951007.63488747,2380.33081766352,5825.63586479927,-3724.17937070296,-5.65760709895107,2.97332483668513,2.70170370758115,7708504.6912132,1.20270538547076,0.337708283589905,-0.0341637790123232,-0.0104622456274988,-0.7646345516626,0.459210660775008,1.34000213284706,0.0,-0.0011344542745508,0.0,1204307.12984576,1.7E-15,1103.70825195312,-5.65760709895107,2.97332483668513,2.70170370758115
2520.0,-444769.938284544,-6931625.64312881,-3164704.99442895,6312304.5286237,-2893031.92246493,-3169509.40837246,2040.76224886713,5992.59905077681,-3557.8204786872,-5.65800266759295,2.5931547282791,2.84097394322678,7708504.69121319,1.20708065488357,0.337319645764979,-0.0413529001993024,-0.0329767550995462,-0.743011718762866,0.409572477187558,1.39135493242684,0.0,-0.0011344542745508,0.0,1258415.08609459,1.4E-15,1097.71899414062,-5.65800266759295,2.5931547282791,2.84097394322678
2580.0,-94840.2177823805,-6906177.55812966,-3372882.54497652,6424574.39162391,-2529033.39530828,-3377788.29494033,1701.75519285074,6136.95201298056,-3383.57043094059,-5.63916195599617,2.21985582840475,2.96484935610218,7708504.69121319,1.21145592429638,0.335852932526081,-0.0494001991137103,-0.0553724727974539,-0.724570266107051,0.359012042573808,1.44052061869704,0.0,-0.0011344542745508,0.0,1312385.56145758,1.1E-15,1091.71166992187,-5.63916195599617,2.21985582840475,2.96484935610218
2640.0,255695.652489753,-6862107.51912182,-3570406.55419781,6516548.55979621,-2157040.98748658,-3575398.14273457,1364.41538239428,6259.14165766186,-3202.3331375889,-5.60269076684092,1.8545451650354,3.07399691389787,7708504.6912132,1.2158311937092,0.333366825166093,-0.0583356489694794,-0.0775642887570264,-0.709078951570682,0.307686336362992,1.48784083694323,0.0,-0.0011344542745508,0.0,1366046.76973155,9.0E-16,1085.71752929687,-5.60269076684092,1.8545451650354,3.07399691389787
2700.0,605913.74515099,-6799998.99432523,-3756883.82782404,6588357.86593462,-1778369.54681711,-3761945.80908387,1029.75397406601,6359.67538542955,-3014.97129071311,-5.5501334386347,1.4981257073289,3.16912069049638,7708504.69121319,1.220206463122,0.329921701002631,-0.0681837607485507,-0.0994692315551416,-0.696342595274029,0.255735255995934,1.53363232556681,0.0,-0.0011344542745508,0.0,1419235.18410232,8.0E-16,1079.76513671875,-5.5501334386347,1.4981257073289,3.16912069049638
2760.0,954929.835036895,-6720460.60149769,-3931971.60460004,6640191.07515421,-1394301.97061884,-3937088.63066073,698.691628145106,6439.10888416835,-2822.30463325701,-5.48296042206738,1.15130761069795,3.25094577787927,7708504.69121321,1.22458173253482,0.325578657684246,-0.0789634076101633,-0.121006726692681,-0.686200627551818,0.203284890039276,1.57818999044733,0.0,-0.0011344542745508,0.0,1471795.6091439,6.0E-16,1073.88037109375,-5.48296042206738,1.15130761069795,3.25094577787927
2820.0,1301899.28324378,-6624121.23861581,-4095374.95406125,6672289.59390545,-1006086.64280656,-4100531.81723678,372.063223081307,6498.03519606814,-2625.10911874673,-5.40255946428222,0.814629346865777,3.32020465629041,7708504.69121318,1.22895700194763,0.320398590063063,-0.0906877388648361,-0.14209883311195,-0.678525402884994,0.150450433074883,1.6217904507654,0.0,-0.0011344542745508,0.0,1523581.16960354,5.0E-16,1068.08508300781,-5.40255946428222,0.814629346865777,3.32020465629041
2880.0,1646016.57709418,-6511625.70633688,-4246844.14681811,6684942.47579622,-614935.48923208,-4252025.81815276,50.6230037799256,6537.07503620331,-2424.11681915724,-5.31022987798758,0.48847822098367,3.37762585441546,7708504.69121317,1.23333227136044,0.314441331242724,-0.103364177244158,-0.162670449632398,-0.673220579538464,0.0973387948769847,1.66469579243626,0.0,-0.0011344542745508,0.0,1574453.22984543,4.0E-16,1062.40014648437,-5.31022987798758,0.48847822098367,3.37762585441546
2940.0,1986514.58753221,-6383630.80500697,-4386172.03821289,6678481.74500293,-222022.577519741,-4391363.70238754,-264.950006221621,6556.86831436481,-2220.01644946266,-5.20717939534214,0.173109912567567,3.4239246975011,7708504.69121315,1.23770754077325,0.307764867165475,-0.116994491626831,-0.182649483424973,-0.670219748590596,0.0440509652857992,1.70715738460206,0.0,-0.0011344542745508,0.0,1624281.25668039,4.0E-16,1056.84204101562,-5.20717939534214,0.173109912567567,3.4239246975011
3000.0,2322663.59952996,-6240801.88370897,-4513191.49871015,6653278.04873592,171516.808876962,-4518378.58559879,-574.046469660252,6558.06679359282,-2013.45439012657,-5.09452314314176,-0.13133320836148,3.45979592393296,7708504.69121314,1.24208281018606,0.300424631626395,-0.131574936163801,-0.201966973566381,-0.669485420756604,-0.0093158009650866,1.7494196920287,0.0,-0.0011344542745508,0.0,1672942.63707203,3.0E-16,1051.42517089843,-5.09452314314176,-0.13133320836148,3.45979592393296
3060.0,2653770.16509006,-6083809.81519845,-4627772.91766328,6609736.64257411,564586.688289857,-4632941.13078332,-876.121192015822,6541.3278068821,-1805.03610215311,-4.97328432056762,-0.424805143731058,3.48590794607883,7708504.69121313,1.24645807959887,0.29247288600001,-0.147096445895364,-0.220557164091767,-0.671008431317356,-0.0626659151217158,1.79172406419329,0.0,-0.0011344542745508,0.0,1720322.46094436,3.0E-16,1046.16088867187,-4.97328432056762,-0.424805143731058,3.48590794607883
3120.0,2979175.82257052,-5913328.36828683,-4729821.80118325,6548293.70634005,956130.551073816,-4734957.14328372,-1170.6876603441,6507.30894668051,-1595.32784267094,-4.84439620935337,-0.707340786010312,3.50289853586832,7708504.69121317,1.25083334901168,0.283958185351961,-0.163544878471659,-0.238357522648942,-0.674807792198916,-0.115903437373375,1.83431250886389,0.0,-0.0011344542745508,0.0,1766313.27807115,2.0E-16,1041.05871582031,-4.84439620935337,-0.707340786010312,3.50289853586832
3180.0,3298255.7204698,-5730031.94805093,-4819276.4797076,6469412.98337516,1345131.23819562,-4824365.27573589,-1457.31273454934,6456.66363901283,-1384.85860188353,-4.70870519550971,-0.979041910944713,3.51137172681203,7708504.6912132,1.2552086184245,0.274924930104638,-0.180901291461284,-0.255308702695212,-0.680930997766572,-0.168930048815699,1.87743146920786,0.0,-0.0011344542745508,0.0,1810814.83683756,2.0E-16,1036.12561035156,-4.70870519550971,-0.979041910944713,3.51137172681203
3240.0,3610417.17859131,-5534593.67395192,-4896105.93648674,6373582.73241854,1730610.5786084,-4901134.85416811,-1735.61154336299,6390.03751439894,-1174.12219426845,-4.56697452944216,-1.24006461745395,3.51189573965934,7708504.69121322,1.2595838878373,0.265413000140946,-0.199142244932102,-0.271354449025716,-0.689454770483426,-0.221642949203299,1.9213356211396,0.0,-0.0011344542745508,0.0,1853733.81155298,2.0E-16,1031.3662109375,-4.56697452944216,-1.24006461745395,3.51189573965934
3300.0,3915098.21472089,-5327683.76633507,-4960307.76451644,6261312.97862173,2111628.83064603,-4965263.83277168,-2005.24262226209,6308.0654903892,-963.57944794664,-4.41988859591065,-1.4906081550683,3.50500175683376,7708504.69121321,1.26395915725012,0.255457466256346,-0.218240119473344,-0.286441448156964,-0.70048620784501,-0.273932616611701,1.96629169126933,0.0,-0.0011344542745508,0.0,1894983.52397626,2.0E-16,1026.78332519531,-4.41988859591065,-1.4906081550683,3.50500175683376
3360.0,4211766.06062218,-5109968.21268483,-5011906.25638562,6133133.04838384,2487283.96768352,-5016776.8818019,-2265.9033180876,6211.36948483729,-753.660446066727,-4.26805750590658,-1.73090505681923,3.49118338978077,7708504.69121323,1.26833442666293,0.245088372273886,-0.238163440548474,-0.30051912661813,-0.71416425587381,-0.325680364523589,2.01258226224076,0.0,-0.0011344542745508,0.0,1934483.66379575,1.0E-16,1022.37823486328,-4.26805750590658,-1.73090505681923,3.49118338978077
3420.0,4499915.6872924,-4882107.68628537,-5050950.6290096,5989589.37152142,2856710.84361391,-5055723.6105681,-2517.3254749566,6100.55668441978,-544.766782828755,-4.11202185872196,-1.96121248124971,3.47089670239481,7708504.69121323,1.27270969607574,0.234330579961768,-0.258877200968901,-0.313539401465327,-0.730661378200776,-0.376755632629108,2.06050947518212,0.0,-0.0011344542745508,0.0,1972160.01199003,1.0E-16,1018.15051269531,-4.11202185872196,-1.96121248124971,3.47089670239481
3480.0,4779068.35601962,-4644756.69146394,-5077513.38321207,5831243.5336661,3219080.2693418,-5082176.92546377,-2759.27140793062,5976.21829895365,-337.273804426114,-3.95225755414819,-2.18180465941144,3.4445606720448,7708504.69121329,1.27708496548855,0.223203668153784,-0.280343174302756,-0.325456388304052,-0.750185201971138,-0.427012952128878,2.11039844859561,0.0,-0.0011344542745508,0.0,2007944.17027904,1.0E-16,1014.09851074218,-3.95225755414819,-2.18180465941144,3.4445606720448
3540.0,5048770.20881835,-4398562.91127569,-5091688.7965388,5658670.56159332,3573598.02751648,-5096231.52140756,-2991.53016453825,5838.92873841835,-131.532811770673,-3.78918056199542,-2.39296633986019,3.41255798692556,7708504.69121332,1.28146023490136,0.21172187716293,-0.302520213126675,-0.336226072786694,-0.772979787652258,-0.476288538459279,2.1626000953986,0.0,-0.0011344542745508,0.0,2041773.29925246,1.0E-16,1010.21911621093,-3.78918056199542,-2.39296633986019,3.41255798692556
3600.0,5308590.90926438,-4144166.73525321,-5093591.54647095,5472457.42433322,3919503.84913454,-5098002.50385027,-3213.91406939456,5689.24515599917,72.1267925386351,-3.62315157924405,-2.5949871254732,3.37523609424258,7708504.69121333,1.28583550431417,0.199894089674347,-0.325364527143565,-0.345805951975939,-0.799325971019478,-0.524396490350828,2.21749281730794,0.0,-0.0011344542745508,0.0,2073589.86722889,1.0E-16,1006.50903320312,-3.62315157924405,-2.5949871254732,3.37523609424258
3660.0,5558122.34257736,-3882200.94662035,-5083355.46029773,5273201.73331262,4256070.37243027,-5087624.13759569,-3426.2555435775,5527.70730674714,273.395425848525,-3.45448052449786,-2.78815659935251,3.33290842795973,7708504.69121332,1.29021077372699,0.187723839770856,-0.34882993728532,-0.354154652183365,-0.829539942443554,-0.571124623469786,2.27548226894968,0.0,-0.0011344542745508,0.0,2103341.4114457,1.0E-16,1002.96380615234,-3.45448052449786,-2.78815659935251,3.33290842795973
3720.0,5796977.38196614,-3613290.55012621,-5061132.38725851,5061510.62535855,4582602.10162989,-5065248.71803302,-3628.40418789714,5354.83767746489,471.981324640739,-3.2834308354142,-2.97276014230626,3.28585575747037,7708504.69121331,1.29458604313979,0.175209342544903,-0.372868102966081,-0.361231529971899,-0.863968846371082,-0.616230053211559,2.33699799842933,0.0,-0.0011344542745508,0.0,2130980.31279889,1.0E-16,999.578369140625,-3.2834308354142,-2.97276014230626,3.28585575747037
3780.0,6024788.72673265,-3338052.72334399,-5027091.18812437,4837999.81309867,4898434.38065401,-5031045.55993986,-3820.22411754055,5171.14184909219,667.608627055139,-3.11022354786704,-3.1490753507561,3.2343276096356,7708504.69121331,1.29896131255261,0.162343537848628,-0.397428720628339,-0.366996263029217,-0.902981707781527,-0.659434782450448,2.40248529190129,0.0,-0.0011344542745508,0.0,2156463.58503566,1.0E-16,996.34765625,-3.11022354786704,-3.1490753507561,3.2343276096356
3840.0,6241207.81638546,-3057096.87588506,-4981416.83712243,4603292.78807715,5202932.39468906,-4985200.0987479,-4001.59153462838,4977.10905812657,860.01554196601,-2.93504114616441,-3.31736897089766,3.17854372626161,7708504.69121332,1.30333658196542,0.14911414310132,-0.422459692621089,-0.37140843765999,-0.946953476873308,-0.700421766384319,2.47239003141115,0.0,-0.0011344542745508,0.0,2179752.67904324,1.0E-16,993.265380859375,-2.93504114616441,-3.31736897089766,3.17854372626161
3900.0,6445903.82401298,-2771024.80248208,-4924309.63097505,4358020.16272545,5495490.21068797,-4927913.09903297,-4172.39252484227,4773.21292844858,1048.95260581052,-2.7580311820831,-3.47789427216211,3.11869552738114,7708504.69121331,1.30771185137822,0.135503711694888,-0.447907266266182,-0.374427139795608,-0.996239580882357,-0.738832233359747,2.54713397055384,0.0,-0.0011344542745508,0.0,2200813.30266674,1.0E-16,990.326354980468,-2.7580311820831,-3.47789427216211,3.11869552738114
3960.0,6638562.73138204,-2480430.9172821,-4855984.49980276,4102819.13815841,5775529.86627634,-4859399.96496884,-4332.52106435525,4559.91234932218,1234.18102680873,-2.57930966715343,-3.63088879021525,3.05494755779928,7708504.69121332,1.31208712079104,0.12148969541314,-0.473716143714878,-0.376010556770198,-1.05113839859383,-0.774265431793975,2.62707785709764,0.0,-0.0011344542745508,0.0,2219615.25632142,1.0E-16,987.5244140625,-2.57930966715343,-3.63088879021525,3.05494755779928
4020.0,6818886.48762975,-2185902.55795957,-4776670.41469741,3838333.08558037,6042500.51520829,-4779890.14754167,-4481.87722372709,4337.65247931587,1415.47111504817,-2.39896424784331,-3.77657237669556,2.98743890040412,7708504.69121333,1.31646239020385,0.107044511426851,-0.499829563888531,-0.376115597751965,-1.11184005836873,-0.806282392216536,2.71247081523799,0.0,-0.0011344542745508,0.0,2236132.28453317,1.0E-16,984.853759765625,-2.39896424784331,-3.77657237669556,2.98743890040412
4080.0,6986592.25298117,-1888020.34940673,-4686609.88688965,3565211.22986664,6295877.6364097,-4689626.64344095,-4620.36555613122,4106.8658594578,1592.60079607412,-2.21705717733281,-3.91514549950899,2.91628454486857,7708504.69121333,1.32083765961666,0.0921356168787559,-0.526189358459887,-0.374697541740855,-1.1783625975918,-0.834415591626843,2.80338703575515,0.0,-0.0011344542745508,0.0,2250341.94344062,1.0E-16,982.308410644531,-2.21705717733281,-3.91514549950899,2.91628454486857
4140.0,7141411.72863225,-1587358.61778114,-4586058.55359371,3284108.42461677,6535162.31274287,-4588865.58070148,-4747.89365819948,3867.973622121,1765.35420507838,-2.03362810067992,-4.04678774369307,2.84157670471747,7708504.69121334,1.32521292902947,0.0767255968832721,-0.552735984495667,-0.371709723540063,-1.25048136243546,-0.858186313691748,2.89965566210651,0.0,-0.0011344542745508,0.0,2262225.48421741,1.0E-16,979.882934570312,-2.03362810067992,-4.04678774369307,2.84157670471747
4200.0,7283090.57376575,-1284485.84659207,-4475284.8457965,2995685.00864734,6759880.58490261,-4477875.88635606,-4864.37089285304,3621.38678495942,1933.52035847134,-1.84869667256228,-4.17165646860538,2.76338607943005,7708504.69121334,1.32958819844228,0.0607722749997225,-0.579408537084427,-0.367103270171084,-1.32766428321162,-0.877130650596873,3.00079651584355,0.0,-0.0011344542745508,0.0,2271767.75231967,1.0E-16,977.571411132812,-1.84869667256228,-4.17165646860538,2.76338607943005
4260.0,7411387.91059928,-979965.167294388,-4354569.73345474,2700606.73449403,6969582.88528968,-4356939.03155532,-4969.70726469681,3367.50762170943,2096.89189951995,-1.66226502861417,-4.2898855824765,2.68176306140901,7708504.69121335,1.33396346785509,0.0442288589694735,-0.606144746058082,-0.360826902917036,-1.40903226039779,-0.890833208010293,3.10598090373245,0.0,-0.0011344542745508,0.0,2278957.10242828,1.0E-16,975.368713378906,-1.66226502861417,-4.2898855824765,2.68176306140901
4320.0,7526075.9183872,-674354.877523086,-4224206.54376103,2399544.76001955,7163843.5562834,-4226348.84980878,-5063.81243986002,3106.73110386133,2255.26391480763,-1.47432013281042,-4.40158440022046,2.59673889038123,7708504.69121335,1.33833873726791,0.0270441388064597,-0.632880961828665,-0.352826823620741,-1.49336613008343,-0.898964784294516,-3.0691463252201,0.0,-0.0011344542745508,0.0,2283785.32893317,1.0E-16,973.269287109375,-1.47432013281042,-4.40158440022046,2.59673889038123
4380.0,7626939.51739488,-368208.980663428,-4084500.84832794,2093175.69466949,7342260.45703411,-4086411.42418999,-5146.59490354884,2839.44640911647,2408.43281849974,-1.28483602450081,-4.50683655485249,2.50832676019582,7708504.69121335,1.34271400668071,0.0091627592502969,-0.659552136453451,-0.343046708080789,-1.57917482047738,-0.901317468987356,-2.95965701198506,0.0,-0.0011344542745508,0.0,2286247.61179662,1.0E-16,971.268432617187,-1.28483602450081,-4.50683655485249,2.50832676019582
4440.0,7713776.14402568,-62077.7408975479,-3935770.41530959,1782181.69227975,7504454.66270217,-3937445.03951882,-5217.96125002273,2566.03849419908,2556.19530176185,-1.09377598967071,-4.60569893697886,2.41652288514122,7708504.69121333,1.34708927609353,-0.009474405860068,-0.686091807363223,-0.331427834379734,-1.66482213993809,-0.897829261427059,-2.85032437043677,0.0,-0.0011344542745508,0.0,2286342.47762978,1.0E-16,969.36083984375,-1.09377598967071,-4.60569893697886,2.41652288514122
4500.0,7786395.61849667,243491.75178749,-3778345.22262533,1467250.58261104,7650070.25996774,-3779780.19567976,-5277.81560120728,2286.88973100846,2698.34734516548,-0.901094681875485,-4.69820064065917,2.32130753488901,7708504.69121329,1.35146454550634,-0.0289297436251167,-0.712432092787776,-0.317909379660789,-1.74868810198824,-0.888591785372196,-2.74272006639738,0.0,-0.0011344542745508,0.0,2284071.77582044,1.0E-16,967.542053222656,-0.901094681875485,-4.69820064065917,2.32130753488901
4560.0,7844620.1067174,547955.011901605,-3612567.5285621,1149076.03396747,7778774.24261173,-3613759.67834692,-5326.05915170833,2002.38160628871,2834.68329251954,-0.70674021913229,-4.78434189756988,2.22264604905912,7708504.6912133,1.35583981491915,-0.0492682163977404,-0.738503709827977,-0.302428925029473,-1.82932628600177,-0.873838949221745,-2.63824179637968,0.0,-0.0011344542745508,0.0,2279440.66955691,1.0E-16,965.807250976562,-0.70674021913229,-4.78434189756988,2.22264604905912
4620.0,7888284.17832172,850769.589196593,-3438791.99610499,828357.739342105,7890256.51100918,-3439738.68345948,-5362.58983959442,1712.89648597267,2964.99498528069,-0.51065628389883,-4.86409298489871,2.12048984424716,7708504.69121328,1.36021508433196,-0.0705564537926505,-0.764236028372626,-0.2849232144839,-1.90558044268645,-0.853919690649254,-2.53799630838968,0.0,-0.0011344542745508,0.0,2272457.64160219,1.0E-16,964.151794433593,-0.51065628389883,-4.86409298489871,2.12048984424716
4680.0,7917234.96312344,1151394.50494529,-3257385.86737202,505801.618521184,7984229.9794701,-3258084.99181798,-5387.30214396873,1418.81944612656,3089.07095752207,-0.312784254158737,-4.93739309585816,2.01477742821591,7708504.69121327,1.36459035374478,-0.0928615700792041,-0.789557176622329,-0.26532921938241,-1.9766402720082,-0.829261763809057,-2.4427432387515,0.0,-0.0011344542745508,0.0,2263134.5146814,1.0E-16,962.571655273437,-0.312784254158737,-4.93739309585816,2.01477742821591
4740.0,7931332.40860664,1449289.69890094,-3068729.18450287,182120.028466537,8060430.79549628,-3069179.19014522,-5400.08701206112,1120.54017298438,3206.69569237902,-0.113065394585318,-5.00414916521875,1.9054354378743,7708504.69121326,1.36896562315758,-0.116249650663918,-0.814394216785198,-0.24358556387325,-2.04203779789148,-0.800334398101638,-2.35289833479098,0.0,-0.0011344542745508,0.0,2251486.48635196,1.0E-16,961.062133789062,-0.113065394585318,-5.00414916521875,1.9054354378743
4800.0,7930449.64141134,1743915.49224011,-2873215.05326528,-141968.025921172,8118618.67518304,-2873414.93486961,-5400.83192033951,818.454934907526,3317.64894194814,0.0885568622260453,-5.06423464592778,1.7923797196898,7708504.69121324,1.37334089257039,-0.140783850666262,-0.838673412386019,-0.21963436739929,-2.10160114533409,-0.767615896979857,-2.26857925152094,0.0,-0.0011344542745508,0.0,2237532.17822922,1.0E-16,959.618408203125,0.0885568622260453,-5.06423464592778,1.7923797196898
4860.0,7914473.43612561,2034732.07204747,-2671249.94548957,-465736.688880017,8158577.35917042,-2671199.25473511,-5389.42107597106,512.968629225161,3421.70511379845,0.292134513392118,-5.11748823680758,1.67551647333599,7708504.69121324,1.37771616198321,-0.166522053233746,-0.86232061129478,-0.193423555769388,-2.15538733835631,-0.731569320368948,-2.1896722971571,0.0,-0.0011344542745508,0.0,2221293.69943778,1.0E-16,958.236633300781,0.292134513392118,-5.11748823680758,1.67551647333599
4920.0,7883304.79503666,2321199.00325294,-2463254.03621384,-788453.06736338,8180115.1937226,-2462952.8881138,-5365.73576686086,204.496906784378,3518.63272857031,0.497712430074829,-5.16371256563749,1.55474348169157,7708504.69121327,1.38209143139601,-0.193514047835693,-0.885261770583428,-0.164909679737787,-2.20361225389039,-0.692626738016504,-2.11590198491935,0.0,-0.0011344542745508,0.0,2202796.72414818,1.0E-16,956.911743164062,0.497712430074829,-5.16371256563749,1.55474348169157
4980.0,7836859.64281411,2602774.77439146,-2249661.57111108,-1109377.07032592,8183065.84167386,-2249110.65058538,-5329.65487045822,-106.531623361247,3608.19395459843,0.705325615259632,-5.20267283674163,1.429951452796,7708504.69121328,1.38646670080883,-0.221798212313694,-0.90742365001925,-0.134061256547206,-2.24658896637252,-0.651180866937799,-2.04689214805531,0.0,-0.0011344542745508,0.0,2182070.58303966,1.0E-16,955.639404296875,0.705325615259632,-5.20267283674163,1.429951452796
5040.0,7775069.64038474,2878916.38411633,-2030921.25936633,-1427761.28360124,8167289.12810529,-2030121.82794398,-5281.05553354714,-419.673107403308,3690.14422711087,0.914996240725298,-5.234095457669,1.30102550203477,7708504.69121328,1.39084197022164,-0.251397719944067,-0.928734699550246,-0.100862612464877,-2.28467924016125,-0.607582233804771,-1.98221385160384,0.0,-0.0011344542745508,0.0,2159148.36849816,1.0E-16,954.416625976562,0.914996240725298,-5.234095457669,1.30102550203477
5100.0,7697883.12249674,3149078.9760621,-1807496.68666665,-1742850.89104855,8132672.0256901,-1806450.58928729,-5219.81403731803,-734.466077707818,3764.23196133643,1.12673042812943,-5.25766666580932,1.1678468056655,7708504.69121327,1.39521723963445,-0.282316346452005,-0.949126161507003,-0.0653181506946204,-2.31825853200576,-0.562140012688517,-1.92141972804042,0.0,-0.0011344542745508,0.0,2134067.05331378,1.0E-16,953.25390625,1.12673042812943,-5.25766666580932,1.1678468056655
5160.0,7605266.16364141,3412715.53042936,-1579866.7423499,-2053883.65356738,8079129.78464312,-1578576.41422486,-5145.80686414005,-1050.42900202095,3830.19837080851,1.34051473861487,-5.27303118299109,1.03029445977759,7708504.69121327,1.39959250904726,-0.314534022234762,-0.968533399337691,-0.0274568987460261,-2.34769260544873,-0.515125027537761,-1.86406662275879,0.0,-0.0011344542745508,0.0,2106867.62258083,1.0E-16,952.165161132812,1.34051473861487,-5.27303118299109,1.03029445977759
5220.0,7497203.77708285,3669276.62154745,-1348526.05401862,-2360089.9586281,8006607.2121073,-1346994.52750233,-5058.91198459349,-1367.05775367643,3887.77740429103,1.55631233528482,-5.27979093442113,0.888247581855574,7708504.69121325,1.40396777846008,-0.348002359124388,-0.986897450537814,0.0126628947480116,-2.37332311200125,-0.466773830466833,-1.80972918058805,0.0,-0.0011344542745508,0.0,2077595.2184232,1.0E-16,951.164489746093,1.55631233528482,-5.27979093442113,0.888247581855574
5280.0,7373701.25171665,3918210.25165993,-1113985.42205184,-2660692.95414422,7915080.10557495,-1112216.33346379,-4959.01038544672,-1683.82300799186,3936.69581707536,1.77405878350215,-5.2775038779079,0.741587695214024,7708504.69121325,1.40834304787288,-0.382640471126356,-1.00416678151447,0.0549494339375837,-2.39545958543149,-0.417293144033202,-1.75800691092627,0.0,-0.0011344542745508,0.0,2046299.29706525,1.0E-16,950.264892578125,1.77405878350215,-5.2775038779079,0.741587695214024
5340.0,7234785.63130606,4158961.772278,-876772.245429479,-2954908.78181521,7804556.8445418,-874769.841755403,-4845.98786132383,-2000.16757312103,3976.67339490409,1.99365745549016,-5.26568300032572,0.590201439579555,7708504.69121326,1.4127183172857,-0.418331491057343,-1.02029919678389,0.0992737231519227,-2.4143757386219,-0.366864244290208,-1.70852682351013,0.0,-0.0011344542745508,0.0,2013033.79764192,1.0E-16,949.479370117187,1.99365745549016,-5.26568300032572,0.590201439579555
5400.0,7080507.34029569,4390973.90564679,-637430.929110219,-3241946.92649268,7675080.1439855,-635200.074498216,-4719.73709474607,-2315.50366741584,4007.4233514589,2.21497450845792,-5.24379555087012,0.433983653861427,7708504.69121325,1.41709358669851,-0.45492024050155,-1.03526382579339,0.145467046211261,-2.43030846834968,-0.315647061590754,-1.66094320813666,0.0,-0.0011344542745508,0.0,1977857.32198502,1.0E-16,948.820922851562,2.21497450845792,-5.24379555087012,0.433983653861427
5460.0,6910941.95984201,4613686.88016064,-396523.261864305,-3521010.69965652,7526728.9724039,-394069.443817913,-4580.16005095466,-2629.21015994481,4028.65292318451,2.43783340981216,-5.21126259494677,0.272840879472226,7708504.69121327,1.42146885611132,-0.492212516312853,-1.0490430810426,0.193320042115302,-2.44345843333723,-0.263783905083162,-1.6149356685051,0.0,-0.0011344542745508,0.0,1940833.32443587,1.0E-16,948.302001953125,2.43783340981216,-5.21126259494677,0.272840879472226
5520.0,6726192.1568758,4826538.69494047,-154628.75194961,-3791297.87671641,7359620.63598891,-151958.087104298,-4427.17071532964,-2940.62979631892,4040.06418817509,2.66200898939406,-5.16745898860902,0.106695334166966,7708504.69121326,1.42584412552413,-0.529976392105709,-1.06163445587136,0.242583777080488,-2.453991433328,-0.211402794672769,-1.57020615446749,0.0,-0.0011344542745508,0.0,1902030.31051016,1.0E-16,947.935424804687,2.66200898939406,-5.16745898860902,0.106695334166966
5580.0,6526389.76787923,5028965.53022351,87655.0936733698,-4052001.509554,7173913.02899307,90535.8543203244,-4260.69820216905,-3249.06643849696,4041.35513887032,2.88722100760662,-5.11171389132367,-0.0645105930782404,7708504.69121328,1.43021939493695,-0.567945786049909,-1.07305201506991,0.292973066138364,-2.46204008220825,-0.158620428083342,-1.52647546802436,0.0,-0.0011344542745508,0.0,1861522.04297842,2.0E-16,947.732971191406,2.88722100760662,-5.11171389132367,-0.0645105930782404
5640.0,6311698.03756003,5220402.32168735,329712.562765941,-4302310.93746015,6969807.04840118,332796.029320421,-4080.6902639162,-3553.78235488941,4032.2210413204,3.11312724037481,-5.04331195442218,-0.240809276555357,7708504.69121327,1.43459466434975,-0.605826321866755,-1.0833274318982,0.344172073531157,-2.46770545284809,-0.105544833314908,-1.48347953004933,0.0,-0.0011344542745508,0.0,1819387.75361815,2.0E-16,947.706909179687,3.11312724037481,-5.04331195442218,-0.240809276555357
5700.0,6082314.01067114,5400283.51830756,570909.622105411,-4541413.02135659,6747549.16858159,574187.762103989,-3887.11722941009,-3853.99560594585,4012.35611667833,3.33931609777061,-4.96149534367003,-0.42220217102473,7708504.69121329,1.43896993376255,-0.643303234742253,-1.09251044484867,0.395841946471819,-2.47105849512444,-0.0522777670350356,-1.44096556759412,0.0,-0.0011344542745508,0.0,1775712.3585406,2.0E-16,947.870361328125,3.33931609777061,-4.96149534367003,-0.42220217102473
5760.0,5838471.07279143,5568044.04477711,810593.913098522,-4768493.62786376,6507434.16858111,814058.048887279,-3679.97639813573,-4148.8775805791,3981.45558322468,3.5652988135733,-4.86546677656826,-0.608653470546387,7708504.69121328,1.44334520317537,-0.680050794217428,-1.10066864675667,0.44762995776005,-2.4721411091853,0.0010830770345208,-1.39868829867994,0.0,-0.0011344542745508,0.0,1730586.67458998,2.0E-16,948.234985351562,3.5652988135733,-4.86546677656826,-0.608653470546387
5820.0,5580441.63287559,5723120.49083983,1048094.88152977,-4982739.39131351,6249808.001069,1051735.68890539,-3459.29691447082,-4437.55075029459,3939.21809944528,3.790501268794,-4.75439377766174,-0.800083076827526,7708504.69121325,1.44772047258818,-0.715742488391991,-1.10788657352252,0.499179405658472,-2.47096680755209,0.0544419853134085,-1.35640613964675,0.0,-0.0011344542745508,0.0,1684107.63385604,3.0E-16,948.813537597656,3.790501268794,-4.75439377766174,-0.800083076827526
5880.0,5308539.93672301,5864952.55103348,1282724.06674079,-5183339.78311374,5975070.78754255,1286531.57508841,-3225.14514121986,-4719.08672076232,3885.34865023575,4.01425554405801,-4.62741437734247,-0.996358858188138,7708504.69121324,1.45209574200099,-0.750061088878641,-1.11426412165815,0.550139395213409,-2.46752093294636,0.107703203413345,-1.31387743030287,0.0,-0.0011344542745508,0.0,1636378.49282675,3.0E-16,949.619018554687,4.01425554405801,-4.62741437734247,-0.996358858188138
5940.0,5023124.99612998,5992984.73920682,1513775.57808426,-5369489.5188364,5683679.91920516,1517739.17227107,-2977.63054490796,-4992.5046747242,3819.56191891665,4.23579133444248,-4.48364450010717,-1.19728819868204,7708504.69121325,1.4564710114138,-0.782707723109685,-1.11991438279529,0.600173633070405,-2.46176042210433,0.160768913909947,-1.27085665866314,0.0,-0.0011344542745508,0.0,1587509.03213923,4.0E-16,950.664306640625,4.23579133444248,-4.48364450010717,-1.19728819868204
6000.0,4724603.61330345,6106668.40265507,1740526.78904351,-5540391.33388159,5376153.23684008,1744635.21335195,-2716.91209594459,-5256.77031541949,3741.58618706368,4.4542274065264,-4.32218730521365,-1.40260886161248,7708504.69121323,1.46084628082662,-0.813409217503845,-1.12496102927098,0.648967505438442,-2.45361312616171,0.213537149687853,-1.22709066733347,0.0,-0.0011344542745508,0.0,1537615.74226214,5.0E-16,951.963439941406,4.4542274065264,-4.32218730521365,-1.40260886161248
6060.0,4413433.47406952,6205464.06067052,1962239.2818669,-5695259.15840238,5053072.25597113,1966480.64627672,-2443.20517440154,-5510.79543586023,3651.16780178075,4.66856333140656,-4.14214475391709,-1.61197922373449,7708504.69121322,1.46522155023942,-0.841923208541702,-1.12953541099275,0.69623294305979,-2.44297672183023,0.265899579100451,-1.18231483764878,0.0,-0.0011344542745508,0.0,1486821.98976614,6.0E-16,953.530151367187,4.66856333140656,-4.14214475391709,-1.61197922373449
6120.0,4090126.27644976,6288844.09157612,2178160.07782058,-5833321.72116295,4715085.39558498,2182521.86697355,-2156.78895630764,-5753.4382558695,3548.07624549709,4.87767178928227,-3.942631680105,-1.8249679768916,7708504.69121325,1.46959681965224,-0.868040796181043,-1.13377352757208,0.741710855014698,-2.42971728144226,0.317739098505279,-1.1362492782616,0.0,-0.0011344542745508,0.0,1435258.15811585,7.0E-16,955.379272460937,4.87767178928227,-3.942631680105,-1.8249679768916
6180.0,3755250.85328953,6356295.79071208,2387523.1900663,-5953826.60992416,4362911.1596804,2391992.27527085,-1858.01423558528,-5983.50468519141,3432.10983612026,5.08029181038058,-3.72279263171634,-2.04104344360591,7708504.69121325,1.47397208906505,-0.89158677926526,-1.13781302344174,0.785171178887408,-2.41366762242538,0.368927168176229,-1.08859509777316,0.0,-0.0011344542745508,0.0,1383061.75615735,9.0E-16,957.525756835937,5.08029181038058,-3.72279263171634,-2.04104344360591
6240.0,3409436.23881769,6407324.81917433,2589551.53754531,-6056044.81255741,3997341.21094249,2594114.19219957,-1547.31161263724,-6199.75068634913,3303.10207484447,5.27502339219131,-3.48182172472855,-2.2595627128607,7708504.69121325,1.47834735847786,-0.912417721489471,-1.14179032298418,0.826410804048394,-2.39462563881944,0.419320831310121,-1.03903092545523,0.0,-0.0011344542745508,0.0,1330377.48669206,1.1E-15,959.98388671875,5.27502339219131,-3.48182172472855,-2.2595627128607
6300.0,3053374.61935499,6441459.05914108,2783459.25887922,-6139275.75810885,3619243.26500849,2788101.17770859,-1225.19995183728,-6400.88592415791,3160.92864449467,5.46032401191097,-3.21898570507614,-2.47976087214709,7708504.69121327,1.48272262789067,-0.930418225391979,-1.14583798471084,0.86524975382411,-2.37235294334099,0.468759366461097,-0.987209973371337,0.0,-0.0011344542745508,0.0,1277357.26674088,1.3E-15,962.771118164062,5.46032401191097,-3.21898570507614,-2.47976087214709
6360.0,2687824.09800229,6458252.88613319,2968454.46493306,-6202852.87018995,3229563.72226484,2973160.78745124,-892.294976660661,-6585.57889849568,3005.51504238538,5.63450763209031,-2.93365034158323,-2.70074069124464,7708504.69121329,1.48709789730349,-0.945495838177203,-1.15008231494208,0.901526058532085,-2.34657433603756,0.51706054706423,-0.932758124448295,0.0,-0.0011344542745508,0.0,1224160.19033595,1.6E-15,965.9267578125,5.63450763209031,-2.93365034158323,-2.70074069124464
6420.0,2313611.192238,6457291.86130147,3143742.46703987,-6246149.63607199,2829329.94215466,3148497.80564858,-549.317833046168,-6752.4637613878,2836.84480775659,5.79574687164364,-2.62531016970685,-2.92146320063829,7708504.6912133,1.49147316671629,-0.957574990270969,-1.15464124724399,0.935089728039671,-2.31697888451199,0.564016526670443,-0.875273803668336,0.0,-0.0011344542745508,0.0,1170952.42396309,2.0E-15,969.48974609375,5.79574687164364,-2.62531016970685,-2.92146320063829
6480.0,1931632.9722382,6438197.83760558,3308529.51464608,-6268586.18344847,2419652.05295308,3313317.98778656,-197.103409301253,-6900.14901666773,2654.96827451263,5.94207907675584,-2.29362146680614,-3.14073970010165,7708504.69121328,1.4958484361291,-0.96659029682902,-1.15962246687086,0.965796161101238,-2.28322376723359,0.609389448059921,-0.81433075954798,0.0,-0.0011344542745508,0.0,1117907.02415532,2.5E-15,973.495056152343,5.94207907675584,-2.29362146680614,-3.14073970010165
6540.0,1542858.73682795,6400634.46235726,3462027.07097063,-6269636.34277653,2001724.17838839,3466832.34172728,163.391844593234,-7027.22828816275,2460.01174504667,6.07141706807849,-1.93843816097164,-3.35722582634004,7708504.69121327,1.50022370554192,-0.972479456545878,-1.16512174038067,0.993499231808222,-2.24494249493601,0.652907005858066,-0.749485349695115,0.0,-0.0011344542745508,0.0,1065203.66625379,3.2E-15,977.975280761718,6.07141706807849,-1.93843816097164,-3.35722582634004
6600.0,1148331.11382786,6344313.04492598,3603456.64784463,-6248835.15627088,1576824.95199209,3608261.96837577,531.082902512795,-7132.29331807727,2252.18694052079,6.18156535134473,-1.55985015520668,-3.56941839630755,7708504.69121325,1.50459897495472,-0.975175880182749,-1.1712213986526,1.01804419019012,-2.20175964133937,0.694258395775625,-0.680290443262126,0.0,-0.0011344542745508,0.0,1013028.27306452,4.0E-15,982.958740234375,6.18156535134473,-1.55985015520668,-3.56941839630755
6660.0,749166.462852569,6268998.74241985,3732055.21089835,-6205786.77496468,1146317.18144381,3736843.47302887,904.75030328756,-7213.94931852271,2031.80053767199,6.27024254598263,-1.15822328786357,-3.77565581640475,7708504.69121328,1.50897424436754,-0.974601087230126,-1.17798891507608,1.03926041833327,-2.15331464995758,0.733091375978901,-0.606318491071361,0.0,-0.0011344542745508,0.0,961572.532109614,5.2E-15,988.468872070312,6.27024254598263,-1.15822328786357,-3.77565581640475
6720.0,346554.452174318,6174516.99795798,3847081.15342787,-6140172.66289363,711646.519376022,3851834.94568075,1283.03584102403,-7270.83274365756,1799.26355318294,6.33511069732401,-0.734239853686431,-3.97412289660417,7708504.69121326,1.51334951378035,-0.970656832486721,-1.18547551771834,1.05695400482193,-2.09929735222359,0.769011546286913,-0.527196384760685,0.0,-0.0011344542745508,0.0,911033.290475557,6.8E-15,994.521667480468,6.33511069732401,-0.734239853686431,-3.97412289660417
6780.0,-58243.3219758548,6060760.14601143,3947820.82143117,-6051760.00272617,274338.995181761,3952522.49269845,1664.44023386486,-7301.6314757974,1555.10028574653,6.37381197951651,-0.288938287894816,-4.16286092011599,7708504.69121326,1.51772478319316,-0.963216872197831,-1.19371477293116,1.07090004603816,-2.03949703769746,0.801585372417334,-0.442653933620864,0.0,-0.0011344542745508,0.0,861611.816974725,9.4E-15,1001.12371826171,6.37381197951651,-0.288938287894816,-4.16286092011599
6840.0,-463895.804305825,5927694.07768338,4033595.55341622,-5940410.17062739,-164002.734518578,4038227.28337217,2047.32322407218,-7305.10732507284,1299.95647581128,6.38401305675967,0.176249714824038,-4.33978377969283,7708504.69121327,1.52210005260597,-0.952118259878868,-1.20272107663832,1.08083456108569,-1.97386458034135,0.830348813782565,-0.352585452530299,0.0,-0.0011344542745508,0.0,813512.922542649,1.36E-14,1008.26879882812,6.38401305675967,0.176249714824038,-4.33978377969283
6900.0,-869006.161892736,5775364.83643902,4103769.17679627,-5806087.12067324,-601704.549766106,4108313.05303649,2429.90656898183,-7280.12062891925,1034.60629710777,6.36345704211122,0.659466689854889,-4.50270088704957,7708504.69121324,1.52647532201879,-0.937152088526598,-1.21248798761123,1.08644593138874,-1.90258263684348,0.854823402548998,-0.257119467657936,0.0,-0.0011344542745508,0.0,766943.931575218,2.09E-14,1015.935546875,6.36345704211122,0.659466689854889,-4.50270088704957
6960.0,-1272116.78982177,5603904.99265968,4157755.8783813,-5648865.49190595,-1037027.56185062,4162193.98013031,2810.28036660256,-7225.65660668833,759.957756723287,6.31002257397536,1.15840381302904,-4.64934737949039,7708504.69121323,1.53085059143159,-0.918053693202397,-1.2229863345349,1.08736587106743,-1.82613239174717,0.874540913865595,-0.156685006428067,0.0,-0.0011344542745508,0.0,722113.499341583,3.43E-14,1024.083984375,6.31002257397536,1.15840381302904,-4.64934737949039
7020.0,-1671715.73278615,5413539.62472619,4195028.3403055,-5468938.22564919,-1468176.42996776,4199342.82837348,3186.41311613406,-7140.852979866,477.056056677175,6.22178902727837,1.67028472898829,-4.77742187849502,7708504.69121318,1.53522586084441,-0.894492539643477,-1.23416202734122,1.08316014378633,-1.74533847359208,0.889076049138041,-0.0520560885460499,0.0,-0.0011344542745508,0.0,679230.273752672,5.87E-14,1032.65405273437,6.22178902727837,1.67028472898829,-4.77742187849502
7080.0,-2066244.58653848,5204591.71662263,4215126.0056705,-5266623.45878796,-1893309.35739462,4219299.21815963,3556.16583788871,-7025.02821604241,187.084465003489,6.09710630718299,2.19186135381623,-4.88463169547604,7708504.69121314,1.53960113025722,-0.866062423977065,-1.2459335076582,1.07331963936067,-1.66137042707822,0.898083867622637,0.0556472036308967,0.0,-0.0011344542745508,0.0,638501.403661517,1.034E-13,1041.56262207031,6.09710630718299,2.19186135381623,-4.88463169547604
7140.0,-2454107.90699359,4977486.76897241,4217663.31152187,-5042370.44240253,-2310549.78155692,4221677.86458822,3917.31046592184,-6877.70960372515,-108.637736427184,5.93466706892858,2.71942409950992,-4.9687449354988,7708504.69121315,1.54397639967003,-0.832273310972926,-1.25818879262635,1.05725312425454,-1.57568435780446,0.901335792481666,0.165017465026528,0.0,-0.0011344542745508,0.0,600130.900524246,1.827E-13,1050.70544433593,5.93466706892858,2.71942409950992,-4.9687449354988
7200.0,-2833684.11069683,4732756.41375081,4202337.70210665,-4796764.2265918,-2717999.72053605,4206176.59488011,4267.55257926601,-6698.66022653996,-408.660612053813,5.7335786125575,3.24882865416035,-5.02764843670036,7708504.69121319,1.54835166908284,-0.792547308064314,-1.27078211824237,1.03428414876961,-1.48990413621416,0.898746338870541,0.2744791372656,0.0,-0.0011344542745508,0.0,564317.865619186,3.188E-13,1059.95776367187,5.7335786125575,3.24882865416035,-5.02764843670036
7260.0,-3203337.79915154,4471040.82439933,4168937.21451923,-4530528.85365063,-3113754.67912689,4172583.9370798,4604.55835624637,-6487.90379247188,-711.412545228802,5.49343117281597,3.77554090733451,-5.05940993018407,7708504.69121319,1.55272693849566,-0.746223106626575,-1.28353030307311,1.00365642726646,-1.40566308919581,0.890383707545928,0.382447184696109,0.0,-0.0011344542745508,0.0,531254.601003903,5.418E-13,1069.18029785156,5.49343117281597,3.77554090733451,-5.05940993018407
7320.0,-3561433.38273994,4193089.72423659,4117347.4138074,-4244528.81486352,-3495919.95246934,4120786.05691917,4925.98542684534,-6245.74620072374,-1015.21301418183,5.21435892803274,4.29470082804289,-5.06234225367138,7708504.69121318,1.55710220790846,-0.692575861373937,-1.29620917831957,0.964554646845677,-1.32444337782723,0.876461306768169,0.48748808396057,0.0,-0.0011344542745508,0.0,501124.628815616,8.889E-13,1078.22680664062,5.21435892803274,4.29470082804289,-5.06234225367138
