time,gePosition_m_X,gePosition_m_Y,gePosition_m_Z,eiPosition_m_X,eiPosition_m_Y,eiPosition_m_Z,eiVelocity_m_s_X,eiVelocity_m_s_Y,eiVelocity_m_s_Z,eiAccel_m_s2_X,eiAccel_m_s2_Y,eiAccel_m_s2_Z,semiMajorAxis_m,gast_rad,eulerAngle_rad_Roll,eulerAngle_rad_Pitch,eulerAngle_rad_Yaw,eulerAngleWrtEi_rad_Roll,eulerAngleWrtEi_rad_Pitch,eulerAngleWrtEi_rad_Yaw,bodyAngularRateWrtEi_rad_s_Roll,bodyAngularRateWrtEi_rad_s_Pitch,bodyAngularRateWrtEi_rad_s_Yaw,altitudeMsl_m,airDensity_kg_m3,ambientTemperature_dgK,eiGravitation_m_s2_X,eiGravitation_m_s2_Y,eiGravitation_m_s2_Z
0.0,-1428622.3120664244,4163200.465251461,5136049.672040268,-4292653.410000001,955168.4699999995,5139356.569999999,109.6496629999967,-7527.726490000003,1484.521488999999,5.528986569357204,-1.230267887409868,-6.619549899945847,6758662.117228848,1.0233194459853856,2.2204460492503126E-16,1.1102230246251565E-16,-1.9428902930940242E-16,-2.4567339936908765,-0.19515786357858916,-1.5566219162554535,1.8465318250143747E-19,-0.0011344542745508244,5.353248226647178E-19,398252.76383814117,3.1125051777514152E-12,976.2183377126014,5.528986569357204,-1.230267887409868,-6.619549899945847
60.0,-1789712.649668018,3920255.3130157697,5213136.6039790725,-4276130.763606013,501640.15063871763,5216447.947709816,440.89950442597524,-7584.04304560346,1084.18939672288,5.508416690933194,-0.646201702281513,-6.719712406156071,6758662.117228416,1.027694715234372,1.322797427155659E-11,2.890082570293355E-6,4.7374187906099805E-12,-2.4640380834881315,-0.14227385514309998,-1.5131454542640237,1.8465318250143747E-19,-0.0011344542745508244,5.473806444725764E-19,398335.1614681173,3.1985551106567464E-12,983.0791797564875,5.508416690933194,-0.646201702281513,-6.719712406156071
120.0,-2144732.034176997,3662345.3121022144,5266057.240880695,-4239785.464850824,45786.44926634257,5269357.6801008005,770.149856360684,-7605.207758893307,678.7772426994801,5.462360218417851,-0.058989324127011654,-6.788817501974695,6758662.117228213,1.0320699844833425,2.2607749007794164E-11,1.1882200825515769E-5,-1.197085486377554E-11,-2.4689839374734586,-0.08912857193531724,-1.4703247360163265,1.8465318250143747E-19,-0.0011344542745508244,5.594364662804351E-19,398280.4831681584,3.3078229123364998E-12,990.9653252375695,5.462360218417851,-0.058989324127011654,-6.788817501974695
180.0,-2492166.123760429,3390599.0023344574,5294562.856727449,-4183783.257641789,-410279.4807892682,5297837.089568534,1095.876880429726,-7591.112907314555,270.1592543318481,5.391015098226159,0.5286657408429035,-6.8265294779885135,6758662.117229166,1.0364452537322815,2.6867286183739636E-11,2.7437839845699145E-5,-4.8116330382612294E-11,-2.4716334478277435,-0.03582228881699436,-1.427909705443836,1.8465318250143747E-19,-0.0011344542745508244,5.714922880882937E-19,398085.37867526367,3.4371444970855683E-12,999.5338718180095,5.391015098226159,0.5286657408429035,-6.8265294779885135
240.0,-2830524.933547796,3106195.8515929803,5298517.626973387,-4108380.8902649586,-864442.894077492,5301750.470799388,1416.572094002346,-7541.81319429631,-139.7744838477741,5.2946950956718695,1.1140548245187933,-6.832655726428315,6758662.117229581,1.0408205229812044,1.940148044647252E-11,4.998832416393468E-5,-8.604693704432062E-11,-2.472019707186878,0.017548129367901184,-1.3856566248864493,1.8465318250143747E-19,-0.0011344542745508244,5.835481098961523E-19,397748.7681048412,3.5867474726208444E-12,1008.6977258441909,5.2946950956718695,1.1140548245187933,-6.832655726428315
300.0,-3158349.2713370714,2810361.1253383984,5277899.32207647,-4013924.9861694295,-1314597.2005746518,5281075.783795382,1730.7492878994829,-7457.5256937728145,-549.1266557874308,5.173828662827813,1.6944762794127728,-6.807147954910256,6758662.117229129,1.0451957922300796,-1.4353240863963436E-11,7.993281721201723E-5,-7.084483716763126E-11,-2.4701475360171337,0.07088717083951607,-1.3433242893739303,1.8465318250143747E-19,-0.0011344542745508244,5.956039317040109E-19,397271.88371458533,3.756369397621718E-12,1018.3373329768925,5.173828662827813,1.6944762794127728,-6.807147954910256
360.0,-3474217.0881771003,2504360.597409051,5232799.482004913,-3900850.502031417,-1758653.6879498337,5235904.827550762,2036.9513609443284,-7338.62906255866,-956.0013936454338,5.028957298821003,2.2672476926526826,-6.750102774954142,6758662.117229038,1.049571061478955,-3.7882974797226684E-11,1.1763638268973562E-4,-7.378123163517401E-11,-2.4659935604073593,0.12409866221685792,-1.3006702536636505,1.8465318250143747E-19,-0.0011344542745508244,6.076597535118696E-19,396658.27181647846,3.945309902270677E-12,1028.3119930956434,5.028957298821003,2.2672476926526826,-6.750102774954142
420.0,-3776749.716212559,2189495.1242729696,5163423.069595954,-3769678.7790018376,-2194551.1745927096,5166442.892261505,2333.757040930062,-7185.662020197304,-1358.5129738361163,4.860733403791655,2.8297180810449625,-6.661761655948571,6758662.117228837,1.0539463307277828,-7.023148823036078E-11,1.6342836619556247E-4,-9.624402792249825E-11,-2.459505837095791,0.17708373321853385,-1.2574470530727466,1.8465318250143747E-19,-0.0011344542745508244,6.197155753197282E-19,395913.75463407795,4.1525408326808975E-12,1038.4745213487456,4.860733403791655,2.8297180810449625,-6.661761655948571
480.0,-4064617.9662817046,1867095.1053858288,5070087.602939817,-3621015.194859766,-2620265.549513549,5073007.89024489,2619.7874617093526,-6999.32109896124,-1754.7944910937745,4.669917629713826,3.3792800156087157,-6.542510237449979,6758662.117229824,1.0583215999766105,-9.167866683036358E-11,2.1760077823057447E-4,-1.3288923054611617E-10,-2.4506030425701217,0.2297386973159619,-1.2133984022652733,1.8465318250143747E-19,-0.0011344542745508244,6.317713971275868E-19,395046.35253506276,4.3768301012046295E-12,1048.6850097064619,4.669917629713826,3.3792800156087157,-6.542510237449979
540.0,-4336548.058000591,1538514.852691441,4953221.76924853,-3455546.4266102454,-3033819.1554874526,4956028.968034485,2893.7125663675765,-6780.457669808108,-2143.006471899187,4.45737573340128,3.9133816229646614,-6.392876995092491,6758662.117231176,1.0626968692254064,-1.3370510780166677E-10,2.804069985300753E-4,-1.8928220846554777E-10,-2.4391732698584945,0.2819527842830186,-1.1682553760037946,1.8465318250143747E-19,-0.0011344542745508244,6.438272189354454E-19,394066.16768562316,4.616835058236581E-12,1058.8204000252813,4.45737573340128,3.9133816229646614,-6.392876995092491
600.0,-4591327.35540469,1205126.8926114095,4813363.52501618,-3274037.334850839,-3433289.972249822,4816044.604464381,3154.2573068221577,-6530.074253283227,-2521.3453884090018,4.22407493918405,4.429538410072253,-6.213531257925427,6758662.117230244,1.0670721384741706,-1.3138013714021796E-10,3.520604557467482E-4,-2.1486622147510156E-10,-2.425072514404554,0.33360566044175266,-1.1217326119495923,1.8465318250143747E-19,-0.0011344542745508244,6.558830407433041E-19,392985.2308098149,4.87114102369336E-12,1068.77873909363,4.22407493918405,4.429538410072253,-6.213531257925427
660.0,-4827809.881704349,868316.2240876065,4651157.689593679,-3077327.4830001104,-3816820.5571928583,4653700.201874261,3400.207610713029,-6249.32012759492,-2888.05203397349,3.9710798210551816,4.925344858156136,-6.005280577706604,6758662.117230137,1.0714474077229348,-1.3183538829305554E-10,4.3273375048434175E-4,-1.5153765773294275E-10,-2.4081229917791163,0.3845646727857428,-1.0735246374006855,1.8465318250143747E-19,-0.0011344542745508244,6.679388625511627E-19,391817.3133446651,5.138245091752284E-12,1078.4789375388614,3.9710798210551816,4.925344858156136,-6.005280577706604
720.0,-5044921.587302642,529474.5563811462,4467353.041637097,-2866327.306205953,-4182626.70183838,4469745.179904348,3630.4160871024064,-5939.4862493361225,-3241.4197214492647,3.699547716454252,5.3984857312226735,-5.769067453547601,6758662.117229765,1.075822676973096,-1.022984059467469E-10,5.225576014908508E-4,-6.942808387993018E-11,-2.388111522338422,0.43468175950449084,-1.0233025179804862,1.8465318250143747E-19,-0.0011344542745508244,6.799946843590213E-19,390577.7078823018,5.416501707025165E-12,1087.8577812111077,3.699547716454252,5.3984857312226735,-5.769067453547601
780.0,-5241665.345969641,189994.55032830097,4262798.930211442,-2642013.946444673,-4529005.763397511,4265029.583673395,3843.8074433119414,-5601.999505631287,-3579.802265800923,3.4107236862917065,5.846747044374478,-5.50596541829206,6758662.117229529,1.0801979462217968,-9.00580339994179E-11,6.216203895461611E-4,-1.2657377593475889E-11,-2.3647883627406254,0.48378998240717674,-0.9707111739148883,1.8465318250143747E-19,-0.0011344542745508244,6.920505061668799E-19,389282.98037819006,5.704051465475651E-12,1096.8658971444174,3.4107236862917065,5.846747044374478,-5.50596541829206
840.0,-5417125.654894536,-148735.91315324485,4038441.414621239,-2405426.7719444023,-4854344.631943161,4040500.220423686,4039.3835861680495,-5238.4163197557245,-3901.6217129706215,3.105935038335633,6.268026637252894,-5.217174496179942,6758662.117229437,1.0845732154704657,-5.039658922839297E-11,7.299675907554957E-4,1.3377469365877202E-11,-2.3378670727929127,0.5316996662117657,-0.9153679221376121,1.8465318250143747E-19,-0.0011344542745508244,7.0410632797473855E-19,387950.69813497784,5.998751733609891E-12,1105.4638399706805,3.105935038335633,6.268026637252894,-5.217174496179942
900.0,-5570473.015367276,-485339.41390034603,3795318.9493022095,-2157662.6006446886,-5157127.295148941,3797196.340981266,4216.228382037445,-4850.415635554156,-4205.375777656374,2.786585433618129,6.660344298354459,-4.904016044586813,6758662.1172290165,1.0889484847191346,-6.13706528446876E-11,8.476016671563638E-4,2.8027701346914857E-11,-2.3070263056876366,0.5781941831036118,-0.8568631051816239,1.8465318250143747E-19,-0.0011344542745508244,7.161621497825972E-19,386599.1380803266,6.298122032663939E-12,1113.618877420368,2.786585433618129,6.660344298354459,-4.904016044586813
960.0,-5700967.9719210565,-818454.5992685179,3534557.6323246094,-1899870.648904749,-5435941.964163049,3536244.8845970826,4373.512051287453,-4439.791309213865,-4489.644953511514,2.454148598082435,7.021851386724097,-4.567926995984249,6758662.117228565,1.0933237539677718,-1.029775087871068E-10,9.744818049996248E-4,-1.8752341923483568E-11,-2.2719148055686524,0.6230255152241093,-0.7947640680047295,1.8465318250143747E-19,-0.0011344542745508244,7.282179715904558E-19,385246.9803014974,6.59931192463286E-12,1121.3026278464931,2.454148598082435,7.021851386724097,-4.567926995984249
1020.0,-5805227.82099313,-1150370.4260679914,3260968.641131189,-1628765.785258202,-5688712.68349593,3262454.3936506216,4958.619030385641,-3930.9432434815017,-4393.207071946512,24.512436575392798,11.225190970052163,13.781014615763523,6797433.149657242,1.0976990232163775,8.583285431925975E-4,0.0011105238278650723,0.07535942222044956,-2.2321613862026877,0.6659098786308729,-0.7286242358949402,1.8465318250143747E-19,-0.0011344542745508244,7.402737933983144E-19,383926.5020816687,6.896664284869739E-12,1128.4486304459228,2.1043692973334616,7.3498304181300895,-4.2150988939521925
1080.0,-5847406.439951278,-1527100.911428986,3022634.098802551,-1287373.820508009,-5904188.518405479,3023862.2237652205,6416.700965132896,-3248.8045325594226,-3556.7801805880767,24.071216502661773,11.502940361370065,14.089607074979348,7436917.335056637,1.1020742924649671,0.013724381807605717,0.0012554821955997036,0.2929199657773062,-2.1873921736343376,0.7065239220251887,-0.6579995585769479,1.8465318250143747E-19,-0.0011344542745508244,7.52329615206173E-19,383413.809126538,7.083760532466771E-12,1134.5315922934774,1.663149224976536,7.627579807880945,-3.906506434864748
1140.0,-5832041.520064308,-1942052.996321427,2815181.9248916702,-884103.5597234775,-6082553.169316094,2816102.846246708,6792.208672357711,-2733.9728196000656,-3549.0610419815953,1.140330687997287,7.845372823197004,-3.6322537793378236,7708501.966040316,1.1064495617135248,0.03721948388335362,0.0014084721837641593,0.3355783308074342,-2.1372577590914474,0.7445023348056916,-0.5824749518716962,1.8465318250143747E-19,-0.0011344542745508244,7.643854370140317E-19,386466.6344173203,6.8315587328502E-12,1139.7955668884865,1.140330687997287,7.845372823197004,-3.6322537793378236
1200.0,-5792178.780863849,-2349815.0425145873,2596186.533783094,-474836.064462659,-6232362.262042828,2596794.4909568685,6844.741138639606,-2257.9985031347974,-3758.2768891599458,0.6104142606490454,8.011865751155552,-3.3382476772246035,7708501.966039948,1.110824830962067,0.060864994024089285,0.0015682015989572225,0.33227516765999227,-2.0814727731115803,0.7794380997380763,-0.5017032342667767,1.8465318250143747E-19,-0.0011344542745508244,7.764412588218903E-19,393414.83923996385,6.170032323708004E-12,1144.7197836648222,0.6104142606490454,8.011865751155552,-3.3382476772246035
1260.0,-5729157.698017975,-2747204.494860198,2365181.836790032,-63370.90813879973,-6353344.189570703,2365474.016612746,6865.469659504301,-1773.585421397609,-3949.2793320513583,0.08105771886613816,8.126561576963324,-3.025677451296586,7708501.96604037,1.115200100210593,0.08416275614039948,0.0017317711316047386,0.3273798775636052,-2.0198691991780278,0.8108870384331875,-0.41545786518825195,1.8465318250143747E-19,-0.0011344542745508244,7.884970806297489E-19,404185.70175248286,5.237251844230718E-12,1149.2041740203722,0.08105771886613816,8.126561576963324,-3.025677451296586
1320.0,-5643303.069105627,-3132655.9870145423,2123290.622846782,348387.7487027685,-6445086.109920077,2123265.679111592,6854.58083535591,-1283.8518123656334,-4121.053184486437,-0.44266811533235345,8.189249283467632,-2.6978618508312904,7708501.96603925,1.1195753694590873,0.1069811130995742,0.0018936056411941622,0.32092290468825263,-1.9524617924561762,0.8383785563765259,-0.3236978405863039,1.8465318250143747E-19,-0.0011344542745508244,8.005529024376075E-19,418719.83041923685,4.193796253151042E-12,1153.1095288370864,-0.44266811533235345,8.189249283467632,-2.6978618508312904
1380.0,-5535069.222494478,-3504696.6032861103,1871690.5317362573,758555.9459978358,-6507362.169655736,1871348.5766170633,6812.559083929853,-791.9043753880056,-4272.78692613605,-0.9559253274573661,8.200518822285492,-2.3582565140088487,7708501.966038784,1.123950638707566,0.12919376553872958,0.0020446000241475686,0.31294387041041805,-1.8795187820384407,0.8614343088905598,-0.22663791481032208,1.8465318250143747E-19,-0.0011344542745508244,8.126087242454662E-19,436934.44152686757,3.1817691831663786E-12,1156.307240456553,-0.9559253274573661,8.200518822285492,-2.3582565140088487
1440.0,-5405032.721520054,-3861957.5198526885,1611601.653450329,1165287.3094539028,-6540131.394125693,1610944.2353012236,6740.1694766239525,-300.79149086207974,-4403.878312823752,-1.4542127129138822,8.161714403224616,-2.0103673727196334,7708501.966040642,1.1283259079560126,0.15068113402126648,0.0021714053556684838,0.30349092232337177,-1.801624109211969,0.8795955142161789,-0.1248103937804037,1.8465318250143747E-19,-0.0011344542745508244,8.246645460533248E-19,458724.46063658834,2.297361388986032E-12,1158.7046501451127,-1.4542127129138822,8.161714403224616,-2.0103673727196334
1500.0,-5253883.478051675,-4203183.618372491,1344273.9447575207,1566789.2287517774,-6543532.869194481,1343304.0131303233,6638.434834312885,186.54005593537448,-4513.934861188137,-1.9334527552864988,8.074865095499206,-1.65766702866816,7708501.966040564,1.1327011772044275,0.17133159368387885,0.002255888054612532,0.2926199849475155,-1.7197112100466545,0.8924575917739742,-0.0190985003627435,1.8465318250143747E-19,-0.0011344542745508244,8.367203678611834E-19,483963.9494242282,1.5855966370020854E-12,1160.2545699385837,-1.9334527552864988,8.074865095499206,-1.65766702866816
1560.0,-5082414.567376039,-4527240.947399008,1070974.762705341,1961337.516364996,-6517878.462913526,1069696.6216742902,6508.60818152454,667.283620430226,-4602.769495168815,-2.390059021662936,7.942597381841957,-1.3035176453532042,7708501.966042447,1.1370764464528427,0.19104256024305777,0.0022747792615872347,0.28039394543265195,-1.6350472427078726,0.8997079300784312,0.08927979430601349,1.8465318250143747E-19,-0.0011344542745508244,8.48776189669042E-19,512507.81373809645,1.0504951981430347E-12,1160.9515723682855,-2.390059021662936,7.942597381841957,-1.3035176453532042
1620.0,-4891511.060554601,-4833121.986432988,792976.7915810767,2347289.3047949113,-6463643.400320503,791396.0426643483,6352.141782867519,1138.8055875849495,-4670.391835311877,-2.8209825712179306,7.7680349591441065,-0.9511032315984709,7708501.966043618,1.1414517157012258,0.20972141102365857,0.0021995221961123614,0.26688180821862767,-1.549155180247393,0.9011598840383861,0.19885005835830016,1.8465318250143747E-19,-0.0011344542745508244,8.608320114769007E-19,544193.7404691469,6.708434142672048E-13,1160.82151539545,-2.8209825712179306,7.7680349591441065,-0.9511032315984709
1680.0,-4682138.198711316,-5119948.7426165445,511546.606344895,2723094.0151727158,-6381455.05044851,509670.0824564023,6170.654029744886,1598.6720038930314,-4716.99576067311,-3.2237372937493918,7.554691288619151,-0.6033733845281208,7708501.966044029,1.1458269849495775,0.2272862281329181,0.001996315904293101,0.2521578492888416,-1.463679618308284,0.8967751251728105,0.30801596273439025,1.8465318250143747E-19,-0.0011344542745508244,8.728878333112433E-19,578844.3055637004,4.1474359669656346E-13,1159.9100775731056,-3.2237372937493918,7.554691288619151,-0.6033733845281208
1740.0,-4455329.227030307,-5386973.7770972345,227934.07461275012,3087302.305678954,-6272080.310757228,225769.76656370313,5965.895414154887,2044.668678523537,-4742.943971408839,-3.596405270637199,7.306360198667492,-0.2629996994225895,7708501.966044658,1.1502022541979289,0.24366635715151536,0.0016263458317579479,0.23630079763119566,-1.3802233836379376,0.8866684239425965,0.41522303945428707,1.8465318250143747E-19,-0.0011344542745508244,8.849436551768799E-19,616269.1932389789,2.4950473145954973E-13,1158.2735107145254,-3.596405270637199,7.306360198667492,-0.2629996994225895
1800.0,-4212173.186700952,-5633579.314156544,-56637.24602711156,3438572.979864804,-6136411.981382907,-59080.268926905934,5739.714731043426,2474.814783123021,-4748.750327279566,-3.937624201289925,7.027009305449966,0.06765477949938659,7708501.966044098,1.154577523446217,0.2588027779941937,0.001046184468264762,0.21939306495173436,-1.300194342226777,0.8710935261318696,0.5191122418939931,1.8465318250143747E-19,-0.0011344542745508244,8.969994770425164E-19,656267.4671924345,1.4699973968192162E-13,1155.972468298532,-3.937624201289925,7.027009305449966,0.06765477949938659
1860.0,-3953802.9332315503,-5859274.629558302,-340978.60525543406,3775677.8993158336,-5975454.511701999,-343690.2789665355,5494.02650628573,2887.370243179728,-4735.060736899036,-4.246559617883618,6.720680234003077,0.3865534345455983,7708501.966043719,1.1589527926945367,0.27264828991855583,2.0833986913526505E-4,0.2015200385692995,-1.2246974141202716,0.8504140034329654,0.6186283051364095,1.8465318250143747E-19,-0.0011344542745508244,9.090552989081529E-19,698629.8379576296,8.554999319797976E-14,1153.068458150724,-4.246559617883618,6.720680234003077,0.3865534345455983
1920.0,-3681383.612385233,-6063691.944612621,-623943.3871116155,4097504.9997492684,-5790309.47748512,-626912.7395376442,5230.7804706900115,3280.8374255686504,-4702.6333316524215,-4.52286500855941,6.391398698976547,0.6919922472940087,7708501.9660441745,1.163328061942793,0.28516751608943547,-9.38073319881647E-4,0.18276944566966694,-1.1544885491913572,0.825066375506711,0.7130661576426421,1.8465318250143747E-19,-0.0011344542745508244,9.211111207737894E-19,743140.8760642398,4.974817383713619E-14,1149.6220673010412,-4.52286500855941,6.391398698976547,0.6919922472940087
1980.0,-3396101.7835512464,-6246581.069483007,-904433.2441846502,4403059.553119055,-5582161.11173381,-907648.4833808488,4951.933707989756,3653.9577813999867,-4652.31858583017,-4.766633101659428,6.043096536166001,0.9825956822431262,7708501.966043563,1.1677033311910492,0.2963367363626051,-0.002446568485252991,0.16323079109086436,-1.0899862630673054,0.7955232032188709,0.8020597911579516,1.8465318250143747E-19,-0.0011344542745508244,9.33166942639426E-19,789581.1277636808,2.9333392960719234E-14,1145.692194328246,-4.766633101659428,6.043096536166001,0.9825956822431262
2040.0,-3099155.3373146965,-6407803.04443374,-1181403.0530897742,4691463.85015557,-5352262.169534061,-1184851.6557646908,4659.425911443552,4005.7042005177727,-4585.039950591917,-4.978341469956473,5.679546846723981,1.257303972073525,7708501.966043683,1.1720786004407024,0.30614355956623734,-0.004372455232915825,0.14299486507984074,-1.0313224916621975,0.7622618045242995,0.8855318366746546,1.8465318250143747E-19,-0.0011344542745508244,9.452227645050625E-19,837729.0981222056,1.7835076567304245E-14,1141.3357646386396,-4.978341469956473,5.679546846723981,1.257303972073525
2100.0,-2791744.311743514,-6547323.022696619,-1453864.7363145654,4961955.49829744,-5101920.360307513,-1457533.5355249846,4355.158001430715,4335.269878223648,-4501.7754635032325,-5.158795345423604,5.304312587347312,1.5153536184363368,7708501.966043508,1.176453869688895,0.31458644915566264,-0.006771969375007081,0.12215331357780443,-0.9784112569354243,0.7257412819257266,0.9636253605065737,1.8465318250143747E-19,-0.0011344542745508244,9.57278586370699E-19,887363.0747191006,1.135911191567904E-14,1136.6076278097503,-5.158795345423604,5.304312587347312,1.5153536184363368
2160.0,-2475062.672635811,-6665202.625278077,-1720890.0199357548,5213884.540128667,-4832485.532650557,-1724765.2910276612,4040.9741941750576,4642.054493394836,-4403.54068621539,-5.30907014753512,4.920708251655551,1.7562529142376662,7708501.966043309,1.180829138937088,0.32167411705542354,-0.009701390543848457,0.10079826046089779,-0.9310179709991596,0.6863880194346429,1.036635061020677,1.8465318250143747E-19,-0.0011344542745508244,9.693344082363355E-19,938262.7734878549,7.653893116296507E-15,1131.560491680707,-5.30907014753512,4.920708251655551,1.7562529142376662
2220.0,-2150291.0872775135,-6761591.978779486,-1981612.214661856,5446709.598604355,-4545337.749971323,-1985679.758665553,3718.6474749411445,4925.648459190743,-4291.37321736899,-5.430455774622078,4.531773759016681,1.9797541831050744,7708501.966043078,1.1852044081852489,0.32742480228376397,-0.01321617212791222,0.07902197013713783,-0.8888192359128494,0.6445882991925422,1.1049480171001702,1.8465318250143747E-19,-0.0011344542745508244,9.81390230101972E-19,990210.7959810931,5.4605647794566985E-15,1126.2448386509268,-5.430455774622078,4.531773759016681,1.9797541831050744
2280.0,-1818590.6911687714,-6836721.623626117,-2235227.1195314713,5659993.249145363,-4241876.3513044715,-2239472.343371167,3389.8683202838893,5185.815942677387,-4166.318931235868,-5.524404234448441,4.140259298134594,2.1858242496168927,7708501.966043838,1.1895796774333782,0.331865450655633,-0.017370103573314945,0.05691653828312488,-0.8514492125314471,0.6006861451914657,1.1689979246628799,1.8465318250143747E-19,-0.0011344542745508244,9.934460519676086E-19,1042993.894252498,4.093937918733433E-15,1120.7088150617835,-5.524404234448441,4.140259298134594,2.1858242496168927
2340.0,-1481097.8219225581,-6890894.454399047,-2480993.154044828,5853396.806791868,-3923510.052310707,-2485401.14706744,3056.2364332189927,5422.4772672014415,-4029.4200084131485,-5.592481733332948,3.7486196515219494,2.374614428813598,7708501.966043534,1.1939549466814758,0.3350308137928387,-0.022214524310834583,0.03457360009705196,-0.8185326704486454,0.5549845829172689,1.2292327197795339,1.8465318250143747E-19,-0.0011344542745508244,1.005501873833245E-18,1096404.0454214478,3.18803014376697E-15,1114.9981030448898,-5.592481733332948,3.7486196515219494,2.374614428813598
2400.0,-1138919.6749102266,-6924477.8274316825,-2718230.8263179585,6026674.700692441,-3591648.1073655747,-2722786.432779254,2719.2552007212016,5635.6912195201785,-3881.7047548189666,-5.636325928620054,3.359016432676849,2.5464310803776016,7708501.966043443,1.1983302159295892,0.3369624849554187,-0.02779760403801516,0.012084047232124808,-0.7897068134899223,0.5077488684112464,1.2860935065228387,1.8465318250143747E-19,-0.0011344542745508244,1.0175576956988816E-18,1150239.3427623073,2.549040324614947E-15,1109.1557888114094,-5.636325928620054,3.359016432676849,2.5464310803776016
2460.0,-793130.8206310235,-6937895.944853513,-2946321.6429037615,6179668.589707468,-3247692.525151023,-2951009.5301699517,2380.3285516716055,5825.637689374243,-3724.1791498150214,-5.657608692989662,2.97332667532609,2.7017075314997108,7708501.966042786,1.2027054851776549,0.33770788959879666,-0.03416370125644502,-0.010462252624400772,-0.7646345517178069,0.45921066083556056,1.3400021329264709,1.8465318250143747E-19,-0.0011344542745508244,1.0296135175645181E-18,1204304.713803463,2.073825988930148E-15,1103.222239811522,-5.657608692989662,2.97332667532609,2.7017075314997108
2520.0,-444770.5138288233,-6931622.5997947715,-3164706.5610802285,6312301.353165119,-2893031.307275476,-3169511.2834087177,2040.7598815311321,5992.60097774613,-3557.820022901183,-5.6580044482356975,2.59315629746386,2.840977947174168,7708501.966042027,1.207080754425705,0.33731924876320807,-0.04135280896094022,-0.032976736726461585,-0.743011718808831,0.40957247723521506,1.391354932488317,1.8465318250143747E-19,-0.0011344542745508244,1.0416693394301546E-18,1258412.4785465945,1.706214850760578E-15,1097.234999677995,-5.6580044482356975,2.59315629746386,2.840977947174168
2580.0,-94840.7184446614,-6906174.345110639,-3372884.077466637,6424571.070817784,-2529032.661851556,-3377790.135320231,1701.7527136190688,6136.954025251948,-3383.5697298444134,-5.639163901391253,2.2198570978431653,2.964853526812757,7708501.966042835,1.211456023673723,0.3358525328752549,-0.04940009305304542,-0.05537242899488504,-0.7245702661226869,0.3590120426062107,1.4405206187685742,1.8465318250143747E-19,-0.0011344542745508244,1.0537251612957912E-18,1312382.7625803184,1.41422815896848E-15,1091.2287063631425,-5.639163901391253,2.2198570978431653,2.964853526812757
2640.0,255695.23002554607,-6862104.128166261,-3570408.0385228973,6516545.086646303,-2157040.131200704,-3575399.933447832,1364.4127820872193,6259.143736426873,-3202.3321816142434,-5.6026928531890885,1.8545461078578722,3.074001236555577,7708501.966043231,1.2158312929217412,0.3333664230600857,-0.0583355266944399,-0.07756421949056509,-0.7090789515755505,0.30768633640755166,1.4878408370318799,1.8465318250143747E-19,-0.0011344542745508244,1.0657809831614277E-18,1366043.7807354648,1.1784521786500648E-15,1085.2350361484744,-5.6026928531890885,1.8545461078578722,3.074001236555577
2700.0,605913.4030141933,-6799995.417121992,-3756885.2494135825,6588354.232937357,-1778368.5643149577,-3761947.5345738693,1029.7512449784053,6359.677510371399,-3014.9700712210915,-5.550135640657364,1.498126300144092,3.1691251489695147,7708501.966041931,1.2202065621697118,0.32992129653341756,-0.06818362088205963,-0.09946913684205769,-0.6963425952576494,0.25573525605143305,1.5336323256969278,1.8465318250143747E-19,-0.0011344542745508244,1.0778368050270642E-18,1419232.0071403855,9.861795031595817E-16,1079.2826744262056,-5.550135640657364,1.498126300144092,3.1691251489695147
2760.0,954929.5741239531,-6720456.829773142,-3931972.9483720656,6640187.274390532,-1394300.859772323,-3937090.2748820665,698.6887641222394,6439.111033672158,-2822.3031426102993,-5.48296271343155,1.1513078335789677,3.2509503549466814,7708501.96604203,1.2245818314176822,0.32557825081089214,-0.07896324870458475,-0.1210066066468616,-0.6862006275442339,0.20328489007984993,1.5781899905495649,1.8465318250143747E-19,-0.0011344542745508244,1.0898926268927007E-18,1471792.2472192324,8.284666817202779E-16,1073.3973131885423,-5.48296271343155,1.1513078335789677,3.2509503549466814
2820.0,1301899.103183083,-6624117.264227391,-4095376.2044823994,6672285.61713466,-1006085.4028182375,-4100533.363717333,372.06021957038274,6498.037347424921,-2625.107350368646,-5.40256181797993,0.8146291832793214,3.320209333857263,7708501.966041723,1.228957100665621,0.32039818062694236,-0.09068755951472064,-0.14209868778623552,-0.6785254028953289,0.1504504331233921,1.6217904508523322,1.8465318250143747E-19,-0.0011344542745508244,1.1019484487583373E-18,1523577.6264760375,6.986398977427427E-16,1067.6016747902186,-5.40256181797993,0.8146291832793214,3.320209333857263
2880.0,1646016.4762205733,-6511621.521365042,-4246845.28796688,6684938.3145533325,-614934.1206948597,-4252027.2500587925,50.61985786055872,6537.077165811768,-2424.114767577938,-5.310232266666602,0.48847765767398726,3.3776306137114362,7708501.966042312,1.2333323699135281,0.31444091901028676,-0.10336397607133505,-0.16267027910505544,-0.6732205795527233,0.09733879493370123,1.6646957925330206,1.8465318250143747E-19,-0.0011344542745508244,1.1140042706239738E-18,1574449.5099408387,5.915119891529702E-16,1061.9155615114512,-5.310232266666602,0.48847765767398726,3.3776306137114362
2940.0,1986514.5628710992,-6383626.401843015,-4386173.053846033,6678477.390696571,-222021.08246456334,-4391365.002591694,-264.9532958255918,6556.870397922193,-2220.0141103543697,-5.2071817915894325,0.17310893940720085,3.4239295192603096,7708501.966042114,1.2377076391614352,0.30776445180619266,-0.11699426725621886,-0.18264928777775208,-0.6702197486075301,0.04405096535634513,1.707157384730369,1.8465318250143747E-19,-0.0011344542745508244,1.1260600924896103E-18,1624277.3650018142,5.029483653683866E-16,1056.3559305051826,-5.2071817915894325,0.17310893940720085,3.4239295192603096
3000.0,2322663.646790571,-6240797.255140641,-4513192.372329871,6653273.492748297,171518.4269445602,-4518379.736748706,-574.0499025844182,6558.068806278608,-2013.451760328315,-5.094525519721571,-0.1313345985437032,3.459800788551464,7708501.966042794,1.2420829084093103,0.30042421274071446,-0.13157468723209687,-0.2019667528869473,-0.6694854207723667,-0.009315800879836997,1.7494196922073204,1.8465318250143747E-19,-0.0011344542745508244,1.1381159143552468E-18,1672938.5791159722,4.29606294629772E-16,1050.9369936730066,-5.094525519721571,-0.1313345985437032,3.459800788551464
3060.0,2653770.278665118,-6083804.954488098,-4627773.632586662,6609731.876356904,564588.4243638847,-4632942.115372298,-876.1247662720453,6541.329723529405,-1805.033179686651,-4.9732866506192455,-0.4248069553360873,3.485912833755103,7708501.966042068,1.246458177657154,0.29247246315971964,-0.14709617099716688,-0.2205569185343937,-0.6710084313016221,-0.06266591504736825,1.7917240643549257,1.8465318250143747E-19,-0.0011344542745508244,1.1501717362208833E-18,1720318.2426187482,3.6876347452290586E-16,1045.6703417512613,-4.9732866506192455,-0.4248069553360873,3.485912833755103
3120.0,2979175.9955445994,-5913323.269249257,-4729822.340612563,6548288.721513479,956132.3986319168,-4734957.943722129,-1170.691372347771,6507.310741937381,-1595.3246267491834,-4.844398466546698,-0.7073430208614148,3.5029034267183343,7708501.966043145,1.2508334469049975,0.2839577580306933,-0.16354457625996816,-0.2383572522773363,-0.6748077921580894,-0.11590343729370013,1.8343125090229209,1.8465318250143747E-19,-0.0011344542745508244,1.1622275580865199E-18,1766308.90562199,3.181954284634661E-16,1040.565091350828,-4.844398466546698,-0.7073430208614148,3.5029034267183343
3180.0,3298255.9446330136,-5730026.605122524,-4819276.826800748,6469407.771820953,1345133.1891925277,-4824365.874422568,-1457.3165791551235,6456.665287489515,-1384.8550929123405,-4.708707354169708,-0.9790445684807736,3.5113766009689744,7708501.966043276,1.2552087161527934,0.2749244977499037,-0.1809009606138831,-0.2553084075681453,-0.6809309976995124,-0.16893004872730133,1.877431469382915,1.8465318250143747E-19,-0.0011344542745508244,1.1742833799521564E-18,1810810.3167772496,2.7608214827697967E-16,1035.6280529071933,-4.708707354169708,-0.9790445684807736,3.5113766009689744
3240.0,3610417.4444584697,-5534588.082257969,-4896106.074428095,6373577.286373016,1730612.623477811,-4901135.233562002,-1735.6155139070854,6390.038990806229,-1174.1183938432455,-4.566976564640667,-1.2400676949180254,3.51190057735221,7708501.966042811,1.2595839854005895,0.2654125621645353,-0.19914188414331085,-0.2713541291868819,-0.6894547704033267,-0.22164294910498156,1.921335621352246,1.8465318250143747E-19,-0.0011344542745508244,1.186339201817793E-18,1853729.1505962857,2.4093411361496575E-16,1030.8639165644704,-4.566976564640667,-1.2400676949180254,3.51190057735221
3300.0,3915098.5115565737,-5327677.921750488,-4960307.67658727,6261307.290764834,2111630.9583105445,-4965263.9754629675,-2005.2467106092026,6308.066769665721,-963.5753588445164,-4.419890483532761,-1.4906116476883329,3.505006538450226,7708501.966043057,1.2639592546483536,0.25545702207816107,-0.21823972743582368,-0.2864411036284078,-0.7004862077447617,-0.27393261649030054,1.9662916915338802,1.8465318250143747E-19,-0.0011344542745508244,1.1983950236834294E-18,1894978.728980593,2.1153236883985584E-16,1026.2754520687386,-4.419890483532761,-1.4906116476883329,3.505006538450226
3360.0,4211766.37646988,-5109962.111893118,-5011905.9260340845,6133127.111927421,2487286.1655717134,-5016776.770582612,-2265.907514681216,6211.370542262769,-753.6560722356363,-4.2680592226933,-1.7309089579768404,3.4911880959124044,7708501.966042683,1.268334523896086,0.24508792127744794,-0.2381630159676848,-0.3005187574436529,-0.7141642557879314,-0.3256803643973613,2.0125822625534466,1.8465318250143747E-19,-0.0011344542745508244,1.210450845549066E-18,1934478.7417085383,1.8687948588489485E-16,1021.8637179664445,-4.2680592226933,-1.7309089579768404,3.4911880959124044
3420.0,4499916.008999912,-4882101.326837303,-5050950.039919949,5989583.180291854,2856713.0976840206,-5055723.228501841,-2517.3297688707303,6100.557495723133,-544.7621293742487,-4.1120233822956855,-1.9612167826367244,3.4709013138710594,7708501.966042316,1.2727097931452471,0.23433012158163424,-0.2588767424887635,-0.3135390077342928,-0.7306613781078021,-0.37675563252368877,2.060509475445173,1.8465318250143747E-19,-0.0011344542745508244,1.2225066674147025E-18,1972154.9697992427,1.6615929098540659E-16,1017.6282749100815,-4.1120233822956855,-1.9612167826367244,3.4709013138710594
3480.0,4779068.669297471,-4644750.071806978,-5077512.519373211,5831237.082184577,3219082.5641117855,-5082176.255954756,-2759.275786923527,5976.218840409728,-337.26887759616784,-3.952258863021827,-2.1818093511717587,3.4445651699538433,7708501.966042078,1.2770850623929477,0.22320320183213668,-0.28034268061911694,-0.32545597005848254,-0.7501852018761259,-0.42701295206733847,2.1103984487746046,1.8465318250143747E-19,-0.0011344542745508244,1.234562489280339E-18,2007939.0149695908,1.4870378489412675E-16,1013.5673977682438,-3.952258863021827,-2.1818093511717587,3.4445651699538433
3540.0,5048770.498257771,-4398556.030819095,-5091687.6423122855,5658663.845154273,3573600.3460995364,-5096230.548268966,-2991.5346151054478,5838.9289869364475,-131.52761893998866,-3.7891816355686427,-2.392971410715233,3.4125623526234077,7708501.966042457,1.2814603316406326,0.2117214024049083,-0.3025196829543391,-0.33622563000494016,-0.7729797875438024,-0.4762885384267273,2.1626000955134677,1.8465318250143747E-19,-0.0011344542745508244,1.2466183111459755E-18,2041768.0377682801,1.3396601231502838E-16,1009.6782815345266,-3.7891816355686427,-2.392971410715233,3.4125623526234077
3600.0,5308591.158386432,-4144159.594402779,-5093590.086657667,5472450.439077645,3919506.173278999,-5098001.211371294,-3213.918576821799,5689.245089204795,72.13224288484342,-3.6231523977915256,-2.594992562832236,3.3752403093553047,7708501.966042156,1.2858356008883016,0.19989360600590889,-0.32536395922129224,-0.3458054846460063,-0.7993259709380461,-0.5243964903491851,2.2174928174059403,1.8465318250143747E-19,-0.0011344542745508244,1.258674133011612E-18,2073584.5064374895,1.2149785747668008E-16,1005.9572366689868,-3.6231523977915256,-2.594992562832236,3.3752403093553047
3660.0,5558122.53387918,-3882193.546816933,-5083353.680203445,5273194.476299563,4256072.68256616,-5087622.510607319,-3426.2600919928195,5527.7069030583925,273.4011241305321,-3.454481069149172,-2.788162389407104,3.3329124743761387,7708501.966042118,1.2902108701359387,0.18772334684615022,-0.3488293302909003,-0.3541541603246846,-0.8295399423530826,-0.571124623480937,2.275482269022288,1.8465318250143747E-19,-0.0011344542745508244,1.2707299548772486E-18,2103335.9581082184,1.1093191135746685E-16,1002.3998703942095,-3.454481069149172,-2.788162389407104,3.3329124743761387
3720.0,5796977.496966848,-3613282.8938810206,-5061130.272759128,5061503.094632583,4582604.376917414,-5065246.74197361,-3628.4087603217663,5354.83691616266,471.98726019977346,-3.283431088130155,-2.9727662701081887,3.285859617330415,7708501.966041809,1.29458613938356,0.1752088401087107,-0.3728674555969495,-0.36123101358350895,-0.8639688462510108,-0.6162300531894241,2.336997998531542,1.8465318250143747E-19,-0.0011344542745508244,1.282785776742885E-18,2130974.7735424647,1.019666942707762E-16,999.0012514620461,-3.283431088130155,-2.9727662701081887,3.285859617330415
3780.0,6024788.746023882,-3338044.8142710445,-5027088.725729641,4837992.007755428,4898436.599037998,-5031043.220919047,-3820.228695937194,5171.140710387677,667.6147881678602,-3.110223491412505,-3.149081800280009,3.234331265312226,7708501.966042378,1.2989614086311496,0.1623430257320992,-0.3974280315449237,-0.3669957222359525,-0.9029817076259565,-0.6594347823946425,2.4024852920230537,1.8465318250143747E-19,-0.0011344542745508244,1.2948415986085216E-18,2156457.966330125,9.435463470093004E-17,995.7560568913902,-3.110223491412505,-3.149081800280009,3.234331265312226
3840.0,6241207.719681649,-3057088.7187310862,-4981414.014039612,4603284.708324721,5202934.532955838,-4985197.38361043,-4001.5960999493063,4977.107523222998,860.0219158579765,-2.9350407640806266,-3.317375725088643,3.1785471603405684,7708501.966042337,1.3033366778787392,0.149113621273891,-0.42245896046813153,-0.37140787267422554,-0.9469534766731221,-0.7004217663047702,2.472390031537284,1.8465318250143747E-19,-0.0011344542745508244,1.3068974204741581E-18,2179746.9871797026,8.789230567746474E-17,992.6587000516972,-2.9350407640806266,-3.317375725088643,3.1785471603405684
3900.0,6445903.590206959,-2771016.403153432,-4924306.435171586,4358011.809944038,5495492.244528486,-4927909.995421609,-4172.397057074837,4773.210979602272,1048.95917866821,-2.758030458659168,-3.4779013129680876,3.118698722635698,7708501.966042872,1.307711947126297,0.13550318026076302,-0.4479064896924028,-0.3744265509163301,-0.9962395806726356,-0.7388322332633428,2.547133970706655,1.8465318250143747E-19,-0.0011344542745508244,1.3189532423397947E-18,2200807.5437408197,8.241250586009011E-17,989.703440182143,-2.758030458659168,-3.4779013129680876,3.118698722635698
3960.0,6638562.338598484,-2480422.2828704724,-4855980.920067358,4102810.514956761,5775531.770348987,-4859396.461385559,-4332.525542565785,4559.9099699025155,1234.1877837900304,-2.5793085874027115,-3.6308960986065233,3.054950497166261,7708501.966042922,1.312087216373823,0.12148915466606192,-0.4737153213305663,-0.37600994443794605,-1.0511383984009428,-0.7742654316835644,2.6270778572766376,1.8465318250143747E-19,-0.0011344542745508244,1.3310090642054312E-18,2219609.4362157313,7.777784552692408E-17,986.8844739606476,-2.5793085874027115,-3.6308960986065233,3.054950497166261
4020.0,6818885.913284081,-2185893.6967654885,-4776666.440702138,3838324.195850024,6042502.263208802,-4779886.233409948,-4481.881626104041,4337.649653862652,1415.4780402913802,-2.3989627974799683,-3.7765799326693523,2.9874415669564685,7708501.966042864,1.3164624856213492,0.10704396196674615,-0.4998286942522532,-0.3761149626020294,-1.1118400581146397,-0.8062823921014258,2.712470815391565,1.8465318250143747E-19,-0.0011344542745508244,1.3430648860710677E-18,2236126.408905389,7.387555927674744E-17,984.1960101046834,-2.3989627974799683,-3.7765799326693523,2.9874415669564685
4080.0,6986591.47383955,-1888011.2709601088,-4686605.509249967,3565202.0788330096,6295879.201143411,-4689622.309165914,-4620.369860026333,4106.8625737407165,1592.607872705441,-2.2170553427542603,-3.915153282082503,2.9162869217890557,7708501.96604326,1.3208377548688435,0.09213505952926487,-0.5261884401255371,-0.3746968846298183,-1.1783625972582836,-0.8344155915276821,2.803387035848957,1.8465318250143747E-19,-0.0011344542745508244,1.3551207079367042E-18,2250336.0177118266,7.061331888704909E-17,981.6323282033272,-2.2170553427542603,-3.915153282082503,2.9162869217890557
4140.0,7141410.720871951,-1587349.3328613755,-4586053.763930029,3284099.0188882295,6535163.666198557,-4588860.817731637,-4747.897840168612,3867.969863198502,1765.3614152175703,-2.03362586895494,-4.046795730883565,2.841578775274552,7708501.966043471,1.325213024116306,0.07672503276648458,-0.552735016040406,-0.3717090455754154,-1.2504813620669306,-0.8581863136254151,2.8996556621735134,1.8465318250143747E-19,-0.0011344542745508244,1.3671765298023407E-18,2262219.51356235,6.791586276286363E-17,979.1878230958358,-2.03362586895494,-4.046795730883565,2.841578775274552
4200.0,7283089.31304111,-1284476.3672459505,-4475279.636792813,2995675.356261675,6759881.698333495,-4477870.687242064,-4864.374928695954,3621.382541239543,1933.5276832360498,-1.8486940314246045,-4.171664637399359,2.763387826952665,7708501.966043158,1.3295882933637686,0.060771705595656936,-0.5794075170550403,-0.36710257277443176,-1.327664282850749,-0.8771306505586673,3.000796515898361,1.8465318250143747E-19,-0.0011344542745508244,1.3792323516679773E-18,2271761.7416600245,6.572229406088699E-17,976.8570361501486,-1.8486940314246045,-4.171664637399359,2.763387826952665
4260.0,7411386.372107322,-979955.5068523048,-4354564.098919772,2700596.84496291,6969583.729294796,-4356933.390011249,-4969.711129497622,3367.502883013197,2096.899319029267,-1.6622619664644003,-4.289893908787026,2.681764469266411,7708501.966042937,1.3339635626111994,0.044228286213263156,-0.6061436730077213,-0.3608261879227862,-1.4090322600922478,-0.8908332080049856,3.1059809038022848,1.8465318250143747E-19,-0.0011344542745508244,1.3912881735336138E-18,2278951.0564269884,6.398392905418187E-17,974.6346747807672,-1.6622619664644003,-4.289893908787026,2.681764469266411
4320.0,7526074.076938273,-674345.050613694,-4224200.4786871215,2399534.644369884,7163844.100895521,-4226342.760771199,-5063.81610802686,3106.7258614885595,2255.2714081831928,-1.4743166387253717,-4.401592858834668,2.5967399419639343,7708501.96604254,1.3383388318585985,0.027043565193096177,-0.6328798343079738,-0.35282609330536824,-1.4933661298097152,-0.8989647842906592,-3.0691463251193714,1.8465318250143747E-19,-0.0011344542745508244,1.4033439953992503E-18,2283779.251991439,6.266260167909164E-17,972.515621494289,-1.4743166387253717,-4.401592858834668,2.5967399419639343
4380.0,7626937.347485216,-368199.00322731875,-4084494.3489513434,2093165.3654829953,7342260.671810513,-4086404.8838783633,-5146.598348854808,2839.4406559147783,2408.4403638670565,-1.2848320882526878,-4.506845119368339,2.5083274389015644,7708501.966042046,1.3427141011059978,0.009162187873703534,-0.6595509529993112,-0.3430459653246528,-1.5791748201843172,-0.9013174689773558,-2.9596570119051946,1.8465318250143747E-19,-0.0011344542745508244,1.4153998172648868E-18,2286241.5080528627,6.172935042447616E-17,970.494933673504,-1.2848320882526878,-4.506845119368339,2.5083274389015644
4440.0,7713773.619912384,-62067.63019840585,-3935763.479169513,1782171.1637297117,7504454.516818668,-3937438.0454947264,-5217.964445649532,2566.032224637628,2556.202876249932,-1.0937716017571055,-4.605707579734451,2.4165231743662594,7708501.9660412725,1.347089370353365,-0.009474971123968948,-0.6860905665780602,-0.33142708280174576,-1.6648221395730942,-0.8978292614528631,-2.8503243703856,1.8465318250143747E-19,-0.0011344542745508244,1.4274556391305234E-18,2286336.3509589345,6.116343060852447E-17,968.5678352123651,-1.0937716017571055,-4.605707579734451,2.4165231743662594
4500.0,7786392.714278504,243501.97715260633,-3778337.8486238406,1467239.8704966295,7650069.722319824,-3779772.746906959,-5277.818519788653,2286.8829412561067,2698.354924907306,-0.9010898335596331,-4.698209332650898,2.321307418023475,7708501.966041135,1.3514646396007006,-0.028930298176634627,-0.7124307933618519,-0.31790862363387845,-1.7486881016055724,-0.8885917854363741,-2.742720066340628,1.8465318250143747E-19,-0.0011344542745508244,1.4395114609961599E-18,2284065.6298377495,6.095160936395095E-17,966.729700999208,-0.9010898335596331,-4.698209332650898,2.321307418023475
4560.0,7844616.79641646,547965.3319933617,-3612559.717023811,1149065.155745038,7778773.281917309,-3613751.775251181,-5326.061765378566,2002.3742942967835,2834.6908526515394,-0.7067349024967556,-4.784350608365346,2.2226455094912914,7708501.966041431,1.3558399088480522,-0.04926875469825502,-0.7385023505352948,-0.30242816984413523,-1.829326285643605,-0.8738389493146488,-2.6382417963020197,1.8465318250143747E-19,-0.0011344542745508244,1.4515672828617964E-18,2279434.507620708,6.108771295512143E-17,964.9760351159939,-0.7067349024967556,-4.784350608365346,2.2226455094912914
4620.0,7888280.435971472,850779.9827282869,-3438783.748836496,828346.714153653,7890255.095918788,-3439730.3279882087,-5362.592120038862,1712.8886515637798,2965.002499942396,-0.5106504919119726,-4.864101682540743,2.120488865373697,7708501.966041497,1.360215178095356,-0.07055696917724008,-0.7642346081181897,-0.28492246652949943,-1.905580442379153,-0.8539196907749951,-2.5379963082688293,1.8465318250143747E-19,-0.0011344542745508244,1.463623104727433E-18,2272451.466820447,6.15724069352384E-17,963.3024434853407,-0.5106504919119726,-4.864101682540743,2.120488865373697
4680.0,7917230.762861307,1151404.949277773,-3257377.1877216008,505790.4672196164,7984228.078682539,-3258076.187500064,-5387.304062479373,1418.8110910890452,3089.0783998575394,-0.3127779807560162,-4.93740174676221,2.014775993461044,7708501.96604188,1.3645904473426438,-0.09286205463067874,-0.7895556944252601,-0.26532848622926847,-1.976640271658921,-0.8292617639514164,-2.4427432386618344,1.8465318250143747E-19,-0.0011344542745508244,1.4756789265930694E-18,2263128.3299201466,6.241319963240305E-17,961.7046015467615,-0.3127779807560162,-4.93740174676221,2.014775993461044
4740.0,7931327.724769779,1449300.1700404424,-3068720.0774200917,182108.7736376186,8060428.377878211,-3069169.942150807,-5400.0885395977775,1120.5313011732328,3206.703034539466,-0.11305863476699846,-5.004157734066613,1.90543353072032,7708501.966041916,1.368965716589916,-0.11625009509034574,-0.8143926719545949,-0.24358485453751158,-2.0420377975541877,-0.8003343982598397,-2.352898334689902,1.8465318250143747E-19,-0.0011344542745508244,1.487734748458706E-18,2251480.294243807,6.362466899898507E-17,960.1782173990632,-0.11305863476699846,-5.004157734066613,1.90543353072032
4800.0,7930444.448643176,1743925.9648284912,-2873205.5253598653,-141979.35994094986,8118615.709898006,-2873405.2500691307,-5400.83302759578,818.4455523514911,3317.6561550965166,0.08856411228032095,-5.06424309555438,1.7923773237168172,7708501.966041236,1.373340985838585,-0.14078424412934626,-0.8386718044949727,-0.21963369244413244,-2.1016011450455756,-0.7676158971433631,-2.26857925139075,1.8465318250143747E-19,-0.0011344542745508244,1.4997905703243425E-18,2237525.981186264,6.522892242463072E-17,958.718990693098,0.08856411228032095,-5.06424309555438,1.7923773237168172
4860.0,7914467.709475009,2034742.5193987724,-2671240.0050909035,-465748.0759896996,8158573.815810633,-2671189.1417589495,-5389.421733450805,512.9587442412494,3421.7121681167514,0.29214225618968404,-5.117496528088089,1.6755135722774355,7708501.9660395775,1.3777162550858253,-0.1665223831587997,-0.8623189402805628,-0.1934229275096194,-2.1553873381756623,-0.7315693205327795,-2.189672296943476,1.8465318250143747E-19,-0.0011344542745508244,1.511846392189979E-18,2221287.4996628417,6.725630916655647E-17,957.3225674119321,0.29214225618968404,-5.117496528088089,1.6755135722774355
4920.0,7883298.510081753,2321209.3973274752,-2463243.693429256,-788464.4796885672,8180111.042452845,-2462942.35741075,-5365.735944960676,204.4865300987301,3518.6395932708215,0.49772066665591863,-5.163720657368398,1.554740059501194,7708501.96603997,1.3820915243330338,-0.19351429976971757,-0.8852600366835637,-0.1649091122944064,-2.2036122536976603,-0.6926267381834708,-2.1159019847270217,1.8465318250143747E-19,-0.0011344542745508244,1.5239022140556155E-18,2202790.523652128,6.974641606621269E-17,955.984490530404,0.49772066665591863,-5.163720657368398,1.554740059501194
4980.0,7836852.775778486,2602785.085817319,-2249650.8378831996,-1109388.4782150888,8183061.053377149,-2249099.7144800615,-5329.654539560511,-106.54247848505844,3608.200597939201,0.705334345021851,-5.202680685528586,1.429947493734527,7708501.966040673,1.3864667935802266,-0.22179836989566648,-0.9074218540252049,-0.13406076603975078,-2.246588966175149,-0.6511808670970446,-2.0468921478985584,1.8465318250143747E-19,-0.0011344542745508244,1.535958035921252E-18,2182064.3836547323,7.274938974278828E-17,954.7001464053352,0.705334345021851,-5.202680685528586,1.429947493734527
5040.0,7775062.168265039,2878926.5822046273,-2030910.149529692,-1427772.655628031,8167283.674538778,-2030110.5006936453,-5281.054664124226,-419.68442502950705,3690.1506164174875,0.9150054612249947,-5.2341030178152215,1.301020990773782,7708501.96603938,1.3908420628273876,-0.25139776476512415,-0.9287328428662472,-0.10086221710476372,-2.2846792400089186,-0.6075822339504097,-1.982213851434869,1.8465318250143747E-19,-0.0011344542745508244,1.5480138577868886E-18,2159142.1718950085,7.632821057736276E-17,953.4663056830623,0.9150054612249947,-5.2341030178152215,1.301020990773782
5100.0,7697875.02320105,3149089.0288272747,-1807485.2160026927,-1742862.1940205942,8132665.879652537,-1806438.8871368805,-5219.812600050323,-734.4778390869647,3764.2380630300454,1.1267401348570054,-5.257673889206173,1.1678417274105468,7708501.966039839,1.3952173320745327,-0.2823162580548344,-0.9491242461581365,-0.06531787074677618,-2.318258531891548,-0.5621400128303171,-1.9214197278467429,1.8465318250143747E-19,-0.0011344542745508244,1.5600696796525251E-18,2134060.861023022,8.056507917953096E-17,952.2918169246004,1.1267401348570054,-5.257673889206173,1.1678417274105468
5160.0,7605257.416129744,3412725.404614653,-1579854.9286402804,-2053894.8525425124,8079122.920145293,-1578564.3554603853,-5145.804830046603,-1050.4411854425234,3830.2041504424737,1.340524924745207,-5.273038019024331,1.0302888004171566,7708501.96604061,1.399592601321678,-0.3145337783066516,-0.9685314280803072,-0.027456756393901147,-2.347692605384399,-0.5151250276659324,-1.8640666225377653,1.8465318250143747E-19,-0.0011344542745508244,1.5721255015181616E-18,2106861.4360105447,8.556309143641228E-17,951.1908785531285,1.340524924745207,-5.273038019024331,1.0302888004171566
5220.0,7497194.36151978,3669286.282657389,-1348513.9170956349,-2360101.016938931,8006599.6045555,-1346982.1325013223,-5058.909325178519,-1367.0703343155665,3887.782826596197,1.5563229913989651,-5.279797329886077,0.8882413281336503,7708501.966040173,1.4039678705687753,-0.34800193566865917,-0.9868954268638365,0.012662875618175374,-2.3733231119375646,-0.46677383057619554,-1.8097291804110085,1.8465318250143747E-19,-0.0011344542745508244,1.5841813233837981E-18,2077589.0388815533,9.144867013933328E-17,950.177300386387,1.5563229913989651,-5.279797329886077,0.8882413281336503
5280.0,7373691.149631405,3918219.663999061,-1113972.9838465,-2660703.833432327,7915071.731962225,-1112203.6247433862,-4959.007072865795,-1683.8359577520011,3936.700846018358,1.7740698972806714,-5.277509776943958,0.7415808349320645,7708501.966040271,1.4083431398158728,-0.3826398427388694,-1.0041647098336872,0.05494922794239733,-2.395459585381055,-0.41729314412764396,-1.7580069107680345,1.8465318250143747E-19,-0.0011344542745508244,1.5962371452494347E-18,2046293.1257834646,9.837695446221993E-17,949.2645218022149,1.7740698972806714,-5.277509776943958,0.7415808349320645
5340.0,7234774.825761081,4158970.898999564,-876759.5300151441,-2954919.4420759236,7804547.683649129,-874756.8440158784,-4845.9838685667755,-2000.1808604732614,3976.677993757071,1.9936690113767659,-5.26568834437409,0.5901939618289553,7708501.966040611,1.4127184090629386,-0.4183306314760768,-1.0202970823871562,0.09927330396996183,-2.414375738606305,-0.3668642443653724,-1.7085268233420938,1.8465318250143747E-19,-0.0011344542745508244,1.6082929671150712E-18,2013027.6357991782,1.0653860100504806E-16,948.4656619194817,1.9936690113767659,-5.26568834437409,0.5901939618289553
5400.0,7080495.816065311,4390982.708807875,-637417.9627419871,-3241957.326130189,7675070.176592799,-635186.8146622877,-4719.732395841966,-2315.5172572362585,4007.4274828845814,2.2149864872921166,-5.243800278661992,0.43397554929030896,7708501.966040315,1.4170936783099726,-0.45491912312185406,-1.0352616748023098,0.14546638712704385,-2.4303084683429246,-0.3156470616796491,-1.660943207955788,1.8465318250143747E-19,-0.0011344542745508244,1.6203487889807077E-18,1977851.170735116,1.1616835629075726E-16,947.7935693331488,2.2149864872921166,-5.243800278661992,0.43397554929030896
5460.0,6910929.703599693,4613695.320789782,-396510.0730127561,-3521020.7955540977,7526718.181510525,-394055.9510642578,-4580.15462120065,-2629.2240133529153,4028.6565493388825,2.4378457884330893,-5.211266642527921,0.2728321405888831,7708501.9660410015,1.4214689475570224,-0.49221111506448434,-1.0490409004362917,0.19331911682755076,-2.4434584333564064,-0.2637839051809379,-1.6149356682845457,1.8465318250143747E-19,-0.0011344542745508244,1.6324046108463442E-18,1940827.1849364953,1.2755587038030296E-16,947.260871963954,2.4378457884330893,-5.211266642527921,0.2728321405888831
5520.0,6726179.157389534,4826546.733116244,-154615.37132803976,-3791307.6243193788,7359609.007043311,-151944.39289451388,-4427.164531542482,-2940.6438705179553,4040.067270828654,2.6620217402148696,-5.167462289411968,0.10668595568304974,7708501.966040742,1.4258442168040246,-0.5299746822164378,-1.0616322532868956,0.24258256052282706,-2.4539914333419937,-0.21140279476246746,-1.570206154265094,1.8465318250143747E-19,-0.0011344542745508244,1.6444604327119808E-18,1902024.183953753,1.4105934450568513E-16,946.8800278175922,2.6620217402148696,-5.167462289411968,0.10668595568304974
5580.0,6526376.016218598,5028973.1251648115,87668.63308972157,-4052010.8629693636,7173900.550133192,90549.71622287821,-4260.691242965477,-3249.0806866204844,4041.357639552127,2.8872340981609015,-5.111716376293535,-0.0645206138627926,7708501.966041253,1.430219486051027,-0.5679437447234067,-1.0730497987814105,0.2929715350958339,-2.462040082205372,-0.15862042817490657,-1.526475467839068,1.8465318250143747E-19,-0.0011344542745508244,1.6565162545776173E-18,1861515.9306274226,1.5712275831352195E-16,946.6633776751298,2.8872340981609015,-5.111716376293535,-0.0645206138627926
5640.0,6311683.527309532,5220409.431858275,329726.22572978644,-4302319.849573046,6969793.710702324,332810.0228410053,-4080.682510018742,-3553.7967258578306,4032.222921485713,3.1131406328400253,-5.043313552211496,-0.24081993932310017,7708501.966041035,1.4345947552979816,-0.6058239291353077,-1.0833252106233722,0.3441702074700607,-2.4677054528456317,-0.10554483341203848,-1.4834795298571466,1.8465318250143747E-19,-0.0011344542745508244,1.6685720764432538E-18,1819381.6568418532,1.7629760990300483E-16,946.6232009414102,3.1131406328400253,-5.043313552211496,-0.24081993932310017
5700.0,6082298.738154105,5400290.101538117,570923.371098036,-4541421.443967289,6747534.966313991,574201.8488577324,-3887.108663982486,-3854.010044336492,4012.357337903823,3.339329748471031,-4.961495980909688,-0.4222134719658719,7708501.966039778,1.4389700245449362,-0.6433004740428504,-1.0925082275096514,0.39583972814707935,-2.471058495120843,-0.0522777671466572,-1.4409655673749444,1.8465318250143747E-19,-0.0011344542745508244,1.6806278983088903E-18,1775706.2788575767,1.9927033018619644E-16,946.7717760275888,3.339329748471031,-4.961495980909688,-0.4222134719658719
5760.0,5838455.037299334,5568050.0584004205,810607.7083430198,-4768501.511844615,6507419.099473309,814072.1881931745,-3679.9670071532883,-4148.892026515475,3981.4561074332255,3.5653126724712623,-4.8654663782331085,-0.6086654018378999,7708501.966040242,1.443345293791875,-0.6800476528587064,-1.100666442255001,0.4476273736522023,-2.47214110918321,0.0010830769063694915,-1.3986882984115234,1.8465318250143747E-19,-0.0011344542745508244,1.6926837201745269E-18,1730580.6137127029,2.268968088486701E-16,947.1214466707904,3.5653126724712623,-4.8654663782331085,-0.6086654018378999
5820.0,5580424.836905027,5723125.891847884,1048108.6810183348,-4982746.686789425,6249792.066577758,1051749.8378145176,-3459.286687113488,-4437.565139360415,3939.217889163413,3.7905152789766023,-4.7543922675415144,-0.8000956260664055,7708501.966040228,1.447720563038782,-0.7157389578415281,-1.1078843904196003,0.4991764462447137,-2.470966807579392,0.054441985200577594,-1.356406139386447,1.8465318250143747E-19,-0.0011344542745508244,1.7047395420401634E-18,1684101.5937405436,2.602458013169492E-16,947.6846953675056,3.7905152789766023,-4.7543922675415144,-0.8000956260664055
5880.0,5308522.386217718,5864957.296253174,1282737.8262783943,-5183346.439667824,5975053.993126901,1286545.6884287428,-3225.134070301199,-4719.100983947863,3885.347668886979,4.014269641231159,-4.627411678634288,-0.9963720077810039,7708501.96604046,1.4520958322856732,-0.7500571643955168,-1.1142619680528807,0.5501360546174144,-2.467520933003959,0.10770320329173191,-1.313877430051224,1.8465318250143747E-19,-0.0011344542745508244,1.7167953639057999E-18,1636372.4757268045,3.0065339120981813E-16,948.4742243582332,4.014269641231159,-4.627411678634288,-0.9963720077810039
5940.0,5023106.700727419,5992988.785496081,1513789.2513510112,-5369495.485740238,5683662.274603913,1517753.202711109,-2977.618627332866,-4992.518738411401,3819.5601311517635,4.235805446445496,-4.483640536147149,-1.1973019251952168,7708501.966040785,1.4564711015325642,-0.7827034036323083,-1.1199122660904923,0.60016990893757,-2.4617604221869125,0.16076891378332242,-1.270856658398412,1.8465318250143747E-19,-0.0011344542745508244,1.7288511857714364E-18,1587503.040664512,3.497911993299252E-16,949.5030428023683,4.235805446445496,-4.483640536147149,-1.1973019251952168
6000.0,4724584.586580195,6106671.707123274,1740540.3276775111,-5540396.560355723,5376134.756346354,1744649.1114851593,-2716.899333194676,-5256.784101416035,3741.5835591317023,4.454241452888967,-4.322182000361639,-1.402623135089116,7708501.966039938,1.4608463707794237,-0.8134045050583772,-1.1249589559521578,0.6489633983238993,-2.4536131262649854,0.2135371495507664,-1.2270906670373853,1.8465318250143747E-19,-0.0011344542745508244,1.7409070076370727E-18,1537609.7794395795,4.0975175632865997E-16,950.7845546539254,4.454241452888967,-4.322182000361639,-1.402623135089116
6060.0,4413413.733786543,6205466.580923114,1962252.6355706144,-5695263.593906913,5053052.958704273,1966494.360729666,-2443.191573045992,-5510.808861492823,3651.1643019416815,4.668577222965593,-4.1421380346089824,-1.6119940069876353,7708501.966040104,1.4652216400262512,-0.8419181075661144,-1.1295333864788446,0.6962284557464761,-2.4429767219532907,0.26589957894516336,-1.1823148373037733,1.8465318250143747E-19,-0.0011344542745508244,1.7529628295027093E-18,1486816.0591057483,4.831556341762665E-16,952.3326318858856,4.668577222965593,-4.1421380346089824,-1.6119940069876353
6120.0,4090105.8448024243,6288845.785976909,2178173.194493083,-5833325.31571739,4715065.305755373,2182535.344540214,-2156.77452853356,-5753.451234143001,3548.0718444769186,4.877685427886526,-3.9426234760897985,-1.8249832247872628,7708501.966039141,1.4695969092745076,-0.8680353127487471,-1.1337715560879715,0.7417059917661303,-2.4297172815627253,0.31773909833746483,-1.1362492778633282,1.8465318250143747E-19,-0.0011344542745508244,1.7650186513683458E-18,1435252.2636779293,5.7328719827374E-16,954.1616308821808,4.877685427886526,-3.9426234760897985,-1.8249832247872628
