time,gePosition_m_X,gePosition_m_Y,gePosition_m_Z,eiPosition_m_X,eiPosition_m_Y,eiPosition_m_Z,eiVelocity_m_s_X,eiVelocity_m_s_Y,eiVelocity_m_s_Z,eiAccel_m_s2_X,eiAccel_m_s2_Y,eiAccel_m_s2_Z,semiMajorAxis_m,gast_rad,eulerAngle_rad_Roll,eulerAngle_rad_Pitch,eulerAngle_rad_Yaw,eulerAngleWrtEi_rad_Roll,eulerAngleWrtEi_rad_Pitch,eulerAngleWrtEi_rad_Yaw,bodyAngularRateWrtEi_rad_s_Roll,bodyAngularRateWrtEi_rad_s_Pitch,bodyAngularRateWrtEi_rad_s_Yaw,altitudeMsl_m,airDensity_kg_m3,ambientTemperature_dgK,eiGravitation_m_s2_X,eiGravitation_m_s2_Y,eiGravitation_m_s2_Z
0.0,-1428622.31101,4163200.46562,5136049.67203,-4292653.41,955168.47,5139356.57,109.649663,-7527.72649,1484.521489,5.52898656936,-1.23026788741,-6.61954989995,6758662.11723,1.02334780893,-2.2204460492583294E-16,2.7755575615598222E-17,1.110223024625674E-16,-2.4567339936942507,-0.19515786357783788,-1.5566219162553807,0.0,0.0,0.0,398252.763838,3.11591362917E-12,976.47737094,5.52898656936,-1.23026788741,-6.61954989995
60.0,-1789712.64868,3920255.31305,5213136.6043,-4276130.76361,501640.150639,5216447.94771,440.899504426,-7584.0430456,1084.18939672,5.50841669093,-0.646201702282,-6.71971240616,6758662.11723,1.02772307802,1.3766765505405136E-14,2.8900729521480916E-6,3.7470027081310675E-16,-2.4640380834990583,-0.14227385513864466,-1.5131454542546983,0.0,-0.0011344542745501645,0.0,398335.16147,3.20687244874E-12,983.702829946,5.50841669093,-0.646201702282,-6.71971240616
120.0,-2144732.03326,3662345.31178,5266057.24147,-4239785.46485,45786.4492663,5269357.6801,770.149856361,-7605.20775889,678.7772427,5.46236021842,-0.058989324127,-6.78881750198,6758662.11723,1.03209834711,2.6256774534265653E-14,1.1882190166843848E-5,-2.1926904737950986E-15,-2.4689839374940337,-0.08912857191957727,-1.4703247360194258,0.0,-0.0011344542745501645,0.0,398280.483171,3.31726588913E-12,991.661468685,5.46236021842,-0.058989324127,-6.78881750198
180.0,-2492166.12293,3390599.00166,5294562.85755,-4183783.25764,-410279.480789,5297837.08957,1095.87688043,-7591.11290731,270.159254332,5.39101509823,0.528665740843,-6.82652947799,6758662.11723,1.0364736162,3.5860203708911316E-14,2.743784119545924E-5,-7.153999617622953E-15,-2.4716334478469792,-0.03582228878815343,-1.427909705482227,0.0,-0.0011344542745501645,0.0,398085.378679,3.44775481373E-12,1000.300609,5.39101509823,0.528665740843,-6.82652947799
240.0,-2830524.93281,3106195.85057,5298517.62797,-4108380.89026,-864442.894078,5301750.4708,1416.572094,-7541.8131943,-139.774483848,5.29469509567,1.11405482452,-6.83265572643,6758662.11723,1.04084888529,3.902433936428896E-14,4.9988342323644207E-5,-9.447304061975582E-15,-2.4720197072047903,0.01754812940699113,-1.3856566249643638,0.0,-0.0011344542745501645,0.0,397748.768109,3.59852917815E-12,1009.53002767,5.29469509567,1.11405482452,-6.83265572643
300.0,-3158349.2707,2810361.12396,5277899.32319,-4013924.98617,-1314597.20057,5281075.7838,1730.7492879,-7457.52569377,-549.126655788,5.17382866283,1.69447627941,-6.80714795491,6758662.11723,1.04522415437,4.168887470785893E-14,7.993282966949236E-5,-1.274674814219506E-14,-2.470147536009781,0.07088717087377493,-1.3433242894378667,0.0,-0.0011344542745501645,0.0,397271.88372,3.76928395326E-12,1019.22714303,5.17382866283,1.69447627941,-6.80714795491
360.0,-3474217.08765,2504360.5957,5232799.48317,-3900850.50203,-1758653.68795,5235904.82755,2036.95136094,-7338.62906256,-956.001393646,5.02895729882,2.26724769265,-6.75010277495,6758662.11723,1.04959942346,4.8405724208652055E-14,1.1763639589720639E-4,-1.5404344573259104E-14,-2.465993560376276,0.12409866225271445,-1.3006702537293207,0.0,-0.0011344542745501645,0.0,396658.271822,3.95927497991E-12,1029.24864764,5.02895729882,2.26724769265,-6.75010277495
420.0,-3776749.71579,2189495.12225,5163423.07076,-3769678.779,-2194551.17459,5166442.89226,2333.75704093,-7185.6620202,-1358.51297384,4.86073340379,2.82971808105,-6.66176165595,6758662.11723,1.05397469255,5.989653297842669E-14,1.6342837936137995E-4,-1.970645895030006E-14,-2.459505837036809,0.17708373326840474,-1.2574470531577229,0.0,-0.0011344542745501645,0.0,395913.75464,4.16743259548E-12,1039.44538411,4.86073340379,2.82971808105,-6.66176165595
480.0,-4064617.96598,1867095.10307,5070087.60404,-3621015.19486,-2620265.54951,5073007.89024,2619.78746171,-6999.32109896,-1754.79449109,4.66991762971,3.37928001561,-6.54251023745,6758662.11723,1.05834996164,6.827871763096889E-14,2.1760081390381073E-4,-2.2065683136771522E-14,-2.450603042514509,0.22973869737289257,-1.2133984023941227,0.0,-0.0011344542745501645,0.0,395046.35254,4.39248786984E-12,1049.67618037,4.66991762971,3.37928001561,-6.54251023745
540.0,-4336548.05782,1538514.85011,4953221.77021,-3455546.42661,-3033819.15549,4956028.96803,2893.71256637,-6780.45766981,-2143.0064719,4.4573757334,3.91338162297,-6.39287699509,6758662.11723,1.06272523073,5.989653453334052E-14,2.8040704685292956E-4,-2.7811087860252713E-14,-2.4391732697709427,0.2819527843688976,-1.1682553761872896,0.0,-0.0011344542745501645,0.0,394066.16769,4.63306699777E-12,1059.81737392,4.4573757334,3.91338162297,-6.39287699509
600.0,-4591327.35534,1205126.8898,4813363.52578,-3274037.33485,-3433289.97225,4816044.60446,3154.25730682,-6530.07425328,-2521.34538841,4.22407493918,4.42953841007,-6.21353125793,6758662.11723,1.06710049981,5.406786465000736E-14,3.5206053212338665E-4,-3.2973625874810344E-14,-2.425072514342429,0.3336056605257576,-1.1217326121747786,0.0,-0.0011344542745501645,0.0,392985.230813,4.88772979641E-12,1069.76694871,4.22407493918,4.42953841007,-6.21353125793
660.0,-4827809.88176,868316.221086,4651157.69009,-3077327.483,-3816820.55719,4653700.20187,3400.20761071,-6249.32012759,-2888.05203397,3.97107982106,4.92534485816,-6.00528057771,6758662.11723,1.0714757689,5.0959241601614554E-14,4.3273380455603776E-4,-3.5915718209403867E-14,-2.4081229917030123,0.3845646728476571,-1.0735246375617562,0.0,-0.0011344542745501645,0.0,391817.313346,5.15495300749E-12,1079.44416186,3.97107982106,4.92534485816,-6.00528057771
720.0,-5044921.58748,529474.553226,4467353.04181,-2866327.30621,-4182626.70184,4469745.1799,3630.4160871,-5939.48624934,-3241.41972145,3.69954771645,5.39848573122,-5.76906745355,6758662.11723,1.07585103799,5.251355623467869E-14,5.225576408845913E-4,-4.1133768678404564E-14,-2.3881115222764,0.434681759523201,-1.0233025180661486,0.0,-0.0011344542745501645,0.0,390577.707882,5.43307543139E-12,1088.78644481,3.69954771645,5.39848573122,-5.76906745355
780.0,-5241665.34627,189994.547074,4262798.92999,-2642013.94644,-4529005.7634,4265029.58367,3843.80744331,-5601.99950563,-3579.8022658,3.41072368629,5.84674704438,-5.50596541829,6758662.11723,1.08022630708,3.785861245425103E-14,6.216204119269859E-4,-4.329870632589181E-14,-2.3647883626587727,0.48378998239950466,-0.9707111739425909,0.0,-0.0011344542745501645,0.0,389282.980377,5.72022664279E-12,1097.7452932,3.41072368629,5.84674704438,-5.50596541829
840.0,-5417125.65531,-148735.916456,4038441.41394,-2405426.77194,-4854344.63194,4040500.22042,4039.38358617,-5238.41631976,-3901.62171297,3.10593503834,6.26802663725,-5.21717449618,6758662.11723,1.08460157617,2.5424114037533833E-14,7.299676297806599E-4,-4.6351823627490925E-14,-2.337867072746872,0.5316996661742621,-0.915367922159517,0.0,-0.0011344542745501645,0.0,387950.698132,6.01425775883E-12,1106.28229852,3.10593503834,6.26802663725,-5.21717449618
900.0,-5570473.01589,-485339.417195,3795318.94811,-2157662.60064,-5157127.29515,3797196.34098,4216.22838204,-4850.41563555,-4205.37577766,2.78658543362,6.66034429836,-4.90401604459,6758662.11723,1.08897684525,1.3211658738863317E-14,8.476016928124941E-4,-4.8017163063499705E-14,-2.307026305625508,0.5781941830660646,-0.8568631051819486,0.0,-0.0011344542745501645,0.0,386599.138075,6.31268818241E-12,1114.36594672,2.78658543362,6.66034429836,-4.90401604459
960.0,-5700967.97255,-818454.602498,3534557.63056,-1899870.6489,-5435941.96416,3536244.8846,4373.51205129,-4439.79130921,-4489.64495351,2.45414859808,7.02185138673,-4.56792699599,6758662.11723,1.09335211434,5.71765129159644E-15,9.744818305482955E-4,-4.8960858632868026E-14,-2.271914805492402,0.6230255152222752,-0.794764068042789,0.0,-0.0011344542745501645,0.0,385246.980295,6.61267311837E-12,1121.96917921,2.45414859808,7.02185138673,-4.56792699599
1019.99999999,-5805227.83084,-1150370.41708,3260968.62673,-1628765.8002,-5688712.68608,3262454.38165,4958.61828364,-3930.94337271,-4393.20767164,24.5124365945,11.2251909689,13.7810146325,6797433.01974,1.09772738343,8.58325835184267E-4,0.0011105238402746884,0.07535929716558136,-2.232161386089496,0.6659098786637216,-0.7286242359468711,0.0,-0.0011344542745501645,0.0,383926.502022,6.90855318179E-12,1129.02638717,2.10436931665,7.34983042152,-4.21509887848
1079.99999998,-5847406.47703,-1527100.86598,3022634.04769,-1287373.88018,-5904188.52874,3023862.17585,6416.70022129,-3248.80466154,-3556.78077792,24.0712165807,11.5029403722,14.0896071362,7436916.71384,1.10210265252,0.013724370576989066,0.0012554822050265565,0.29291985100871043,-2.187392173473856,0.7065239220815037,-0.6579995586444868,0.0,-0.0011344542745501645,0.0,383413.807936,7.09366201765E-12,1135.00620899,1.66314930284,7.62757982477,-3.90650637477
1140.0,-5832041.54152,-1942052.97177,2815181.89351,-884103.593514,-6082553.17528,2816102.8189,6792.2094267,-2733.97268904,-3549.06043643,1.14033073239,7.84537283648,-3.63225374665,7708502.74227,1.10647792161,0.03721947761742351,0.0014084721997520587,0.33557844416812327,-2.1372577589076993,0.7445023348964155,-0.5824749519356809,0.0,-0.0011344542745501645,0.0,386466.632729,6.83880852615E-12,1140.1556122,1.14033073239,7.84537283648,-3.63225374665
1200.0,-5792178.77512,-2349815.05479,2596186.53788,-474836.052949,-6232362.26016,2596794.49998,6844.74189386,-2257.9983723,-3758.27628295,0.610414245599,8.01186574548,-3.33824768746,7708502.74227,1.11085319069,0.06086499641799522,0.0015682016296503004,0.3322752812090298,-2.0814727729599958,0.779438099846484,-0.5017032343671414,0.0,-0.0011344542745501645,0.0,393414.840167,6.17451025861E-12,1144.96248015,0.610414245599,8.01186574548,-3.33824768746
1260.0,-5729157.66542,-2747204.54412,2365181.87628,-63370.8513741,-6353344.17986,2365474.06196,6865.47041207,-1773.58529172,-3949.27872766,0.0810576460363,8.12656154227,-3.02567750101,7708502.74227,1.11522845978,0.08416276718547751,0.00173177113697082,0.32737999067308454,-2.0198691989446695,0.8108870385434185,-0.4154578652440682,0.0,-0.0011344542745501645,0.0,404185.708029,5.23924993169E-12,1149.32835646,0.0810576460363,8.12656154227,-3.02567750101
1320.0,-5643303.01021,-3132656.07325,2123290.69751,348387.850457,-6445086.09252,2123265.76061,6854.58158191,-1283.85168588,-4121.05258419,-0.442668241853,8.1892492101,-2.6978619375,7708502.74227,1.11960372887,0.10698113264940287,0.001893605625755161,0.32092301676778096,-1.9524617921544685,0.8383785564734668,-0.32369784059339446,0.0,-0.0011344542745501645,0.0,418719.844734,4.19387410019E-12,1153.11541078,-0.442668241853,8.1892492101,-2.6978619375
1380.0,-5535069.13804,-3504696.72639,1871690.64123,758556.092289,-6507362.14482,1871348.69396,6812.55982144,-791.90425469,-4272.78633211,-0.955925501375,8.20051870146,-2.35825663613,7708502.74227,1.12397899796,0.12919379337791964,0.0020446000014233486,0.3129439808914017,-1.8795187817003436,0.8614343089569177,-0.22663791478628975,0.0,-0.0011344542745501645,0.0,436934.466501,3.18058562232E-12,1156.19649289,-0.955925501375,8.20051870146,-2.35825663613
1440.0,-5405032.61249,-3861957.67962,1611601.79731,1165287.49966,-6540131.3623,1610944.38804,6740.17020248,-300.791379027,-4403.87772718,-1.45421292604,8.1617142275,-2.01036752983,7708502.74227,1.12835426705,0.15068116987567537,0.0021714053323001383,0.3034910306723313,-1.8016241089002123,0.8795955142541143,-0.12481039376167645,0.0,-0.0011344542745501645,0.0,458724.498805,2.29669361021E-12,1158.48046646,-1.45421292604,8.1617142275,-2.01036752983
1500.0,-5253883.34564,-4203183.81455,1344274.1224,1566789.4621,-6543532.83101,1343304.20071,6638.43554644,186.540155432,-4513.93428603,-1.93345299794,8.07486485916,-1.6576672213,7708502.74227,1.13272953613,0.17133163722030492,0.002255888014849117,0.29262009063812194,-1.719711209795168,0.8924575917816874,-0.019098500355862115,0.0,-0.0011344542745501645,0.0,483964.003222,1.59015806618E-12,1159.92160898,-1.93345299794,8.07486485916,-1.6576672213
1560.0,-5082414.41303,-4527241.17971,1070974.97342,1961337.79199,-6517878.41922,1069696.84339,6508.60887847,667.28370383,-4602.76893267,-2.39005928308,7.94259708116,-1.30351787492,7708502.74227,1.13710480522,0.19104261117000282,0.002274779171461322,0.2803940480089252,-1.6350472424728906,0.8997079301003266,0.08927979428662826,0.0,-0.0011344542745501645,0.0,512507.885482,1.05097670222E-12,1160.5158008,-2.39005928308,7.94259708116,-1.30351787492
1620.0,-4891510.88596,-4833122.25463,792977.034546,2347289.62176,-6463643.3522,791396.297695,6352.14246385,1138.80565097,-4670.39128775,-2.82098284002,7.76803459255,-0.95110350029,7708502.74227,1.14148007431,0.20972146896712268,0.0021995219879367405,0.2668819071832082,-1.5491551799785435,0.9011598840558707,0.1988500583642217,0.0,-0.0011344542745501645,0.0,544193.832348,6.70793510633E-13,1160.28997902,-2.82098284002,7.76803459255,-0.95110350029
1680.0,-4682138.00575,-5119949.0465,511546.880592,2723094.37252,-6381454.99923,509670.369832,6170.65469467,1598.67204331,-4716.99523047,-3.22373755839,7.55469085677,-0.603373695091,7708502.74227,1.1458553434,0.22728629271073214,0.001996315517949861,0.25215794417809057,-1.4636796179699703,0.8967751251602764,0.3080159627720997,0.0,-0.0011344542745501645,0.0,578844.419629,4.1437450441E-13,1159.29063527,-3.22373755839,7.55469085677,-0.603373695091
1740.0,-4455329.01782,-5386974.11655,227934.379036,3087302.70245,-6272080.25799,225770.085166,5965.89606361,2044.66869014,-4742.94346117,-3.59640551981,7.30635970442,-0.263000054985,7708502.74227,1.15023061249,0.24366642790525742,0.0016263452149843534,0.23630088802803761,-1.380223383290273,0.8866684238915069,0.4152230394782903,0.0,-0.0011344542745501645,0.0,616269.331397,2.48945577127E-13,1157.57455947,-3.59640551981,7.30635970442,-0.263000054985
1800.0,-4212172.96351,-5633579.6892,-56636.912687,3438573.41517,-6136411.92884,-59079.9203784,5739.71536628,2474.81476333,-4748.74983981,-3.93762442432,7.02700875372,0.0676543756323,7708502.74227,1.15460588158,0.2588028544391172,0.0010461835177390942,0.21939315048554014,-1.300194341904196,0.8710935260546384,0.5191122419044635,0.0,-0.0011344542745501645,0.0,656267.631201,1.46327419707E-13,1155.20267978,-3.93762442432,7.02700875372,0.0676543756323
1860.0,-3953802.6985,-5859275.04033,-340978.244425,3775678.37235,-5975454.46137,-343689.901927,5494.02712917,2887.37018873,-4735.06027519,-4.24655980504,6.72067963159,0.386552979091,7708502.74227,1.15898115066,0.272648371603586,2.083384665178427E-4,0.20152011888875074,-1.2246974138239644,0.850414003329418,0.6186283051233625,0.0,-0.0011344542745501645,0.0,698630.029423,8.48120873622E-14,1152.23654017,-4.24655980504,6.72067963159,0.386552979091
1920.0,-3681383.36866,-6063692.39144,-623943.000396,4097505.50985,-5790309.43153,-626912.335648,5230.78108364,3280.83733366,-4702.6328989,-4.5228651513,6.39139805429,0.691991737169,7708502.74227,1.16335641975,0.2851676025887621,-9.380753519014047E-4,0.18276952046719164,-1.1544885488606818,0.825066375386449,0.7130661576525272,0.0,-0.0011344542745501645,0.0,743141.096442,4.89773064044E-14,1148.73655817,-4.5228651513,6.39139805429,0.691991737169
1980.0,-3396101.53346,-6246581.55285,-904432.833377,4403060.09977,-5582161.07248,-907648.054478,4951.93431389,3653.95764978,-4652.31818539,-4.76663319281,6.04309585896,0.982595114723,7708502.74227,1.16773168884,0.29633682720423105,-0.0024465712987811455,0.16323086008027102,-1.0899862627480343,0.7955232030850143,0.8020597911615321,0.0,-0.0011344542745501645,0.0,789581.378359,2.85547017336E-14,1144.76129435,-4.76663319281,6.04309585896,0.982595114723
2040.0,-3099155.08352,-6407803.56503,-1181402.62018,4691464.43303,-5352262.13941,-1184851.20389,4659.42651357,4005.70402756,-4585.03958598,-4.97834150384,5.67954614778,1.25730334492,7708502.74227,1.17210695793,0.3061436542964727,-0.004372459002391233,0.14299492800301797,-1.031322491395861,0.7622618043869678,0.8855318366427876,0.0,-0.0011344542745501645,0.0,837729.380097,1.70692007663E-14,1140.36720618,-4.97834150384,5.67954614778,1.25730334492
2100.0,-2791744.05692,-6547323.58139,-1453864.28351,4961956.11727,-5101920.34183,-1457533.06294,4355.15860335,4335.26966296,-4501.77513836,-5.15879531792,5.30431187817,1.51535293,7708502.74227,1.17648222702,0.31458654734393615,-0.006771974286001412,0.12215337019198681,-0.9784112567732864,0.725741281788576,0.9636253603913973,0.0,-0.0011344542745501645,0.0,887363.389092,1.06228811366E-14,1135.60858326,-5.15879531792,5.30431187817,1.51535293
2160.0,-2475062.41942,-6665203.22313,-1720889.54965,5213885.19531,-4832485.52836,-1724764.80021,4040.97479965,4642.05423557,-4403.54040424,-5.30907005607,4.92070754418,1.75625216351,7708502.74227,1.1808574961,0.3216742183652768,-0.00970139693175975,0.1007983105829169,-0.9310179708056876,0.6863880192959142,1.0366350609496184,0.0,-0.0011344542745501645,0.0,938263.121145,6.96022756104E-15,1130.53751677,-5.30907005607,4.92070754418,1.75625216351
2220.0,-2150290.83823,-6761592.61703,-1981611.72953,5446710.29031,-4545337.76242,-1985679.25232,3718.64808785,4925.64815927,-4291.37298232,-5.43045561812,4.53177306531,1.97975336979,7708502.74227,1.18523276519,0.3274249063391575,-0.013216180248880315,0.07902201359240095,-0.8888192357217546,0.6445882990625389,1.1049480170584765,0.0,-0.0011344542745501645,0.0,990211.177681,4.81839167152E-15,1125.20384748,-5.43045561812,4.53177306531,1.97975336979
2280.0,-1818590.44873,-6836722.30368,-2235226.6224,5659993.97795,-4241876.38298,-2239471.82443,3389.86894453,5185.81560185,-4166.31874685,-5.52440401325,4.14025863016,2.18582337412,7708502.74227,1.18960803428,0.33186555711941096,-0.017370113685158232,0.056916574904882805,-0.8514492123815344,0.6006861450735935,1.1689979246081605,0.0,-0.0011344542745501645,0.0,1042994.31063,3.50840692461E-15,1119.65508208,-5.52440401325,4.14025863016,2.18582337412
2340.0,-1481097.58837,-6890895.17783,-2480992.64799,5853397.57349,-3923510.10562,-2485400.61867,3056.23707264,5422.47688736,-4029.4198784,-5.59248144909,3.74861902092,2.37461349224,7708502.74227,1.19398330337,0.33503092238437937,-0.022214536711545777,0.03457362973528785,-0.8185326703425282,0.5549845828057808,1.2292327196948036,0.0,-0.0011344542745501645,0.0,1096404.49701,2.66101791827E-15,1113.93628698,-5.59248144909,3.74861902092,2.37461349224
2400.0,-1138919.45235,-6924478.59595,-2718230.31463,6026675.5063,-3591648.18457,-2722785.8983,2719.25585902,5635.69080324,-3881.70468279,-5.63632558417,3.35901585059,2.54643008451,7708502.74227,1.19835857246,0.33696259541929685,-0.027797619068370336,0.012084069783812126,-0.7897068134184088,0.5077488683133714,1.286093506427902,0.0,-0.0011344542745501645,0.0,1150239.82997,2.07982161838E-15,1108.08997322,-5.63632558417,3.35901585059,2.54643008451
2460.0,-793130.61095,-6937896.76027,-2946321.12908,6179669.43547,-3247692.62835,-2951008.9932,2380.32923235,5825.63723989,-3724.17913926,-5.65760829221,2.97332615224,2.70170647874,7708502.74227,1.20273384154,0.33770800173129667,-0.03416371929459584,-0.010462237232763882,-0.7646345516530899,0.4592106607571759,1.3400021328703566,0.0,-0.0011344542745501645,0.0,1204305.23696,1.65978118993E-15,1102.15598528,-5.65760829221,2.97332615224,2.70170647874
2520.0,-444770.318661,-6931623.46404,-3164706.04881,6312302.24052,-2893031.43835,-3169510.74773,2040.76058783,5992.60049889,-3557.82007714,-5.65800399589,2.59315584309,2.84097684052,7708502.74227,1.20710911063,0.3373193623988845,-0.04135283035147482,-0.032976728590080315,-0.7430117187546017,0.40957247717071094,1.3913549324483463,0.0,-0.0011344542745501645,0.0,1258413.03789,1.34348012159E-15,1096.17140309,-5.65800399589,2.59315584309,2.84097684052
2580.0,-94840.5391592,-6906175.26017,-3372883.57064,6424572.0014,-2529032.82243,-3377789.60492,1701.75344847,6136.95352142,-3383.56985201,-5.63916340299,2.21985672105,2.96485236977,7708502.74227,1.21148437972,0.33585264787097036,-0.04940011814087862,-0.05537242818933286,-0.7245702660999827,0.35901204255547803,1.4405206187177302,0.0,-0.0011344542745501645,0.0,1312383.35826,1.0982378337E-15,1090.17046323,-5.63916340299,2.21985672105,2.96485236977
2640.0,255695.392352,-6862105.09608,-3570407.54121,6516546.06224,-2157040.32263,-3575399.41249,1364.41354807,6259.14321252,-3202.33237462,-5.60269231487,1.85454581661,3.07400003309,7708502.74227,1.21585964881,0.3333665393406296,-0.05833555586527687,-0.07756422609548892,-0.7090789515643747,0.30768633634480436,1.4878408369631408,0.0,-0.0011344542745501645,0.0,1366044.41283,9.04357666449E-16,1084.18450274,-5.60269231487,1.85454581661,3.07400003309
2700.0,605913.547615,-6799996.43994,-3756884.76584,6588355.25548,-1778368.78765,-3761947.02739,1029.7520443,6359.67697173,-3014.97033772,-5.55013506903,1.49812610147,3.16912390345,7708502.74227,1.2202349179,0.3299214140333645,-0.06818365450020623,-0.09946915090994986,-0.6963425952689973,0.25573525597735147,1.5336323255858053,0.0,-0.0011344542745501645,0.0,1419232.67566,7.49150844866E-16,1078.24192705,-5.55013506903,1.49812610147,3.16912390345
2760.0,954929.700557,-6720457.90955,-3931972.48291,6640188.34594,-1394301.11573,-3937089.78595,698.689598562,6439.11048605,-2822.30348498,-5.48296211547,1.15130773358,3.25094907207,7708502.74227,1.22461018698,0.3255783695122025,-0.07896328720419933,-0.12100662815185108,-0.6862006275474949,0.20328489002127215,1.5781899904661143,0.0,-0.0011344542745501645,0.0,1471792.95211,6.23893964467E-16,1072.36820277,-5.48296211547,1.15130773358,3.25094907207
2820.0,1301899.21134,-6624118.40299,-4095375.76166,6672286.73983,-1006085.69175,-4100532.89766,372.061090499,6498.03679689,-2625.10777071,-5.4025612009,0.814629187106,3.32020801858,7708502.74227,1.22898545607,0.3203983005486197,-0.09068760329133134,-0.14209871677705366,-0.6785254028810849,0.15045043305609898,1.621790450785004,0.0,-0.0011344542745501645,0.0,1523578.36763,5.22255363388E-16,1066.58587546,-5.4025612009,0.814629187106,3.32020801858
2880.0,1646016.56635,-6511622.72108,-4246844.8724,6684939.49063,-614934.442585,-4252026.81161,50.6207662031,6537.07661873,-2424.11526768,-5.31023163785,0.488477769589,3.37762927123,7708502.74227,1.23336072516,0.3144410401796938,-0.10336402549977974,-0.16267031561307047,-0.6732205795348801,0.09733879485794554,1.6646957924539956,0.0,-0.0011344542745501645,0.0,1574450.28721,4.39452959125E-16,1060.91461241,-5.31023163785,0.488477769589,3.37762927123
2940.0,1986514.63556,-6383627.66441,-4386172.67026,6678478.62241,-222021.436912,-4391364.59658,-264.952349588,6556.86986089,-2220.01469169,-5.20718115849,0.173109162795,3.42392815493,7708502.74227,1.23773599425,0.3077645742837607,-0.11699432271812345,-0.18264933183447693,-0.670219748587799,0.044050965266712365,1.7071573846196892,0.0,-0.0011344542745501645,0.0,1624278.17818,3.71778357974E-16,1055.37127057,-5.20718115849,0.173109162795,3.42392815493
3000.0,2322663.703,-6240798.58234,-4513192.02553,6653274.78237,171518.040746,-4518379.36808,-574.048918419,6558.06828606,-2013.45242404,-5.0945248898,-0.131334261128,3.45979940784,7708502.74227,1.24211126334,0.30042433660527734,-0.1315747491090281,-0.2019668045158161,-0.6694854207549715,-0.009315800984296367,1.7494196920405545,0.0,-0.0011344542745501645,0.0,1672939.42796,3.16308277022E-16,1049.9699894,-5.0945248898,-0.131334261128,3.45979940784
3060.0,2653770.3197,-6083806.348,-4627773.32744,6609733.22616,564588.007628,-4632941.78902,-876.123744591,6541.32922702,-1805.03392659,-4.97328603127,-0.424806502122,3.48591144221,7708502.74227,1.24648653242,0.29247258847527813,-0.14709623972574873,-0.22055697768654323,-0.6710084313159863,-0.06266591514092558,1.7917240642054635,0.0,-0.0011344542745501645,0.0,1720319.12684,2.70715813592E-16,1044.72230826,-4.97328603127,-0.424806502122,3.48591144221
3120.0,2979176.02308,-5913324.73059,-4729822.08201,6548290.13372,956131.952991,-4734957.66469,-1170.69031401,6507.31027612,-1595.32545734,-4.84439786508,-0.707342450811,3.50290202994,7708502.74227,1.25086180151,0.28395788492737356,-0.16354465223150433,-0.23835731898685017,-0.6748077921982358,-0.1159034373926916,1.8343125088821406,0.0,-0.0011344542745501645,0.0,1766309.82491,2.33138229634E-16,1039.6373072,-4.84439786508,-0.707342450811,3.50290202994
3180.0,3298255.96069,-5730028.13565,-4819276.61967,6469409.2486,1345132.7167,-4824365.64774,-1457.31548544,6456.66485939,-1384.85600732,-4.70870677774,-0.97904388124,3.51137520458,7708502.74227,1.2552370706,0.2749246263593175,-0.18090104420751257,-0.255308481862263,-0.6809309977673282,-0.16893004883492338,1.8774314692313214,0.0,-0.0011344542745501645,0.0,1810811.27079,2.02079324989E-16,1034.7217693,-4.70870677774,-0.97904388124,3.51137520458
3240.0,3610417.45142,-5534589.68315,-4896105.92369,6373578.82979,1730612.12661,-4901135.06426,-1735.61438653,6390.03860745,-1174.11939188,-4.56697602023,-1.24006689077,3.51189918696,7708502.74227,1.25961233969,0.2654126926386922,-0.19914197573653325,-0.27135421109595087,-0.6894547704858492,-0.22164294922282005,1.9213356211667294,0.0,-0.0011344542745501645,0.0,1853730.13895,1.7633473326E-16,1029.98036144,-4.56697602023,-1.24006689077,3.51189918696
3300.0,3915098.51216,-5327679.594,-4960307.58714,6261308.90278,2111630.43995,-4965263.86854,-2005.2455517,6308.06643805,-963.576439989,-4.41988997793,-1.4906107275,3.50500515964,7708502.74227,1.26398760878,0.2554571545563496,-0.21823982741424985,-0.286441193190376,-0.7004862078477527,-0.2739326166304505,1.9662916912802684,0.0,-0.0011344542745501645,0.0,1894979.75128,1.54933495242E-16,1025.41582989,-4.41988997793,-1.4906107275,3.50500515964
3360.0,4211766.37378,-5109963.85625,-5011905.90273,6133128.79436,2487285.62904,-5016776.731,-2265.90632677,6211.3702693,-753.657235623,-4.26805876249,-1.73090792315,3.49118673422,7708502.74227,1.26836287786,0.2450880559395073,-0.23816312471469683,-0.300518854661337,-0.7141642558778184,-0.32568036454306976,2.0125822622532037,0.0,-0.0011344542745501645,0.0,1934479.79753,1.3709179484E-16,1021.02920579,-4.26805876249,-1.73090792315,3.49118673422
3420.0,4499916.00644,-4882103.14383,-5050950.08757,5989584.9348,2856712.54671,-5055723.26116,-2517.32855487,6100.55728825,-544.763373812,-4.11202297384,-1.96121563507,3.4708999748,7708502.74227,1.27273814695,0.2343302585687732,-0.2588768604572923,-0.3135391125571156,-0.7306613782057236,-0.37675563264779666,2.0605094752056514,0.0,-0.0011344542745501645,0.0,1972156.05869,1.22176087111E-16,1016.82001537,-4.11202297384,-1.96121563507,3.4708999748
3480.0,4779068.67059,-4644751.96174,-5077512.64269,5831238.91024,3219082.00282,-5082176.36567,-2759.27455012,5976.21870511,-337.270201563,-3.95225851246,-2.18180809324,3.44456385894,7708502.74227,1.27711341604,0.22320334130334993,-0.2803428082121208,-0.3254560824736188,-0.7501852019778495,-0.4270129521479619,2.11039844862205,0.0,-0.0011344542745501645,0.0,2007940.13646,1.09673620034E-16,1012.78648966,-3.95225851246,-2.18180809324,3.44456385894
3540.0,5048770.50744,-4398557.99371,-5091687.84592,5658665.74801,3573599.77902,-5096230.73976,-2991.53335915,5838.92893036,-131.529020592,-3.7891813488,-2.39297004519,3.41256107503,7708502.74227,1.28148868513,0.21172154448706276,-0.3025198205575043,-0.3362257500624698,-0.772979787659362,-0.47628853847723696,2.1626000954172926,0.0,-0.0011344542745501645,0.0,2041769.19137,9.91688367607E-17,1008.92576861,-3.7891813488,-2.39297004519,3.41256107503
3600.0,5308591.17983,-4144161.63001,-5093590.37507,5472452.41776,3919505.60533,-5098001.48924,-3213.91730572,5689.24511771,72.1307657131,-3.62315218049,-2.5949910929,3.3752390705,7708502.74227,1.28586395422,0.19989375085096667,-0.32536410719472764,-0.3458056123920272,-0.7993259710279873,-0.5243964903687133,2.2174928173372703,0.0,-0.0011344542745501645,0.0,2073585.69163,9.03244779254E-17,1005.23409521,-3.62315218049,-2.5949910929,3.3752390705
3660.0,5558122.57222,-3882195.65463,-5083354.05778,5273196.5316,4256072.11903,-5087622.87931,-3426.25881007,5527.7070228,273.399573921,-3.45448092678,-2.7881608186,3.33291127951,7708502.74227,1.2902392233,0.18772349453146264,-0.3488294890505242,-0.35415429578660046,-0.8295399424533125,-0.5711246234869422,2.2754822689729073,0.0,-0.0011344542745501645,0.0,2103337.17437,8.28664481117E-17,1001.70699617,-3.45448092678,-2.7881608186,3.33291127951
3720.0,5796977.55714,-3613285.07308,-5061130.74371,5061505.22706,4582603.82345,-5065247.20581,-3628.40747224,5354.83713308,471.985639747,-3.28343102592,-2.97276460232,3.28585847163,7708502.74227,1.29461449239,0.17520899069202572,-0.37286762553116193,-0.36123115683371154,-0.8639688463824334,-0.616230053228236,2.3369979984551326,0.0,-0.0011344542745501645,0.0,2130976.02032,7.65716987299E-17,998.339446582,-3.28343102592,-2.97276460232,3.28585847163
3780.0,6024788.83322,-3338047.06374,-5027089.29411,4837994.21753,4898436.06165,-5031043.78402,-3820.22740665,5171.14103018,667.613100577,-3.11022351439,-3.14908003972,3.23433017392,7708502.74227,1.29898976148,0.16234317926464678,-0.3974282130710991,-0.3669958732597196,-0.9029817077955437,-0.6594347824672332,2.4024852919327135,0.0,-0.0011344542745501645,0.0,2156459.24305,7.1258528154E-17,995.126016941,-3.11022351439,-3.14908003972,3.23433017392
3840.0,6241207.83936,-3057091.03704,-4981414.68368,4603286.99536,5202934.01797,-4985198.04989,-4001.59481472,4977.10795132,860.02016454,-2.93504087706,-3.31737387628,3.17854612833,7708502.74227,1.30336503057,0.1491137777706514,-0.4224591540058068,-0.3714080314264878,-0.9469534768876239,-0.7004217663996848,2.472390031444731,0.0,-0.0011344542745501645,0.0,2179748.29325,6.6778818971E-17,992.061001969,-2.93504087706,-3.31737387628,3.17854612833
3900.0,6445903.74806,-2771018.78856,-4924307.20972,4358014.17383,5495491.75861,-4927910.7686,-4172.39578144,4773.21152116,1048.95736734,-2.75803066626,-3.47789938074,3.11869775505,7708502.74227,1.30774029966,0.13550333971959141,-0.44790669564483954,-0.3744267173379084,-0.9962395808990934,-0.7388322333747872,2.547133970586395,0.0,-0.0011344542745501645,0.0,2200808.87855,6.30118280143E-17,989.138531123,-2.75803066626,-3.47789938074,3.11869775505
3960.0,6638562.54055,-2480424.73331,-4855981.80294,4102812.95495,5775531.32045,-4859397.34495,-4332.52428234,4559.91062976,1234.18591646,-2.57930889403,-3.63089408808,3.05494959899,7708502.74227,1.31211556874,0.12148931703600675,-0.4737155401263491,-0.37601011842557985,-1.0511383986136127,-0.774265431806732,2.627077857133119,0.0,-0.0011344542745501645,0.0,2219610.79914,5.98592221523E-17,986.352661372,-2.57930889403,-3.63089408808,3.05494959899
4020.0,6818886.16547,-2185896.20983,-4776667.43506,3838326.71084,6042501.85657,-4779887.23058,-4481.88038735,4337.65043657,1415.47612128,-2.39896320737,-3.77657784926,2.98744074317,7708502.74227,1.31649083783,0.1070441270572052,-0.49982892635680215,-0.37611514398158313,-1.1118400583895458,-0.806282392228418,2.712470815263357,0.0,-0.0011344542745501645,0.0,2236127.79928,5.72411151522E-17,983.69745313,-2.39896320737,-3.77657784926,2.98744074317
4080.0,6986591.78258,-1888013.8439,-4686606.618,3565204.66735,6295878.84525,-4689623.42292,-4620.36864906,4106.8634835,1592.60590662,-2.21705585995,-3.9151511315,2.91628617733,7708502.74227,1.32086610692,0.09213522712235124,-0.5261886859941617,-0.37469707316571355,-1.1783625976147905,-0.8344155916385413,2.8033870357994726,0.0,-0.0011344542745501645,0.0,2250337.43486,5.50929112201E-17,981.167030498,-2.21705585995,-3.9151511315,2.91628617733
4140.0,7141411.09267,-1587351.96259,-4586054.98969,3284101.67907,6535163.3688,-4588862.05074,-4747.89666355,3867.97090386,1765.35940697,-2.03362649732,-4.04679351915,2.84157811507,7708502.74227,1.32524137601,0.07672520257720301,-0.552735276097761,-0.3717092409753702,-1.250481362461275,-0.8581863137017435,2.899655662142894,0.0,-0.0011344542745501645,0.0,2262220.95679,5.33628013125E-17,978.755626985,-2.03362649732,-4.04679351915,2.84157811507
4200.0,7283089.75456,-1284479.05032,-4475280.9819,2995678.08584,6759881.46739,-4477872.04188,-4864.37379321,3621.38371628,1933.52563803,-1.84869477462,-4.17166237084,2.76338725592,7708502.74227,1.3296166451,0.06077187725362846,-0.5794077917487797,-0.3671027746676776,-1.3276642832397638,-0.8771306506044672,3.0007965158889687,0.0,-0.0011344542745501645,0.0,2271763.21024,5.20097910899E-17,976.457618139,-1.84869477462,-4.17166237084,2.76338725592
4260.0,7411386.89016,-979958.23948,-4354565.56537,2700599.64126,6969583.57297,-4356934.86833,-4969.71004214,3367.50419552,2096.89724235,-1.66226282799,-4.28989159405,2.68176399232,7708502.74227,1.33399191418,0.04422845921280098,-0.6061439627760056,-0.36082639581645887,-1.4090322604262078,-0.8908332080157113,3.105980903765635,0.0,-0.0011344542745501645,0.0,2278952.54961,5.10021658196E-17,974.267542299,-1.66226282799,-4.28989159405,2.68176399232
4320.0,7526074.67845,-674347.82863,-4224202.06817,2399537.50428,7163844.02751,-4226344.36449,-5063.81507599,3106.72731416,2255.26930584,-1.47431762189,-4.4015905029,2.59673956402,7708502.74227,1.33836718327,0.02704373884356011,-0.6328801395994701,-0.3528263066075261,-1.4933661301137073,-0.8989647842986315,-3.0691463251817424,0.0,-0.0011344542745501645,0.0,2283780.76899,5.03163191676E-17,972.180110784,-1.47431762189,-4.4015905029,2.59673956402
4380.0,7626938.03949,-368201.822106,-4084496.06278,2093168.28548,7342260.68985,-4086406.61436,-5146.59737954,2839.44225099,2408.43824194,-1.28483319616,-4.50684272957,2.50832716488,7708502.74227,1.34274245236,0.009162361323090734,-0.6595512742918793,-0.3430461832570435,-1.5791748205090868,-0.9013174689892938,-2.959657011949384,0.0,-0.0011344542745501645,0.0,2286243.04806,4.99358906002E-17,970.190208705,-1.28483319616,-4.50684272957,2.50832716488
4440.0,7713774.40952,-62070.485043,-3935765.31832,1782174.13981,7504454.63488,-3937439.90372,-5217.96354662,2566.03396393,2556.20074112,-1.09377283732,-4.60570516379,2.4165230092,7708502.74227,1.34711772145,-0.009474798999637444,-0.6860909043173822,-0.3314273043316246,-1.664822139969668,-0.8978292614267391,-2.850324370396446,0.0,-0.0011344542745501645,0.0,2286337.91313,4.98511710273E-17,968.29288754,-1.09377283732,-4.60570516379,2.4165230092
4500.0,7786393.60867,243499.091611,-3778339.81366,1467242.89822,7650069.9491,-3779774.73347,-5277.81769879,2286.88482608,2698.35278326,-0.901091199464,-4.69820689866,2.32130736664,7708502.74227,1.35149299054,-0.028930128634195935,-0.7124311479483361,-0.31790884754680776,-1.7486881020114768,-0.8885917853700751,-2.7427200663553037,0.0,-0.0011344542745501645,0.0,2284067.21331,5.00587491198E-17,966.483350458,-0.901091199464,-4.69820689866,2.32130736664
4560.0,7844617.80281,547962.421401,-3612561.80812,1149068.23019,7778773.62618,-3613753.89033,-5326.06103031,2002.37632549,2834.68871146,-0.706736401212,-4.78434816487,2.22264557685,7708502.74227,1.35586825962,-0.04926858925176945,-0.7385027223556434,-0.3024283946785911,-1.8293262860324317,-0.8738389492173355,-2.638241796334853,0.0,-0.0011344542745501645,0.0,2279436.11147,5.05613821107E-17,964.756931297,-0.706736401212,-4.78434816487,2.22264557685
4620.0,7888281.56158,850777.053109,-3438785.96574,828349.829923,7890255.56645,-3439732.57135,-5362.59147893,1712.89082943,2965.00036647,-0.510652125652,-4.86409923851,2.12048905642,7708502.74227,1.36024352871,-0.07055680968625189,-0.7642349975184826,-0.28492269049193314,-1.9055804427108034,-0.8539196906419388,-2.5379963083458374,0.0,-0.0011344542745501645,0.0,2272453.09011,5.13680854504E-17,963.109067935,-0.510652125652,-4.86409923851,2.12048905642
4680.0,7917232.0149,1151402.00704,-3257379.52975,505793.618432,7984228.68428,-3258078.55845,-5387.3035235,1418.81341538,3089.07628169,-0.312779751463,-4.93739931166,2.01477631314,7708502.74227,1.3646187978,-0.09286190331898966,-0.7895561017591316,-0.26532870722928,-1.9766402720315717,-0.8292617638014912,-2.4427432387064956,0.0,-0.0011344542745501645,0.0,2263129.97166,5.24944459946E-17,961.535270652,-0.312779751463,-4.93739931166,2.01477631314
4740.0,7931329.11041,1449297.22196,-3068722.54342,182111.953919,8060429.12731,-3069172.43953,-5400.08811101,1120.53377106,3206.70093953,-0.11306054408,-5.00415531785,1.90543398399,7708502.74227,1.36899406689,-0.1162499545564116,-0.8143930974452637,-0.2435850700331835,-2.042037797919922,-0.8003343980917437,-2.352898334758123,0.0,-0.0011344542745501645,0.0,2251481.9534,5.39631740352E-17,960.031085956,-0.11306054408,-5.00415531785,1.90543398399
4800.0,7930445.97498,1743923.01809,-2873208.11373,-141976.157464,8118616.61185,-2873407.87226,-5400.83271776,818.448166378,3317.65409142,0.0885620630555,-5.06424070875,1.7923779155,7708502.74227,1.37336933598,-0.1407841174042883,-0.8386722482941036,-0.2196338994642123,-2.101601145360212,-0.7676158969694757,-2.268579251484338,0.0,-0.0011344542745501645,0.0,2237527.65669,5.58049210135E-17,958.592056154,0.0885620630555,-5.06424070875,1.7923779155
4860.0,7914469.38351,2034739.58154,-2671242.71372,-465744.858696,8158574.87888,-2671191.88662,-5389.42155079,512.961500319,3421.71014422,0.29214006612,-5.11749418177,1.67551430747,7708502.74227,1.37774460506,-0.16652227378722545,-0.8623194024233295,-0.193423122557737,-2.1553873383780826,-0.7315693203568226,-2.1896722971253753,0.0,-0.0011344542745501645,0.0,2221289.19039,5.80594028357E-17,957.213674825,0.29214006612,-5.11749418177,1.67551430747
4920.0,7883300.33869,2321206.47628,-2463246.5197,-788461.255462,8180112.27508,-2462945.22229,-5365.73589794,204.48942545,3518.63761791,0.497718335227,-5.16371836323,1.55474094295,7708502.74227,1.38211987415,-0.19351421185513992,-0.8852605171942678,-0.16490929140099406,-2.2036122539038256,-0.692626738003256,-2.115901984897842,0.0,-0.0011344542745501645,0.0,2202792.22844,6.07768840682E-17,955.891338208,0.497718335227,-5.16371836323,1.55474094295
4980.0,7836854.76566,2602782.18988,-2249653.77865,-1109385.25545,8183062.46382,-2249102.6962,-5329.65463667,-106.539447358,3608.19868015,0.705331872186,-5.20267845591,1.4299485302,7708502.74227,1.38649514324,-0.22179830805510484,-0.9074223527271987,-0.13406092464517688,-2.246588966393404,-0.6511808669237328,-2.046892148019766,0.0,-0.0011344542745501645,0.0,2182066.10128,6.40200967948E-17,954.620292347,0.705331872186,-5.20267845591,1.4299485302
5040.0,7775064.32592,2878923.72006,-2030913.20112,-1427769.44322,8167285.27082,-2030113.59552,-5281.05491383,-419.681262384,3690.14876553,0.915002847462,-5.23410086573,1.30102218491,7708502.74227,1.39087041233,-0.25139773422772144,-0.928733359373355,-0.10086235001289205,-2.2846792401718012,-0.607582233790037,-1.9822138515816514,0.0,-0.0011344542745501645,0.0,2159143.90109,6.78676801337E-17,953.398930745,0.915002847462,-5.23410086573,1.30102218491
5100.0,7697877.35489,3149086.20952,-1807488.37417,-1742859.00139,8132667.66951,-1806442.09077,-5219.81301079,-734.474549984,3764.23628863,1.12673738124,-5.25767182837,1.16784308374,7708502.74227,1.39524568142,-0.2823162646754225,-0.9491247799287421,-0.0653179721585861,-2.3182585320210505,-0.5621400126731131,-1.921419728007424,0.0,-0.0011344542745501645,0.0,2134062.60044,7.2420833401E-17,952.238578004,1.12673738124,-5.25767182837,1.16784308374
5160.0,7605259.92784,3412722.63756,-1579858.18857,-2053891.68959,8079124.911,-1578567.66302,-5145.80541015,-1050.43777579,3830.2024624,1.340522033,-5.27303606389,1.03029032328,7708502.74227,1.3996209505,-0.3145338284469132,-0.9685319783602795,-0.02745681997328967,-2.347692605461223,-0.5151250275207612,-1.864066622736386,0.0,-0.0011344542745501645,0.0,2106863.18426,7.78057800416E-17,951.153383303,1.340522033,-5.27303606389,1.03029032328
5220.0,7497197.05889,3669283.57761,-1348517.27338,-2360097.89408,8006601.80344,-1346985.5385,-5058.91008288,-1367.0668109,3887.78123502,1.556319964,-5.27979549567,0.888243021633,7708502.74227,1.40399621959,-0.3480020361752356,-0.986895992729955,0.012662856677468545,-2.373323112009522,-0.46677383044930054,-1.8097291805642426,0.0,-0.0011344542745501645,0.0,2077590.79451,8.4178907842E-17,950.157076247,1.556319964,-5.27979549567,0.888243021633
5280.0,7373694.03796,3918217.03106,-1113976.43048,-2660700.76157,7915074.14547,-1112207.12308,-4959.0080162,-1683.83232831,3936.69936127,1.77406673754,-5.27750807964,0.741582702881,7708502.74227,1.40837148868,-0.3826400009217813,-1.0041652900448483,0.05494926095143074,-2.3954595854422718,-0.4172931440166694,-1.758006910910448,0.0,-0.0011344542745501645,0.0,2046294.88727,9.17344151495E-17,949.263020753,1.77406673754,-5.27750807964,0.741582702881
5340.0,7234777.9099,4158968.3486,-876763.060357,-2954916.43258,7804550.31789,-874760.427971,-4845.98500535,-2000.17713372,3976.67662641,1.99366572354,-5.26568680077,0.590196007686,7708502.74227,1.41274675777,-0.418330854895294,-1.0202976754396391,0.0992733965230593,-2.414375738625117,-0.36686424427301073,-1.7085268234887787,0.0,-0.0011344542745501645,0.0,2013029.40156,1.00714088303E-16,948.484268211,1.99366572354,-5.26568680077,0.590196007686
5400.0,7080499.10042,4390980.2517,-637421.569536,-3241954.39083,7675073.03712,-635190.476868,-4719.73373361,-2315.51344291,4007.4262437,2.21498307662,-5.24379890635,0.433977776083,7708502.74227,1.41712202686,-0.45491941951411263,-1.0352622789739052,0.1454665469889795,-2.4303084683611975,-0.31564706157232053,-1.6609432081165942,0.0,-0.0011344542745501645,0.0,1977852.9391,1.1141982319E-16,947.833610242,2.21498307662,-5.24379890635,0.433977776083
5460.0,6910933.19204,4613692.96801,-396513.748355,-3521017.94673,7526721.27325,-394059.683503,-4580.15616713,-2629.22012229,4028.65544925,2.43784226136,-5.21126545989,0.272834550825,7708502.74227,1.42149729594,-0.49221149198189595,-1.0490415137257376,0.19331935163515723,-2.4434584333394724,-0.26378390506492877,-1.6149356684844975,0.0,-0.0011344542745501645,0.0,1940828.95417,1.2422968133E-16,947.323631529,2.43784226136,-5.21126545989,0.272834550825
5520.0,6726182.85322,4826544.49598,-154619.106665,-3791304.87467,7359612.33426,-151948.186889,-4427.1662924,-2940.63991466,4040.06632091,2.66201810445,-5.1674613156,0.106688551253,7708502.74227,1.42587256503,-0.5299751468302598,-1.0616328735471934,0.2425828775211349,-2.4539914333288038,-0.21140279465495987,-1.5702061544473456,0.0,-0.0011344542745501645,0.0,1902025.95224,1.3961849691E-16,946.966763467,2.66201810445,-5.1674613156,0.106688551253
5580.0,6526379.92209,5028971.01523,87664.8469699,-4052008.22557,7173904.11632,90545.8700169,-4260.69322501,-3249.0766791,4041.35685096,2.8872303628,-5.11171563121,-0.0645178317973,7708502.74227,1.43024783412,-0.5679443037138532,-1.073050423645288,0.29297194109327446,-2.462040082215668,-0.15862042806459897,-1.5264754680059838,0.0,-0.0011344542745501645,0.0,1861517.69608,1.58184336987E-16,946.775339576,2.8872303628,-5.11171563121,-0.0645178317973
5640.0,6311687.64517,5220407.4609,329722.3987,-4302317.33788,6969797.51853,332806.134439,-4080.68471891,-3553.792681,4032.22230542,3.11313680854,-5.04331305644,-0.240816970452,7708502.74227,1.43462310321,-0.6058245883795751,-1.083325837567627,0.3441707085265756,-2.4677054528548066,-0.10554483329595381,-1.4834795300305257,0.0,-0.0011344542745501645,0.0,1819383.41749,1.80682474724E-16,946.761653804,3.11313680854,-5.04331305644,-0.240816970452
5700.0,6082303.06921,5400288.28152,570919.513693,-4541419.07174,6747539.01757,574197.928948,-3887.11110469,-3854.00597774,4012.35690556,3.33932584759,-4.96149575563,-0.422210316969,7708502.74227,1.4389983723,-0.6433012384687797,-1.0925088539445988,0.3958403294002045,-2.4710584951317887,-0.052277767015912316,-1.4409655675763833,0.0,-0.0011344542745501645,0.0,1775708.03265,2.08068978104E-16,946.938023005,3.33932584759,-4.96149575563,-0.422210316969
5760.0,5838459.58191,5568048.40143,810603.831759,-4768499.29312,6507423.39496,814068.248133,-3679.96968387,-4148.88795506,3981.45586993,3.56530870919,-4.86546644516,-0.608662062534,7708502.74227,1.44337364138,-0.6800485262793813,-1.1006670655820419,0.44762807917543,-2.4721411091834193,0.0010830770537161613,-1.3986882986608444,0.0,-0.0011344542745501645,0.0,1730582.35851,2.4155655646E-16,947.316854879,3.56530870919,-4.86546644516,-0.608662062534
5820.0,5580429.59454,5723124.41013,1048104.7971,-4982744.63583,6249796.60604,1051745.88962,-3459.2896031,-4437.56108124,3939.21785747,3.79051126948,-4.75439264874,-0.800092105579,7708502.74227,1.44774891047,-0.7157399427934558,-1.1078850081812097,0.4991772588898908,-2.4709668075582076,0.0544419853325806,-1.3564061396277025,0.0,-0.0011344542745501645,0.0,1684103.32732,2.82685956072E-16,947.910722443,3.79051126948,-4.75439264874,-0.800092105579
5880.0,5308527.35537,5864956.00205,1282733.94753,-5183344.5709,5975058.77519,1286541.74478,-3225.13722779,-4719.09695868,3885.34785375,4.01426560383,-4.62741239638,-0.996368310714,7708502.74227,1.45212417956,-0.75005826244824,-1.1142625778818986,0.5501369762986282,-2.467520932946188,0.10770320343265409,-1.3138774302845713,0.0,-0.0011344542745501645,0.0,1636374.19578,3.3341696613E-16,948.732445395,4.01426560383,-4.62741239638,-0.996368310714
5940.0,5023111.87886,5992987.69106,1513785.39088,-5369493.8137,5683667.29668,1517749.27691,-2977.62202739,-4992.51476687,3819.56054299,4.23580140175,-4.48364161272,-1.19729805782,7708502.74227,1.45649944865,-0.7827046152563542,-1.1199128657923039,0.6001709405183738,-2.461760422105688,0.16076891392928458,-1.2708566586440146,0.0,-0.0011344542745501645,0.0,1587504.74481,3.96244008633E-16,949.795177035,4.23580140175,-4.48364161272,-1.19729805782
6000.0,4724589.97004,6106670.82464,1740536.49921,-5540395.09959,5376140.01456,1744645.21746,-2716.90297558,-5256.78020578,3741.58420792,4.45423742391,-4.32218345777,-1.40261910556,7708502.74227,1.46087471774,-0.8134058298370608,-1.1249595435887718,0.6489645398350856,-2.4536131261623035,0.21353714970762266,-1.227090667314279,0.0,-0.0011344542745501645,0.0,1537611.4652,4.7434239845E-16,951.112491512,4.45423742391,-4.32218345777,-1.40261910556
6060.0,4413419.31774,6205465.92243,1962248.8534,-5695262.35892,5053058.44779,1966490.51297,-2443.19545607,-5510.80506527,3651.16519712,4.66857323524,-4.14213989431,-1.61198982552,7708502.74227,1.46524998683,-0.8419195443738702,-1.1295339604171555,0.6962297065648909,-2.4429767218201506,0.2658995791203332,-1.182314837630101,0.0,-0.0011344542745501645,0.0,1486817.72393,5.71752838065E-16,952.698457069,4.66857323524,-4.14213989431,-1.61198982552
6120.0,4090111.62316,6288845.36332,2178169.47346,-5833324.32085,4715071.01902,2182531.55811,-2156.77864889,-5753.44756208,3548.07299479,4.87768150959,-3.94262575863,-1.82497890388,7708502.74227,1.46962525591,-0.8680368599652973,-1.1337721150397755,0.7417073508075187,-2.429717281431063,0.31773909852370946,-1.136249278242828,0.0,-0.0011344542745501645,0.0,1435253.90493,6.93614063944E-16,954.567656562,4.87768150959,-3.94262575863,-1.82497890388
6180.0,3755235.72248,6356296.44341,2387532.37139,-5953828.57382,4362896.23606,2392001.75152,-1858.00335235,-5983.51360309,3432.10592099,5.08030127067,-3.72278560208,-2.04105465702,7708502.74227,1.474000525,-0.8915825760244002,-1.1378116509858247,0.7851674105843727,-2.4136676224192675,0.3689271681952346,-1.0885950977533805,0.0,-0.0011344542745501645,0.0,1383057.5176,8.4645792107E-16,956.735032713,5.08030127067,-3.72278560208,-2.04105465702
6240.00000001,3409420.65342,6407324.82477,2589560.46513,-6056046.10662,3997325.76558,2594123.4132,-1547.30017164,-6199.75914817,3303.09747944,5.27503250948,-3.4818135452,-2.25957416725,7708502.74227,1.47837579409,-0.9124132562532552,-1.1417889917033546,0.8264067751515393,-2.394625638816428,0.41932083132954506,-1.0390309254350412,0.0,-0.0011344542745501645,0.0,1330373.26535,1.03858865365E-15,959.214893425,5.27503250948,-3.4818135452,-2.25957416725
6300.00000001,3053358.60594,6441458.39083,2783467.89244,-6139276.34955,3619227.32737,2788110.10225,-1225.18797631,-6400.8938598,3160.92335589,5.46033269682,-3.21897633982,-2.479772515,7708502.74227,1.48275106318,-0.9304135027035982,-1.1458366947483416,0.8652454672159678,-2.3723529433256787,0.4687593664794723,-0.987209973350393,0.0,-0.0011344542745501645,0.0,1277353.06591,1.28061969451E-15,962.024428456,5.46033269682,-3.21897633982,-2.479772515
6360.00000001,2687807.68691,6458251.51861,2968462.76353,-6202852.72777,3229547.32607,2973169.37363,-892.282495386,-6585.58623592,3005.50905103,5.63451578915,-2.93363976208,-2.70075246258,7708502.74227,1.48712633227,-0.9454908616441945,-1.1500810654727938,0.9015215160482457,-2.346574336025943,0.5170605470815811,-0.9327581244251568,0.0,-0.0011344542745501645,0.0,1224156.01405,1.58637505531E-15,965.203018169,5.63451578915,-2.93363976208,-2.70075246258
6420.00000001,2313594.41766,6457289.77106,3143750.38928,-6246148.73045,2829313.12549,3148506.01111,-549.304880698,-6752.47042709,2836.83810795,5.79575439977,-2.62529835632,-2.92147503271,7708502.74227,1.49150160135,-0.95756976221386,-1.154640036474146,0.9350849301119449,-2.3169788845038495,0.5640165266871244,-0.8752738036446363,0.0,-0.0011344542745501645,0.0,1170948.27711,1.9741330515E-15,968.78909967,5.79575439977,-2.62529835632,-2.92147503271
6480.00000001,1931615.87231,6438195.00323,3308537.01893,-6268584.48756,2419634.85836,3313325.76996,-197.090026772,-6900.1549363,2654.96086483,5.94208586997,-2.29360841046,-3.14075151724,7708502.74227,1.49587687044,-0.9665848179978914,-1.1596212920295368,0.9657911064874368,-2.2832237672258233,0.6093894480766732,-0.8143307595238608,0.0,-0.0011344542745501645,0.0,1117902.9125,2.46902957026E-15,972.817742902,5.94208586997,-2.29360841046,-3.14075151724
6540.00000001,1542841.35367,6400630.86482,3462034.11575,-6269633.8322,2001706.65286,3466839.65809,163.405609928,-7027.23338717,2460.00362885,6.07142301648,-1.93842386489,-3.35723754496,7708502.74227,1.50025213953,-0.9724737259168937,-1.1651205977075068,0.9934939173993222,-2.244942494928984,0.6529070058739398,-0.7494853496686433,0.0,-0.0011344542745501645,0.0,1065199.59649,3.10791508403E-15,977.321025054,6.07142301648,-1.93842386489,-3.35723754496
6600.00000001,1148313.49355,6344308.66795,3603463.19192,-6248831.80962,1576807.147,3608268.77678,531.096996597,-7132.29752252,2252.17812643,6.18157034236,-1.55983463669,-3.56942992504,7708502.74227,1.50462740862,-0.975169894835666,-1.1712202833801697,1.0180386109046946,-2.2017596413222,0.6942583957919184,-0.6802904432341341,0.0,-0.0011344542745501645,0.0,1013024.25287,3.94958605091E-15,982.327176729,6.18157034236,-1.55983463669,-3.56942992504
6660.00000001,749148.655534,6268993.57277,3732061.21377,-6205782.57431,1146299.15283,3736849.73199,904.76466527,-7213.95255597,2031.79104,6.27024646595,-1.15820658006,-3.77566705653,7708502.74227,1.50900267771,-0.9745948423016049,-1.1779878213942299,1.039254567082103,-2.1533146499355964,0.7330913759940985,-0.6063184910411759,0.0,-0.0011344542745501645,0.0,961568.570134,5.09663944783E-15,987.859115674,6.27024646595,-1.15820658006,-3.77566705653
6720.00000001,346536.511752,6174511.02581,3847086.57562,-6140167.59416,711628.327286,3851840.61477,1283.05040325,-7270.83494418,1799.25339238,6.33511343337,-0.734222007237,-3.9741337427,7708502.74227,1.51337794679,-0.970650321219587,-1.1854744387253033,1.0569478725823542,-2.0992973521991494,0.7690115463014083,-0.5271963847285304,0.0,-0.0011344542745501645,0.0,911029.396364,6.74164779505E-15,993.932475114,6.33511343337,-0.734222007237,-3.9741337427
6780.00000001,-58261.337833,6060753.36526,3947825.62486,-6051754.0561,274320.703837,3952527.5329,1664.45492197,-7301.63257306,1555.08948877,6.37381342176,-0.288919372429,-4.16287126105,7708502.74227,1.51775321588,-0.9632100861041426,-1.1937137005803968,1.0708936220300522,-2.039497037671311,0.8015853724306761,-0.4426539335870115,0.0,-0.0011344542745501645,0.0,861608.001333,9.26204073152E-15,1000.5531811,6.37381342176,-0.288919372429,-4.16287126105
6840.00000001,-463913.8344,5927686.48628,4033599.70182,-5940403.34094,-164021.057049,4038231.6575,2047.33795727,-7305.10725753,1299.94507641,6.38401310082,0.176269609471,-4.33979349987,7708502.74227,1.52212848497,-0.9521111890526625,-1.2027200016620008,1.0808278331157053,-1.9738645803252794,0.8303488137941661,-0.3525854524954558,0.0,-0.0011344542745501645,0.0,813509.196889,1.34072466574E-14,1007.71467012,6.38401310082,0.176269609471,-4.33979349987
6900.00000001,-869024.141761,5775356.43666,4103772.6361,-5806079.4078,-601722.831894,4108316.72613,2429.92126045,-7280.11934105,1034.59433608,6.36345559191,0.659487452799,-4.50270986806,7708502.74227,1.52650375406,-0.9371447221856885,-1.2124868994362463,1.086438886408498,-1.9025826368259775,0.8548234025582446,-0.2571194676204078,0.0,-0.0011344542745501645,0.0,766940.308262,2.06487241426E-14,1015.39491965,6.36345559191,0.659487452799,-4.50270986806
6960.00000001,-1272134.65207,5603895.79142,4157758.61716,-5648856.90109,-1037045.72887,4162196.91989,2810.29492408,-7225.65405024,759.945281992,6.31001954467,1.15842531196,-4.64935550203,7708502.74227,1.53087902315,-0.918046020543098,-1.2229852211924355,1.0873584960542306,-1.8261323917254664,0.8745409138741007,-0.15668500638882477,0.0,-0.0011344542745501645,0.0,722109.991446,3.37926998037E-14,1023.55357372,6.31001954467,1.15842531196,-4.64935550203
7020.00000001,-1671733.40749,5413529.63381,4195030.33017,-5468928.76781,-1468194.40453,4199345.0056,3186.42744268,-7140.84911519,477.043123302,6.2217843484,1.67030681041,-4.7774290247,7708502.74227,1.53525429223,-0.8944845511648559,-1.2341608753809572,1.0831524270985762,-1.745338473563605,0.8890760491437038,-0.0520560885052447,0.0,-0.0011344542745501645,0.0,679226.894932,5.79677819071E-14,1032.12956353,6.2217843484,1.67030681041,-4.7774290247
7080.00000001,-2066262.00171,5204580.95288,4215127.22172,-5266613.1508,-1893327.06006,4219300.60716,3556.17983284,-7025.0230133,187.071135008,6.09709992576,2.1918838439,-4.88463775145,7708502.74227,1.53962956132,-0.8660541134931238,-1.2459323020799518,1.0733115727705316,-1.6613704270480414,0.8980838676267764,0.055647203672863986,0.0,-0.0011344542745501645,0.0,638498.167976,1.02056885886E-13,1041.03972303,6.09709992576,2.1918838439,-4.88463775145
7140.00000001,-2454124.98912,4977475.25444,4217663.73272,-5042359.30724,-2310567.13141,4221678.44359,3917.32402604,-6877.70304409,-108.651394375,5.93465895246,2.71944680579,-4.96874979411,7708502.74227,1.54400483041,-0.8322646785757062,-1.2581875168526153,1.0572447059415393,-1.5756843577734443,0.9013357924837803,0.16501746506897924,0.0,-0.0011344542745501645,0.0,600127.822229,1.80490394762E-13,1050.17895779,5.93465895246,2.71944680579,-4.96874979411
7200.00000001,-2833700.78533,4732744.17577,4202337.31168,-4796752.29348,-2718016.6359,4206176.34642,4267.56560005,-6698.65230322,-408.674523132,5.73356875177,3.24885136796,-5.02765200051,7708502.74227,1.5483800995,-0.7925383644327896,-1.2707807541893243,1.034275387648217,-1.489904136183514,0.8987463388702531,0.27447913730729806,0.0,-0.0011344542745501645,0.0,564314.958916,3.15005903961E-13,1059.42253283,5.73356875177,3.24885136796,-5.02765200051
7260.00000001,-3203353.99159,4471027.8956,4168936.00028,-4530516.15808,-3113771.07831,4172582.84836,4604.5707334,-6487.89451162,-711.426629136,5.49341958394,3.77556340705,-5.05941211442,7708502.74227,1.55275536859,-0.746213879057842,-1.283528831361976,1.003647349048981,-1.4056630891654183,0.8903837075443175,0.3824471847371707,0.0,-0.0011344542745501645,0.0,531251.879771,5.35507906573E-13,1068.63101575,5.49341958394,3.77556340705,-5.05941211442
7320.00000001,-3561449.01868,4193076.14249,4117345.36848,-4244515.39854,-3495935.75453,4120784.12009,4925.99705784,-6245.73558206,-1015.22718598,5.21434565454,4.29472288319,-5.06234298909,7708502.74227,1.55713063767,-0.6925664018854935,-1.2962075787491918,0.9645453021610694,-1.3244433777984153,0.8764613067640321,0.48748808400141447,0.0,-0.0011344542745501645,0.0,501122.106308,8.78626292147E-13,1077.65835449,5.21434565454,4.29472288319,-5.06234298909
7380.00000001,-3906364.82633,3899747.62629,4047554.56878,-3939754.46314,-3862643.22296,4050770.02491,5229.52785622,-5972.78078659,-1318.30338803,4.8970749689,4.80122647691,-5.03506618987,7708502.74227,1.56150590676,-0.6308531460357735,-1.308549082451721,0.9161414064349144,-1.247451258309182,0.8573125627898012,0.5884449355087623,0.0,-0.0011344542745501645,0.0,474098.338677,1.38219767168E-12,1086.36340716,4.8970749689,4.80122647691,-5.03506618987
7440.00000001,-4236510.53366,3592007.7511,3959661.28197,-3617375.11958,-4212071.64637,3962639.06302,5512.90882114,-5669.94643406,-1618.81049775,4.54296422586,5.28982761633,-4.97657193633,7708502.74227,1.56588117585,-0.5603976981894224,-1.3202411197063506,0.857680473199244,-1.1755515027545973,0.8333555638491272,0.6845034258683067,0.0,-0.0011344542745501645,0.0,450340.391783,2.06424160347E-12,1094.62471768,4.54296422586,5.28982761633,-4.97657193633
7500.00000001,-4550341.59996,3270924.51225,3853875.33941,-3278651.56592,-4542463.64505,3856601.99083,5773.98637113,-5338.46508685,-1914.85559842,4.15401531671,5.7552512604,-4.8862721208,7708502.74227,1.57025644494,-0.48072582781967366,-1.3309310241740984,0.7886165858182111,-1.1092626912910446,0.805055431054359,0.7751969351417693,0.0,-0.0011344542745501645,0.0,429993.152339,2.94286100913E-12,1102.35703987,4.15401531671,5.7552512604,-4.8862721208
7560.00000001,-4846376.22621,2937662.53447,3730520.83225,-2924983.22506,-4852145.24923,3732983.92518,6010.74633431,-4979.88354235,-2204.52423845,3.73287069515,6.1923195505,-4.76404315087,7708502.74227,1.57463171403,-0.39175640040772836,-1.3402370617903292,0.7088047573875347,-1.048798272704873,0.7728908741592178,0.8603658984628075,0.0,-0.0011344542745501645,0.0,413184.605391,3.97393078552E-12,1109.52587871,3.73287069515,6.1923195505,-4.76404315087
7620.00000001,-5123211.58987,2593475.27061,3590036.55407,-2557885.24024,-5139544.49979,3592224.77942,6221.3516743,-4596.05307172,-2485.9092653,3.2827858938,6.59608332659,-4.61025563138,7708502.74227,1.57900698311,-0.29402672735700275,-1.3477705663061625,0.6187269472981969,-0.9941318649708647,0.7373285384616161,0.9400929568713066,0.0,-0.0011344542745501645,0.0,400023.98235,5.05641058094E-12,1116.15390612,3.2827858938,6.59608332659,-4.61025563138
7680.00000001,-5379539.5038,2239695.44737,3432974.67094,-2178976.77027,-5403209.22573,3434877.92489,6404.17786659,-4189.11173678,-2757.14098258,2.80757872826,6.96195365341,-4.4257884378,7708502.74227,1.5833822522,-0.1888912242886732,-1.3531704472839465,0.5196912985187893,-0.9450677777276127,0.6988059842690157,1.0146329227919175,0.0,-0.0011344542745501645,0.0,390600.084004,6.04304416331E-12,1122.31263501,2.80757872826,6.96195365341,-4.4257884378
7740.00000001,-5614161.08529,1877723.91244,3259997.56842,-1789967.26748,-5641823.52659,3261607.028,6557.84454821,-3761.45897242,-3016.41763927,2.31155615618,7.28582703264,-4.21202551665,7708502.74227,1.58775752129,-0.07859310097529643,-1.3561472731766995,0.41390431059385735,-0.9013044140346993,0.6577222996118842,1.0843499109845285,0.0,-0.0011344542745501645,0.0,384979.831142,6.76672407521E-12,1128.09660657,2.31155615618,7.28582703264,-4.21202551665
7800.00000001,-5826000.0371,1509017.1027,3071872.88724,-1392641.00056,-5854222.5113,3073181.07432,6681.24216594,-3315.72300493,-3262.03518912,1.79942122309,7.56419797153,-3.97083472718,7708502.74227,1.59213279038,0.033888237897987984,-1.3565277195286862,0.3043186210568756,-0.8624849128689608,0.6144345367159506,1.1496672826461793,0.0,-0.0011344542745501645,0.0,383207.091863,7.08896348586E-12,1133.58558709,1.79942122309,7.56419797153,-3.97083472718
7860.00000001,-6014114.17764,1135073.4105,2869466.82328,-988840.156471,-6039404.88955,2870467.65594,6773.55253549,-2854.72204326,-3492.41524903,1.27616388882,7.79425307477,-3.70452913201,7708502.74227,1.59650805947,0.14523122393474092,-1.3542855495383004,0.19423924762309758,-0.8282341422087601,0.569258091773632,1.21103130327875,0.0,-0.0011344542745501645,0.0,385301.828465,6.94720089313E-12,1138.80859802,1.27616388882,7.79425307477,-3.70452913201
