time,gePosition_m_X,gePosition_m_Y,gePosition_m_Z,eiPosition_m_X,eiPosition_m_Y,eiPosition_m_Z,eiVelocity_m_s_X,eiVelocity_m_s_Y,eiVelocity_m_s_Z,eiAccel_m_s2_X,eiAccel_m_s2_Y,eiAccel_m_s2_Z,semiMajorAxis_m,gast_rad,eulerAngle_rad_Roll,eulerAngle_rad_Pitch,eulerAngle_rad_Yaw,eulerAngleWrtEi_rad_Roll,eulerAngleWrtEi_rad_Pitch,eulerAngleWrtEi_rad_Yaw,bodyAngularRateWrtEi_rad_s_Roll,bodyAngularRateWrtEi_rad_s_Pitch,bodyAngularRateWrtEi_rad_s_Yaw,altitudeMsl_m,airDensity_kg_m3,ambientTemperature_dgK,eiGravitation_m_s2_X,eiGravitation_m_s2_Y,eiGravitation_m_s2_Z
0.0,-1428622.31112709,4163200.4655738,5136049.67204027,-4292653.41,955168.47,5139356.57,109.649663,-7527.72649,1484.521489,5.5289865693572,-1.23026788740987,-6.61954989994585,6758662.11722884,1.02331944621101,-0.0,-0.0,-0.0,-2.45673399369088,-0.195157863578589,-1.55662191625545,0.0,-0.0011344542745508,0.0,398252.763838142,3.1122E-12,976.192653674721,5.5289865693572,-1.23026788740987,-6.61954989994585
60.0,-1789712.64876688,3920255.3134273,5213136.60397904,-4276130.76360613,501640.15063872,5216447.94770978,440.899504425955,-7584.04304560366,1084.18939672292,5.50841669093322,-0.646201702281534,-6.71971240615587,6758662.11722887,1.02769471546425,-3.6E-15,2.8900729497E-6,7.0E-16,-2.46403808350274,-0.142273855138574,-1.51314545425421,0.0,-0.0011344542745508,0.0,398335.161468169,3.2024E-12,983.369143358291,5.50841669093322,-0.646201702281534,-6.71971240615587
120.0,-2144732.0333194,3662345.3126043,5266057.24088062,-4239785.46485071,45786.449266332,5269357.68010073,770.149856360686,-7605.20775889381,678.777242699508,5.46236021841803,-0.0589893241270332,-6.78881750197499,6758662.11722883,1.0320699847175,-2.2E-15,1.18821901608E-5,1.0E-15,-2.46898393749583,-0.0891285719195108,-1.47032473601906,0.0,-0.0011344542745508,0.0,398280.483168024,3.312E-12,991.275655191297,5.46236021841803,-0.0589893241270332,-6.78881750197499
180.0,-2492166.12299056,3390599.0029,5294562.85672707,-4183783.25764152,-410279.480789291,5297837.08956815,1095.87688042975,-7591.11290731489,270.159254331849,5.39101509822693,0.52866574084301,-6.82652947798943,6758662.11722882,1.03644525395931,-6.6E-15,2.74378411862E-5,5.0E-16,-2.47163344785323,-0.0358222887881591,-1.42790970548241,0.0,-0.0011344542745508,0.0,398085.3786748,3.4417E-12,999.861374013802,5.39101509822693,0.52866574084301,-6.82652947798943
240.0,-2830524.93283794,3106195.85223943,5298517.62697299,-4108380.89026465,-864442.894077516,5301750.47079899,1416.5720940025,-7541.81319429643,-139.77448384783,5.29469509567264,1.11405482451904,-6.83265572642931,6758662.11722884,1.04082052320969,-6.7E-15,4.99883423126E-5,-6.0E-16,-2.47201970720767,0.0175481294070802,-1.38565662496518,0.0,-0.0011344542745508,0.0,397748.768104346,3.5916E-12,1009.03826093396,5.29469509567264,1.11405482451904,-6.83265572642931
300.0,-3158349.27068251,2810361.12607352,5277899.32207647,-4013924.98616908,-1314597.20057467,5281075.78379538,1730.74928789973,-7457.52569377281,-549.126655787512,5.17382866282785,1.69447627941292,-6.80714795491088,6758662.11722881,1.04519579246293,-9.5E-15,7.99328296596E-5,4.4E-15,-2.47014753600732,0.0708871708738461,-1.34332428943728,0.0,-0.0011344542745508,0.0,397271.883714379,3.7614E-12,1018.68603174665,5.17382866282785,1.69447627941292,-6.80714795491088
360.0,-3474217.0876188,2504360.59818322,5232799.48200484,-3900850.50203112,-1758653.68795,5235904.82755069,2036.95136094463,-7338.62906255864,-956.00139364551,5.02895729882105,2.26724769265305,-6.75010277495461,6758662.1172288,1.04957106170188,-6.9E-15,1.176363958847E-4,2.3E-15,-2.46599356037772,0.124098662252716,-1.30067025372995,0.0,-0.0011344542745508,0.0,396658.271816294,3.9505E-12,1028.66356558606,5.02895729882105,2.26724769265305,-6.75010277495461
420.0,-3776749.7157209,2189495.1251204,5163423.06959608,-3769678.77900142,-2194551.17459278,5166442.89226163,2333.75704093037,-7185.6620201973,-1358.5129738363,4.86073340379137,2.82971808104516,-6.66176165594907,6758662.11722882,1.05394633095227,-8.0E-15,1.634283793488E-4,3.4E-15,-2.45950583704049,0.177083733269008,-1.25744705315704,0.0,-0.0011344542745508,0.0,395913.754633969,4.1579E-12,1038.82359594937,4.86073340379137,2.82971808104516,-6.66176165594907
480.0,-4064617.96585945,1867095.10630415,5070087.60293968,-3621015.19485927,-2620265.54951359,5073007.89024476,2619.7874617098,-6999.32109896086,-1754.79449109399,4.66991762971392,3.37928001560926,-6.54251023745084,6758662.11722886,1.05832160020265,-8.9E-15,2.176008138867E-4,3.2E-15,-2.45060304250778,0.229738697373182,-1.21339840239373,0.0,-0.0011344542745508,0.0,395046.352534709,4.3822E-12,1049.02643605174,4.66991762971392,3.37928001560926,-6.54251023745084
540.0,-4336548.05765017,1538514.85367808,4953221.76924825,-3455546.42660972,-3033819.1554875,4956028.9680342,2893.71256636816,-6780.45766980691,-2143.00647189947,4.45737573340151,3.91338162296548,-6.39287699509342,6758662.11722893,1.06269686945303,-1.09E-14,2.804070468335E-4,3.0E-15,-2.43917326977576,0.28195278436844,-1.16825537618662,0.0,-0.0011344542745508,0.0,394066.16768517,4.6222E-12,1059.14947100887,4.45737573340151,3.91338162296548,-6.39287699509342
600.0,-4591327.35512146,1205126.89368974,4813363.52501608,-3274037.3348504,-3433289.97224998,4816044.60446428,3154.25730682291,-6530.07425328215,-2521.34538840932,4.22407493918389,4.42953841007283,-6.21353125792587,6758662.11722894,1.06707213870913,-1.22E-14,3.520605321057E-4,4.1E-15,-2.4250725143468,0.333605660525283,-1.12173261217407,0.0,-0.0011344542745508,0.0,392985.230809613,4.8764E-12,1069.09131825969,4.22407493918389,4.42953841007283,-6.21353125792587
660.0,-4827809.88150349,868316.225201669,4651157.68959356,-3077327.48299947,-3816820.55719276,4653700.20187414,3400.20761071366,-6249.32012759414,-2888.05203397396,3.97107982105512,4.92534485815692,-6.00528057770761,6758662.11722897,1.0714474079538,-4.8E-15,4.327338045339E-4,4.7E-15,-2.4081229917076,0.384564672847043,-1.07352463756111,0.0,-0.0011344542745508,0.0,391817.313344238,5.1433E-12,1078.7715032867,3.97107982105512,4.92534485815692,-6.00528057770761
720.0,-5044921.58717981,529474.557546531,4467353.04163684,-2866327.30620534,-4182626.70183817,4469745.17990409,3630.41608710307,-5939.48624933574,-3241.41972144966,3.69954771645439,5.39848573122372,-5.76906745354871,6758662.11722898,1.07582267720419,-4.5E-15,5.225576408568E-4,2.7E-15,-2.3881115222722,0.434681759523281,-1.02330251806595,0.0,-0.0011344542745508,0.0,390577.707881745,5.4213E-12,1088.12741165133,3.69954771645439,5.39848573122372,-5.76906745354871
780.0,-5241665.34592555,189994.551533034,4262798.93021112,-2642013.94644413,-4529005.76339734,4265029.58367307,3843.80744331259,-5601.99950563094,-3579.80226580135,3.41072368629182,5.84674704437561,-5.50596541829295,6758662.11722894,1.08019794645171,-9.7E-15,6.216204119022E-4,4.0E-15,-2.36478836266357,0.483789982400115,-0.970711173942727,0.0,-0.0011344542745508,0.0,389282.980377661,5.7085E-12,1097.11022049672,3.41072368629182,5.84674704437561,-5.50596541829295
840.0,-5417125.65492679,-148735.911961008,4038441.41462094,-2405426.77194363,-4854344.63194301,4040500.22042338,4039.38358616868,-5238.41631975528,-3901.62171297128,3.10593503833543,6.26802663725425,-5.21717449618087,6758662.11722895,1.08457321569067,-8.1E-15,7.299676297517E-4,3.2E-15,-2.3378670727536,0.531699666175107,-0.915367922159344,0.0,-0.0011344542745508,0.0,387950.698134415,6.0029E-12,1105.68096071401,3.10593503833543,6.26802663725425,-5.21717449618087
900.0,-5570473.01547434,-485339.412664834,3795318.94930193,-2157662.60064381,-5157127.29514867,3797196.34098099,4216.22838203827,-4850.41563555375,-4205.37577765728,2.7865854336178,6.66034429835598,-4.90401604458787,6758662.11722896,1.08894848494105,-5.4E-15,8.476016927775E-4,2.5E-15,-2.3070263056264,0.578194183065673,-0.856863105181748,0.0,-0.0011344542745508,0.0,386599.138079688,6.3018E-12,1113.80733938154,2.7865854336178,6.66034429835598,-4.90401604458787
960.0,-5700967.97210349,-818454.597994031,3534557.63232429,-1899870.64890394,-5435941.96416277,3536244.88459677,4373.51205128819,-4439.79130921346,-4489.6449535128,2.45414859808208,7.02185138672565,-4.56792699598511,6758662.11722897,1.09332375419143,-8.6E-15,9.744818305139E-4,2.6E-15,-2.27191480548844,0.623025515222046,-0.794764068043584,0.0,-0.0011344542745508,0.0,385246.980300878,6.6025E-12,1121.46132185438,2.45414859808208,7.02185138672565,-4.56792699598511
1020.0,-5805227.83494376,-1150370.40658468,3260968.62311897,-1628765.80766337,-5688712.68737207,3262454.37565599,4958.61791026787,-3930.94343728323,-4393.20797149736,24.5124366041494,11.225190970621,13.7810146402062,6797432.95474961,1.09769902344753,8.583244054081E-4,0.0011105238402319,0.075359234613505,-2.2321613860813,0.665909878663498,-0.728624235946939,0.0,-0.0011344542745508,0.0,383926.50200233,6.8993E-12,1128.57625824068,2.10436932630364,7.3498304232171,-4.21509887074843
1080.0,-5847406.49466702,-1527100.83735796,3022634.02684965,-1287373.91001581,-5904188.53389909,3023862.15188256,6416.69984937533,-3248.80472582409,-3556.78107663558,24.0712166196213,11.5029403806411,14.0896071662195,7436916.40308907,1.10207429269791,0.013724364865636,0.0012554822050803,0.292919793589007,-2.18739217347912,0.706523922081783,-0.65799955864494,0.0,-0.0011344542745508,0.0,383413.807347312,7.0856E-12,1134.62074927616,1.66314934177548,7.6275798332373,-3.90650634473512
1140.0,-5832041.58301888,-1942052.91064206,2815181.84163641,-884103.663279699,-6082553.18724494,2816102.76307272,6792.20868505064,-2733.97281711287,-3549.06103218209,1.14033082408187,7.84537286363248,-3.63225368007318,7708501.96641952,1.10644956193401,0.0372194642956166,0.0014084722004362,0.335578332972889,-2.13725775893291,0.744502334881927,-0.58247495196592,0.0,-0.0011344542745508,0.0,386466.629230306,6.8325E-12,1139.84003102043,1.14033082408187,7.84537286363248,-3.63225368007318
1200.0,-5792178.84290383,-2349814.95732544,2596186.45129215,-474836.167013237,-6232362.27974308,2596794.40854641,6844.74115944767,-2257.9984978855,-3758.27687356672,0.610414394678852,8.01186580276318,-3.33824758330599,7708501.96641953,1.11082483119011,0.0608649746707666,0.0015682016324242,0.332275171194003,-2.08147277298249,0.779438099832883,-0.501703234399391,0.0,-0.0011344542745508,0.0,393414.830921886,6.17E-12,1144.71962248865,0.610414394678852,8.01186580276318,-3.33824758330599
1260.0,-5729157.75875768,-2747204.41055717,2365181.75540196,-63371.0092019418,-6353344.20685631,2365473.93530399,6865.46968823479,-1773.58541272323,-3949.27931097352,0.0810578485386639,8.12656163944118,-3.02567736232431,7708501.96641952,1.11520010044049,0.0841627371850974,0.0017317711450986,0.327379882401571,-2.01986919896827,0.810887038531595,-0.415457865277846,0.0,-0.0011344542745508,0.0,404185.690355604,5.2365E-12,1149.15996046048,0.0810578485386639,8.12656163944118,-3.02567736232431
1320.0,-5643303.12811155,-3132655.90399893,2123290.54288232,348387.649593258,-6445086.12656692,2123265.59922489,6854.58087168127,-1283.85179963192,-4121.05315820656,-0.442667992187951,8.18924935616086,-2.69786176630552,7708501.96641951,1.11957536967945,0.106981094630621,0.0018936056462035,0.32092291078912,-1.95246179217972,0.838378556462925,-0.323697840628991,0.0,-0.0011344542745508,0.0,418719.816015272,4.1926E-12,1153.02211583032,-0.442667992187951,8.18924935616086,-2.69786176630552
1380.0,-5535069.27939054,-3504696.52178102,1871690.45350028,758555.849284668,-6507362.185402,1871348.49845695,6812.55912739825,-791.904358009967,-4272.78689490406,-0.955925212817838,8.20051890421705,-2.35825643336718,7708501.96641953,1.12395063893269,0.129193747633342,0.0020446000472354,0.312943877729808,-1.87951878173284,0.861434308947364,-0.226637914824924,0.0,-0.0011344542745508,0.0,436934.424204182,3.1804E-12,1156.1777631311,-0.955925212817838,8.20051890421705,-2.35825643336718
1440.0,-5405032.77587718,-3861957.44012677,1611601.57723371,1165287.21554927,-6540131.40867603,1610944.15915824,6740.16952667161,-300.791468321912,-4403.87827685502,-1.45421260851045,8.16171449313385,-2.01036729537104,7708501.96641955,1.12832590818593,0.150681116749724,0.0021714054254,0.303490930829946,-1.80162410892884,0.87959551424681,-0.124810393801377,0.0,-0.0011344542745508,0.0,458724.440499494,2.297E-12,1158.53454296739,-1.45421260851045,8.16171449313385,-2.01036729537104
1500.0,-5253883.52942296,-4203183.54067053,1344273.87083916,1566789.13803109,-6543532.88222661,1343303.93928306,6638.43489028069,186.540084072445,-4513.93482066242,-1.93345266256364,8.07486519188707,-1.65766695402479,7708501.96641958,1.13270117743631,0.171331577102277,0.0022558881890439,0.29261999458997,-1.71971120982424,0.892457591777031,-0.0190985003969277,0.0,-0.0011344542745508,0.0,483963.926593541,1.5871E-12,1160.04555894777,-1.93345266256364,8.07486519188707,-1.65766695402479
1560.0,-5082414.61530902,-4527240.8719219,1070974.69135438,1961337.42916174,-6517878.47408019,1069696.55039161,6508.60824267598,667.283654503444,-4602.76945023159,-2.39005894175413,7.94259748303498,-1.30351757286342,7708501.96641953,1.13707644668384,0.191042544485926,0.0022747794755212,0.280393956198231,-1.63504724250391,0.899707930097659,0.0892797942445784,0.0,-0.0011344542745508,0.0,512507.788346276,1.0518E-12,1160.70564877941,-2.39005894175413,7.94259748303498,-1.30351757286342
1620.0,-4891511.10457293,-4833121.91336479,792976.723058834,2347289.22139647,-6463643.40925802,791395.97420735,6352.14184840805,1138.80562782925,-4670.39178607742,-2.82098250493096,7.76803506334917,-0.951103160770107,7708501.96641951,1.14145171592279,0.209721396173541,0.0021995224885677,0.266881820019991,-1.54915518001026,0.901159884053879,0.198850058322492,0.0,-0.0011344542745508,0.0,544193.712660996,6.715E-13,1160.54089845287,-2.82098250493096,7.76803506334917,-0.951103160770107
1680.0,-4682138.23847519,-5119948.67197222,511546.540906618,2723093.93581758,-6381455.05678276,509670.017080124,6170.65409884112,1598.67205043365,-4716.99570722808,-3.22373724156654,7.55469139398501,-0.603373314948754,7708501.96641943,1.14582698517889,0.227286214285001,0.0019963163025801,0.252157862039621,-1.46367961800108,0.896775125160469,0.308015962730531,0.0,-0.0011344542745508,0.0,578844.275494158,4.15E-13,1159.5971736945,-3.22373724156654,7.55469139398501,-0.603373314948754
1740.0,-4455329.26210834,-5386973.70896242,227934.012509221,3087302.23055515,-6272080.31410954,225769.704518766,5965.89548595363,2044.66873137454,-4742.94391381812,-3.59640523272775,7.30636030334364,-0.262999630773673,7708501.96641937,1.15020225442927,0.243666344335293,0.0016263463940425,0.236300811259843,-1.38022338332082,0.886668423894424,0.415223039436622,0.0,-0.0011344542745508,0.0,616269.161070705,2.494E-13,1157.93087341401,-3.59640523272775,7.30636030334364,-0.262999630773673
1800.0,-4212173.21671352,-5633579.24854781,-56637.3045485553,3438572.90910863,-6136411.98137748,-59080.3273932855,5739.71480469066,2474.81484218879,-4748.75026559209,-3.93762417753027,7.02700940763888,0.0676548474350824,7708501.96641936,1.15457752367966,0.258802766219394,0.0010461852265834,0.219393079397892,-1.30019434193306,0.871093526058779,0.519112241863613,0.0,-0.0011344542745508,0.0,656267.433094439,1.466E-13,1155.60276091664,-3.93762417753027,7.02700940763888,0.0676548474350824
1860.0,-3953802.95782578,-5859274.56645435,-340978.659950108,3775677.83301295,-5975454.50797091,-343690.333609753,5494.02658094314,2887.37030825947,-4735.06067115392,-4.24655960788866,6.72068033200718,0.386553501881869,7708501.96641936,1.15895279293004,0.272648279224807,2.083408667193E-4,0.201520053760004,-1.22469741385079,0.850414003335434,0.61862830508475,0.0,-0.0011344542745508,0.0,698629.802102562,8.5E-14,1152.67441984297,-4.24655960788866,6.72068033200718,0.386553501881869
1920.0,-3681383.63117265,-6063691.88399918,-623943.437737055,4097504.93793584,-5790309.46967603,-626912.790115277,5230.78054554889,3280.83749636354,-4702.63326188444,-4.52286501171445,6.39139879123357,0.691992314043923,7708501.96641929,1.16332806216899,0.28516750652762,-9.380720718229E-4,0.182769461543542,-1.15448854888537,0.82506637539456,0.713066157615602,0.0,-0.0011344542745508,0.0,743140.838628063,4.91E-14,1149.20648206184,-4.52286501171445,6.39139879123357,0.691992314043923
1980.0,-3396101.79633413,-6246581.01121774,-904433.290500596,4403059.49578378,-5582161.09951544,-907648.52965264,4951.93378228457,3653.95785752251,-4652.31851207666,-4.76663311715779,6.04309662127877,0.982595748325601,7708501.96641926,1.16770333142223,0.296336727923722,-0.0024465669232373,0.163230807574818,-1.08998626277067,0.79552320309565,0.802059791126272,0.0,-0.0011344542745508,0.0,789581.088923885,2.86E-14,1145.25786268466,-4.76663311715779,6.04309662127877,0.982595748325601
2040.0,-3099155.34384105,-6407802.98840788,-1181403.09485842,4691463.79724296,-5352262.15260012,-1184851.69749281,4659.42598446178,4005.70428150186,-4585.03987289739,-4.97834149683985,5.6795469234812,1.25730403732327,7708501.96641922,1.17207860067547,0.306143552232693,-0.0043724532891739,0.142994882101409,-1.03132249141816,0.762261804398718,0.885531836609415,0.0,-0.0011344542745508,0.0,837729.058055774,1.71E-14,1140.88547773095,-4.97834149683985,5.6795469234812,1.25730403732327
2100.0,-2791744.31170869,-6547322.96881712,-1453864.77330114,4961955.44971111,-5101920.33838198,-1457533.57247459,4355.15807252112,4335.26996353665,-4501.77538192442,-5.15879538261872,5.30431265473494,1.51535368261547,7708501.96641926,1.17645386991157,0.314586442905028,-0.0067719669672684,0.122153331051218,-0.978411256793013,0.725741281800815,0.963625360360805,0.0,-0.0011344542745508,0.0,887363.03360193,1.06E-14,1136.14414372088,-5.15879538261872,5.30431265473494,1.51535368261547
2160.0,-2475062.66595314,-6665202.57335097,-1720890.05190948,5213884.49573511,-4832485.50549104,-1724765.32296788,4040.97426275298,4642.05458244911,-4403.54060082547,-5.30907019389041,4.9207083088619,1.75625297704901,7708501.96641928,1.1808291391591,0.321674111926611,-0.0097013877155284,0.100798278333467,-0.931017970823665,0.686388019310122,1.0366350609201,0.0,-0.0011344542745508,0.0,938262.731493386,7.0E-15,1131.08651397173,-5.30907019389041,4.9207083088619,1.75625297704901
2220.0,-2150291.0738505,-6761591.9286253,-1981612.24139678,5446709.55823724,-4545337.71737199,-1985679.7853703,3718.64754049273,4925.64855135624,-4291.37312825987,-5.43045582894093,4.53177380543059,1.9797542442054,7708501.96641927,1.18520440840948,0.327424798236315,-0.0132161688208833,0.0790219883396195,-0.88881923573741,0.644588299077311,1.10494801703022,0.0,-0.0011344542745508,0.0,990210.753279469,4.8E-15,1125.76299710544,-5.43045582894093,4.53177380543059,1.9797542442054
2280.0,-1818590.67096546,-6836721.57505173,-2235227.14080794,5659993.21260907,-4241876.31309831,-2239472.36462065,3389.86838236776,5185.81603729287,-4166.31883852133,-5.52440429551919,4.14025933333924,2.1858243086309,7708501.96641929,1.18957967766558,0.331865447650255,-0.0173700997110622,0.0569165567309573,-0.851449212395454,0.600686145088924,1.1689979245819,0.0,-0.0011344542745508,0.0,1042993.85100929,3.5E-15,1120.22164866916,-5.52440429551919,4.14025933333924,2.1858243086309
2340.0,-1481097.79485691,-6890894.4072321,-2480993.16965066,5853396.77386718,-3923510.00837114,-2485401.16264932,3056.23649146635,5422.47736358671,-4029.41991223009,-5.59248179995359,3.74861967528213,2.37461448534552,7708501.96641928,1.1939549469131,0.33503081180411,-0.0222145198394373,0.0345736187009566,-0.818532670354935,0.554984582821014,1.2292327196693,0.0,-0.0011344542745508,0.0,1096404.00179801,2.7E-15,1114.50804522542,-5.59248179995359,3.74861967528213,2.37461448534552
2400.0,-1138919.64093726,-6924477.78148741,-2718230.83604983,6026674.6711398,-3591648.05760701,-2722786.44249002,2719.25525483416,5635.69131698582,-3881.70465532858,-5.6363259996209,3.35901644492613,2.54643113402359,7708501.96641926,1.19833021615206,0.336962483942302,-0.0277975989311667,0.0120840659301124,-0.789706813429729,0.507748868329553,1.2860935064045,0.0,-0.0011344542745508,0.0,1150239.29891423,2.1E-15,1108.66515487432,-5.6363259996209,3.35901644492613,2.54643113402359
2460.0,-793130.77990609,-6937895.89992004,-2946321.64656899,6179668.56327159,-3247692.46952946,-2951009.53381672,2380.32860142131,5825.63778723158,-3724.17904720263,-5.65760876724965,2.97332667614995,2.70170758185773,7708501.96641927,1.2027054854053,0.33770788952606,-0.0341636955130953,-0.0104622338825972,-0.764634551662555,0.459210660774962,1.34000213284712,0.0,-0.0011344542745508,0.0,1204304.66988084,1.7E-15,1102.73321659696,-5.65760876724965,2.97332667614995,2.70170758185773
2520.0,-444770.466408097,-6931622.55568693,-3164706.5584978,6312301.32957923,-2893031.24578778,-3169511.28081027,2040.75992675415,5992.60107531555,-3557.8199173758,-5.65800452469648,2.59315628708218,2.84097799385258,7708501.96641925,1.20708075465283,0.337319249593787,-0.0413528025366887,-0.0329767180286343,-0.743011718762826,0.409572477187508,1.3913549324269,0.0,-0.0011344542745508,0.0,1258412.43469351,1.3E-15,1096.74963731841,-5.65800452469648,2.59315628708218,2.84097799385258
2580.0,-94840.6644226085,-6906174.3016423,-3372884.06846874,6424571.04980673,-2529032.59453505,-3377790.12630854,1701.75275421321,6136.95412187009,-3383.5696216381,-5.63916397906723,2.21985707659317,2.96485356943808,7708501.96641926,1.21145602389464,0.335852534552349,-0.049400085896745,-0.0553724104229349,-0.72457026610702,0.359012042573761,1.4405206186971,0.0,-0.0011344542745508,0.0,1312382.71893431,1.1E-15,1090.74891208837,-5.63916397906723,2.21985707659317,2.96485356943808
2640.0,255695.290400919,-6862104.08515737,-3570408.02295659,6516545.06793067,-2157040.05813176,-3575399.91786973,1364.41281800721,6259.14383145451,-3202.33207098067,-5.6026929311735,1.8545460761757,3.07400127477798,7708501.96641924,1.21583129314788,0.333366425556663,-0.0583355187909275,-0.0775642011424676,-0.709078951570653,0.307686336362942,1.48784083694329,0.0,-0.0011344542745508,0.0,1366043.73742794,9.0E-16,1084.76257002975,-5.6026929311735,1.8545460761757,3.07400127477798
2700.0,605913.469560625,-6799995.37440566,-3756885.22714146,6588354.21623697,-1778368.48560744,-3761947.51229174,1029.75127623091,6359.67760319847,-3014.96995843424,-5.55013571812653,1.49812625854808,3.16912518246676,7708501.96641923,1.22020656239826,0.329921299794439,-0.0681836121928002,-0.0994691187977608,-0.696342595273999,0.255735255995879,1.53363232556687,0.0,-0.0011344542745508,0.0,1419231.96429653,7.0E-16,1078.81914695147,-5.55013571812653,1.49812625854808,3.16912518246676
2760.0,954929.646609262,-6720456.78719264,-3931972.91927393,6640187.25942642,-1394300.77557575,-3937090.24577548,698.688790760701,6439.11112372053,-2822.30302796271,-5.48296278964703,1.15130778265405,3.25095038342848,7708501.96641927,1.22458183164864,0.3255782547939,-0.078963239260251,-0.121006588915807,-0.686200627551789,0.203284890039218,1.5781899904474,0.0,-0.0011344542745508,0.0,1471792.20495744,6.0E-16,1072.94418455766,-5.48296278964703,1.15130778265405,3.25095038342848
2820.0,1301899.18132828,-6624117.2216422,-4095376.16845613,6672285.60363253,-1006085.31331577,-4100533.32768395,372.06024169011,6498.03743415395,-2625.10723416915,-5.40256189228755,0.81462912366204,3.32020935706643,7708501.96641929,1.22895710090188,0.320398185297605,-0.090687549308521,-0.142098670457516,-0.678525402884966,0.150450433074824,1.62179045076546,0.0,-0.0011344542745508,0.0,1523577.58490861,5.0E-16,1067.16025579628,-5.40256189228755,0.81462912366204,3.32020935706643
2880.0,1646016.5598529,-6511621.47861788,-4246845.24492934,6684938.30224572,-614934.026100887,-4252027.20701526,50.619875593541,6537.07724871954,-2424.11465014982,-5.31023233849497,0.488477590039227,3.37763063142523,7708501.96641931,1.23333237013798,0.314440924311347,-0.10336396507892,-0.162670262253669,-0.673220579538438,0.097338794876923,1.66469579243632,0.0,-0.0011344542745508,0.0,1574449.46917388,4.0E-16,1061.48701586354,-5.31023233849497,0.488477590039227,3.37763063142523
2940.0,1986514.65158878,-6383626.35883581,-4386173.00373336,6678477.37932538,-222020.983022372,-4391364.95247394,-264.95328231546,6556.8704765489,-2220.01399203311,-5.20718186044714,0.173108864456405,3.42392953129018,7708501.96641923,1.23770763938837,0.307764457691883,-0.116994255463753,-0.182649271479647,-0.670219748590571,0.0440509652857336,1.70715738460212,0.0,-0.0011344542745508,0.0,1624277.32513552,4.0E-16,1055.94127843976,-5.20718186044714,0.173108864456405,3.42392953129018
3000.0,2322663.74026636,-6240797.21177035,-4513192.31509896,6653273.48206525,171518.530965372,-4518379.67951342,-574.049893106094,6558.06888020677,-2013.4516414597,-5.09452558519366,-0.131334680092936,3.45980079474426,7708501.96641922,1.24208290863875,0.300424219161595,-0.131574674630343,-0.201966737210237,-0.669485420756583,-0.0093158009651529,1.74941969202876,0.0,-0.0011344542745508,0.0,1672938.54024412,3.0E-16,1050.53711666252,-5.09452558519366,-0.131334680092936,3.45980079474426
3060.0,2653770.37662476,-6083804.91063711,-4627773.56821542,6609731.8661271,564588.532669974,-4632942.0509972,-876.124760611684,6541.32979238502,-1805.03306062473,-4.97328671236141,-0.424807042758964,3.48591283398995,7708501.96641918,1.2464581778777,0.292472470035374,-0.147096157637005,-0.220556903473111,-0.671008431317333,-0.0626659151217822,1.79172406419334,0.0,-0.0011344542745508,0.0,1720318.20483044,3.0E-16,1045.28598812016,-4.97328671236141,-0.424807042758964,3.48591283398995
3120.0,2979176.09754133,-5913323.22487885,-4729822.26910035,6548288.71151423,956132.510908816,-4734957.87220639,-1170.69137027298,6507.31080538925,-1595.32450785421,-4.84439852428242,-0.707343113433674,3.50290342090794,7708501.96641918,1.25083344713094,0.283957765332322,-0.163544562152513,-0.238357237903952,-0.674807792198897,-0.115903437373443,1.83431250886395,0.0,-0.0011344542745508,0.0,1766308.86899988,2.0E-16,1040.19688257855,-4.84439852428242,-0.707343113433674,3.50290342090794
3180.0,3298256.05031362,-5730026.56016655,-4819276.74816873,6469407.76184455,1345133.30510717,-4824365.79578718,-1457.31658041882,6456.66534525065,-1384.85497454891,-4.70870740768393,-0.979044665484887,3.51137658905629,7708501.96641921,1.25520871638133,0.274924505441422,-0.180900945763709,-0.255308393944437,-0.680930997766557,-0.168930048815769,1.87743146920792,0.0,-0.0011344542745508,0.0,1810810.28139922,2.0E-16,1035.27649038402,-4.70870740768393,-0.979044665484887,3.51137658905629
3240.0,3610417.5534431,-5534588.03667185,-4896105.98871936,6373577.27622681,1730612.74268119,-4901135.14784989,-1735.61551825101,6390.03904263224,-1174.11827637842,-4.56697661377535,-1.2400677956486,3.51190055930943,7708501.96641919,1.25958398563171,0.265412570225215,-0.199141868555436,-0.271354116371879,-0.689454770483414,-0.22164294920337,1.92133562113967,0.0,-0.0011344542745508,0.0,1853729.11653502,2.0E-16,1030.5293885788,-4.56697661377535,-1.2400677956486,3.51190055930943
3300.0,3915098.62345811,-5327677.87550423,-4960307.58386692,6261307.28027257,2111631.0804402,-4965263.88273907,-2005.2467177671,6308.066815353,-963.575242646306,-4.41989052818162,-1.49061175145604,3.50500651427626,7708501.96641915,1.26395925488209,0.255457030471798,-0.218239711131839,-0.286441091684279,-0.700486207845003,-0.273932616611774,1.96629169126939,0.0,-0.0011344542745508,0.0,1894978.69630438,2.0E-16,1025.95824080304,-4.41989052818162,-1.49061175145604,3.50500651427626
3360.0,4211766.49095427,-5109962.06492107,-5011905.82638927,6133127.10092807,2487286.29025426,-5016776.67093396,-2265.90752438176,6211.37058164993,-753.655957671283,-4.26805926279778,-1.73090906411236,3.49118806563252,7708501.96641917,1.26833452412105,0.24508793000987,-0.238162998968589,-0.300518746393277,-0.714164255873806,-0.325680364523664,2.01258226224083,0.0,-0.0011344542745508,0.0,1934478.7104803,1.0E-16,1021.56400630824,-4.26805926279778,-1.73090906411236,3.49118806563252
3420.0,4499916.12560411,-4882101.27918602,-5050949.93345983,5989583.16864097,2856713.22453766,-5055723.12203746,-2517.32978084067,6100.55752868759,-544.762016808666,-4.11202341783965,-1.96121689049296,3.47090127753389,7708501.96641911,1.27270979337429,0.23433013062646,-0.258876724886057,-0.313538997540297,-0.730661378200777,-0.376755632629187,2.06050947518218,0.0,-0.0011344542745508,0.0,1972154.9400777,1.0E-16,1017.34615292298,-4.11202341783965,-1.96121689049296,3.47090127753389
3480.0,4779068.78764577,-4644750.02346481,-5077512.40622885,5831237.06975454,3219082.69274842,-5082176.14280559,-2759.27580088961,5976.21886686673,-337.268767390821,-3.95225889402734,-2.1818094601254,3.4445651276295,7708501.9664191,1.27708506262181,0.223203211187678,-0.28034266245771,-0.325455960721022,-0.750185201971143,-0.427012952128958,2.11039844859568,0.0,-0.0011344542745508,0.0,2007938.98680954,1.0E-16,1013.30286870748,-3.95225889402734,-2.1818094601254,3.4445651276295
3540.0,5048770.61799082,-4398555.98176002,-5091687.52263609,5658663.83183328,3573600.47612698,-5096230.42858732,-2991.53463079696,5838.92900683806,-131.527511451482,-3.78918166209262,-2.39297152016871,3.41256230440274,7708501.9664191,1.28146033186077,0.211721412052956,-0.302519664261631,-0.336225621585186,-0.772979787652264,-0.476288538459357,2.16260009539867,0.0,-0.0011344542745508,0.0,2041768.01121986,1.0E-16,1009.43126735172,-3.78918166209262,-2.39297152016871,3.41256230440274
3600.0,5308591.27907039,-4144159.54469585,-5093589.96062308,5472450.42477025,3919506.30430375,-5098001.08533053,-3213.91859397246,5689.24510253854,72.132347305896,-3.62315241992132,-2.59499267221432,3.37524025534727,7708501.96641915,1.28583560110829,0.199893615968866,-0.325363939998197,-0.345805477202477,-0.799325971019488,-0.524396490350908,2.21749281730801,0.0,-0.0011344542745508,0.0,2073584.48154725,1.0E-16,1005.72758298962,-3.62315241992132,-2.59499267221432,3.37524025534727
3660.0,5558122.65510121,-3882193.49653185,-5083353.54800499,5273194.4609259,4256072.81419423,-5087622.37840187,-3426.26011034238,5527.70690984505,273.401225140597,-3.45448108699977,-2.78816249817312,3.33291241470736,7708501.96641914,1.29021087036154,0.187723357095961,-0.348829310592838,-0.354154153903869,-0.829539942443573,-0.571124623469867,2.27548226894975,0.0,-0.0011344542745508,0.0,2103335.9349186,1.0E-16,1002.18735099646,-3.45448108699977,-2.78816249817312,3.33291241470736
3720.0,5796977.61836636,-3613282.84303433,-5061130.13461152,5061503.07812846,4582604.5087575,-5065246.60381813,-3628.40877961729,5354.83691645516,471.987357463368,-3.2834311018406,-2.9727663777403,3.28585955214287,7708501.96641914,1.29458613960906,0.17520885062246,-0.372867435449494,-0.361231008287208,-0.863968846371106,-0.616230053211639,2.33699799842941,0.0,-0.0011344542745508,0.0,2130974.75209259,1.0E-16,998.8055723198,-3.2834311018406,-2.9727663777403,3.28585955214287
3780.0,6024788.86719485,-3338044.76296919,-5027088.58186771,4837991.9900712,4898436.73070264,-5031043.07704832,-3820.22871593512,5171.14070426839,667.614881358525,-3.11022350114332,-3.14908190628707,3.23433119476285,7708501.96641915,1.29896140886516,0.162343036516546,-0.397428010997105,-0.366995718094057,-0.902981707781561,-0.659434782450528,2.40248529190138,0.0,-0.0011344542745508,0.0,2156457.94665552,1.0E-16,995.576859863103,-3.11022350114332,-3.14908190628707,3.23433119476285
3840.0,6241207.84032203,-3057088.66691483,-4981413.86471735,4603284.68942535,5202934.66406408,-4985197.23427841,-4001.59612041609,4977.10751080352,860.022004659034,-2.93504077001106,-3.31737582900573,3.17854708459928,7708501.96641908,1.30333667810126,0.149113632336669,-0.422458939568288,-0.371407869705868,-0.946953476873355,-0.700421766384402,2.47239003141125,0.0,-0.0011344542745508,0.0,2179746.96931302,1.0E-16,992.495566297428,-2.93504077001106,-3.31737582900573,3.17854708459928
3900.0,6445903.7099113,-2771016.35097874,-4924306.28066138,4358011.78980815,5495492.37470572,-4927909.84090064,-4172.39707778816,4773.21096102162,1048.95926277358,-2.75803046098619,-3.47790141435641,3.11869864188593,7708501.96641907,1.30771194735164,0.135503191640525,-0.447906468466434,-0.37442654915815,-0.996239580882421,-0.738832233359828,2.54713397055395,0.0,-0.0011344542745508,0.0,2200807.52771061,1.0E-16,989.555893395784,-2.75803046098619,-3.47790141435641,3.11869864188593
3960.0,6638562.45702114,-2480422.23041231,-4855980.76066011,4102810.493576,5775531.89923075,-4859396.30196653,-4332.52556331581,4559.90994532469,1234.18786290499,-2.57930858633727,-3.63089619705212,3.05495041160269,7708501.96641905,1.31208721660202,0.121489166408607,-0.4737152998232,-0.376009943921581,-1.0511383985939,-0.774265431794055,2.62707785709776,0.0,-0.0011344542745508,0.0,2219609.42204839,1.0E-16,986.75198348142,-2.57930858633727,-3.63089619705212,3.05495041160269
4020.0,6818886.03012254,-2185893.64400541,-4776666.27670569,3838324.173228,6042502.39044087,-4779886.06940069,-4481.88164669379,4337.6496234763,1415.47811413324,-2.39896279324657,-3.77658002778338,2.98744147678551,7708501.96641903,1.31646248583812,0.10704397404433,-0.499828672540367,-0.376114963339096,-1.11184005836882,-0.806282392216612,2.71247081523811,0.0,-0.0011344542745508,0.0,2236126.39662374,1.0E-16,984.077993957073,-2.39896279324657,-3.77658002778338,2.98744147678551
4080.0,6986591.58873716,-1888011.21807606,-4686605.34098921,3565202.05498488,6295879.32638293,-4689622.14089132,-4620.36988027282,4106.86253775671,1592.60794100417,-2.21705533558922,-3.91515337349998,2.91628682722851,7708501.96641901,1.3208377550885,0.0921350719650896,-0.526188418272587,-0.374696886630185,-1.17836259759189,-0.834415591626914,2.80338703575529,0.0,-0.0011344542745508,0.0,2250336.00733561,1.0E-16,981.528156132457,-2.21705533558922,-3.91515337349998,2.91628682722851
4140.0,7141410.8335228,-1587349.27993877,-4586053.5917449,3284098.9938397,6535163.78911709,-4588860.64553164,-4747.89785990323,3867.96982184897,1765.36147771658,-2.03362585910462,-4.04679581826311,2.84157867655196,7708501.966419,1.32521302433889,0.0767250456089734,-0.552734994071728,-0.371709048869897,-1.25048136243557,-0.858186313691814,2.89965566210666,0.0,-0.0011344542745508,0.0,2262219.50510881,1.0E-16,979.096819536858,-2.03362585910462,-4.04679581826311,2.84157867655196
4200.0,7283089.42315005,-1284476.31439273,-4475279.46103893,2995675.33004823,6759881.81861636,-4477870.51147231,-4864.37494776536,3621.38249477655,1933.52773969289,-1.84869401914472,-4.17166472042213,2.76338772430657,7708501.96641897,1.32958829359213,0.0607717189161348,-0.579407495016823,-0.367102577412413,-1.32766428321176,-0.877130650596936,3.00079651584372,0.0,-0.0011344542745508,0.0,2271761.73514344,1.0E-16,976.778483210042,-1.84869401914472,-4.17166472042213,2.76338772430657
4260.0,7411386.47940396,-979955.454135815,-4354563.91996644,2700596.81762861,6969583.84664375,-4356933.21104106,-4969.71114776372,3367.50283170703,2096.8993692157,-1.66226195201857,-4.28989398715655,2.6817643629452,7708501.96641902,1.33396356284251,0.0442283000751421,-0.60614365093814,-0.360826193943926,-1.40903226039795,-0.890833208010348,3.10598090373264,0.0,-0.0011344542745508,0.0,2278951.0518591,1.0E-16,974.567815179264,-1.66226195201857,-4.28989398715655,2.6817643629452
4320.0,7526074.18117161,-674344.998035832,-4224200.29691709,2399534.61596674,7163844.21502855,-4226342.57898335,-5063.81612536781,3106.72580562657,2255.27145188653,-1.47431662238478,-4.40159293227633,2.59673983222672,7708501.96641897,1.33833883208147,0.0270435796239081,-0.632879812256887,-0.352826100791403,-1.49336613008359,-0.898964784294559,-3.06914632521991,0.0,-0.0011344542745508,0.0,2283779.249381,1.0E-16,972.459661453872,-1.47431662238478,-4.40159293227633,2.59673983222672
4380.0,7626937.44840238,-368198.950959694,-4084494.16475937,2093165.3360698,7342260.78246297,-4086404.69966765,-5146.59836516566,2839.44059580041,2408.44040089031,-1.28483207029521,-4.50684518762954,2.50832732601824,7708501.96641897,1.34271410133185,0.0091622029142143,-0.659550931053902,-0.343045974330338,-1.57917482047755,-0.901317468987387,-2.95965701198486,0.0,-0.0011344542745508,0.0,2286241.50740539,0.0,970.449045735897,-1.28483207029521,-4.50684518762954,2.50832732601824
4440.0,7713773.71729008,-62067.578348216,-3935763.29296194,1782171.13337109,7504454.6237451,-3937437.85926754,-5217.96446084145,2566.03216058888,2556.20290641297,-1.0937715824661,-4.60570764258336,2.41652305861708,7708501.96641896,1.34708937058509,-0.0094749555022398,-0.686090544801987,-0.331427093325499,-1.66482213993827,-0.897829261427078,-2.85032437043657,0.0,-0.0011344542745508,0.0,2286336.35227776,0.0,968.531160959012,-1.0937715824661,-4.60570764258336,2.41652305861708
4500.0,7786392.80791233,243502.028524621,-3778337.66081723,1467239.83926189,7650069.82529334,-3779772.5590799,-5277.81853379054,2286.88287360406,2698.3549480468,-0.901089813223831,-4.69820938987767,2.3213072997004,7708501.96641895,1.35146463983547,-0.0289302818996455,-0.712430771796175,-0.317908635720824,-1.74868810198843,-0.888591785372205,-2.74272006639717,0.0,-0.0011344542745508,0.0,2284065.63312254,1.0E-16,966.701353656887,-0.901089813223831,-4.69820938987767,2.3213072997004
4560.0,7844616.88612084,547965.382808742,-3612559.52804392,1149065.12370726,7778773.38073199,-3613751.58625005,-5326.06177813632,2002.37422338467,2834.69086862184,-0.706734881409122,-4.78435065978087,2.22264538889712,7708501.96641896,1.35583990908586,-0.0492687376780121,-0.738502329231219,-0.302428183554284,-1.82932628600195,-0.873838949221743,-2.63824179637947,0.0,-0.0011344542745508,0.0,2279434.51286895,1.0E-16,964.955102032727,-0.706734881409122,-4.78435065978087,2.22264538889712
4620.0,7888280.52156841,850780.033025153,-3438783.55911735,828346.681388648,7890255.19038977,-3439730.1382471,-5362.59213151617,1712.8885777454,2965.00250861677,-0.510650470369332,-4.86410172797702,2.12048874282302,7708501.96641899,1.36021517832195,-0.0705569513601597,-0.764234587124585,-0.284922481900792,-1.90558044268662,-0.853919690649244,-2.53799630838949,0.0,-0.0011344542745508,0.0,2272451.47402695,1.0E-16,963.287988464943,-0.510650470369332,-4.86410172797702,2.12048874282302
4680.0,7917230.84421248,1151404.99887452,-3257376.99770425,505790.433804928,7984228.16864607,-3258075.99746007,-5387.30407265782,1418.81101472766,3089.07840112846,-0.312777959058599,-4.93740178607332,2.01477586928103,7708501.96641896,1.36459044757234,-0.0928620359740069,-0.789555673847104,-0.26532850335058,-1.97664027200836,-0.829261763809036,-2.44274323875131,0.0,-0.0011344542745508,0.0,2263128.33907647,1.0E-16,961.695667039224,-0.312777959058599,-4.93740178607332,2.01477586928103
4740.0,7931327.8017461,1449300.21889647,-3068719.88755136,182108.739651252,8060428.46319347,-3069169.75225881,-5400.08854847682,1120.53122264008,3206.70302831929,-0.113058613217528,-5.00415776712799,1.90543340525043,7708501.96641891,1.36896571681986,-0.1162500755278,-0.814392651825952,-0.243584873446364,-2.04203779789163,-0.800334398101605,-2.3528983347908,0.0,-0.0011344542745508,0.0,2251480.30533933,1.0E-16,960.173826546639,-0.113058613217528,-5.00415776712799,1.90543340525043
4800.0,7930444.52111546,1743926.01298893,-2873205.33609152,-141979.394421507,8118615.79044578,-2873405.06077695,-5400.83303519405,818.445472024754,3317.6561413183,0.0885641333770924,-5.0642431222649,1.79237719731061,7708501.96641893,1.37334098605596,-0.140784223584048,-0.838671784861464,-0.219633713190172,-2.10160114533424,-0.767615896979814,-2.26857925152077,0.0,-0.0011344542745508,0.0,2237525.99420665,1.0E-16,958.718149238636,0.0885641333770924,-5.0642431222649,1.79237719731061
4860.0,7914467.77739454,2034742.56664466,-2671239.81687786,-465748.110888594,8158573.89149562,-2671188.95352156,-5389.42173980449,512.958662504384,3421.7121467352,0.292142276527808,-5.11749654836933,1.67551344530177,7708501.96641893,1.37771625531206,-0.166522361580688,-0.862318921163268,-0.193422950108879,-2.15538733835645,-0.731569320368898,-2.18967229715693,0.0,-0.0011344542745508,0.0,2221287.51459155,1.0E-16,957.324265479705,0.292142276527808,-5.11749654836933,1.67551344530177
4920.0,7883298.5733615,2321209.44370789,-2463243.50672827,-788464.514932687,8180111.11320101,-2462942.17068497,-5365.73595012431,204.486447339229,3518.63956426302,0.497720685929361,-5.16372067116861,1.55473993233842,7708501.96641891,1.38209152455673,-0.193514277141834,-0.885260018214052,-0.164909136816919,-2.20361225389053,-0.692626738016447,-2.11590198491919,0.0,-0.0011344542745508,0.0,2202790.54046759,1.0E-16,955.987704293943,0.497720685929361,-5.16372067116861,1.55473993233842
4980.0,7836852.8343957,2602785.13123258,-2249650.65315188,-1109388.51373516,8183061.1191386,-2249099.52972354,-5329.65454360711,-106.542561877406,3608.20056130586,0.705334362925385,-5.20268069282088,1.42994736678161,7708501.9664189,1.38646679380997,-0.221798346159484,-0.907421836268772,-0.134060792528422,-2.24658896637264,-0.651180866937731,-2.04689214805516,0.0,-0.0011344542745508,0.0,2182064.40233289,1.0E-16,954.703839660323,0.705334362925385,-5.20268069282088,1.42994736678161
5040.0,7775062.22219371,2878926.62665501,-2030909.96722487,-1427772.69135962,8167283.73528819,-2030110.31836327,-5281.05466714549,-419.684508664083,3690.15057218343,0.915005477455018,-5.2341030185986,1.30102086444269,7708501.96641888,1.39084206306035,-0.251397739904786,-0.928732825843579,-0.100862245544768,-2.28467924016137,-0.607582233804694,-1.98221385160371,0.0,-0.0011344542745508,0.0,2159142.19240946,1.0E-16,953.470168702139,0.915005477455018,-5.2341030185986,1.30102086444269
5100.0,7697875.07240521,3149089.07238877,-1807485.03657902,-1742862.22990529,8132665.93538622,-1806438.70768734,-5219.81260215539,-734.477922574011,3764.23801124539,1.12674014911376,-5.25767388351024,1.16784160213003,7708501.96641886,1.3952173322993,-0.282316232111393,-0.949124229917971,-0.0653179010978216,-2.31825853200587,-0.56214001268843,-1.92141972804029,0.0,-0.0011344542745508,0.0,2134060.8833421,1.0E-16,952.296873181686,1.12674014911376,-5.25767388351024,1.16784160213003
5160.0,7605257.46066446,3412725.44719771,-1579854.75254854,-2053894.88852907,8079122.97088392,-1578564.17934251,-5145.8048313625,-1050.44126839478,3830.20409118334,1.34052493673365,-5.27303800690787,1.03028867663166,7708501.96641884,1.39959260154969,-0.314533751289524,-0.968531412665409,-0.027456788628566,-2.34769260544883,-0.515125027537667,-1.86406662275868,0.0,-0.0011344542745508,0.0,2106861.46009988,1.0E-16,951.198189288236,1.34052493673365,-5.27303800690787,1.03028867663166
5220.0,7497194.40143845,3669286.3242514,-1348513.74478142,-2360101.05298442,8006599.65034259,-1346981.96016074,-5058.90932585052,-1367.07041635041,3887.78275996643,1.55632300083109,-5.27979731144021,0.888241206304214,7708501.9664188,1.40396787080293,-0.348001907600477,-0.986895412372856,0.0126628415067458,-2.37332311200134,-0.466773830466736,-1.80972918058794,0.0,-0.0011344542745508,0.0,2077589.06470275,1.0E-16,950.187934826492,1.55632300083109,-5.27979731144021,0.888241206304214
5280.0,7373691.18493176,3918219.70475465,-1113972.81574816,-2660703.86950297,7915071.7728642,-1112203.45661848,-4959.00707305538,-1683.8360384933,3936.70077214944,1.77406990387739,-5.27750975229383,0.74158071553594,7708501.96641882,1.40834314003902,-0.382639813723565,-1.00416469628779,0.0549491920708306,-2.39545958543157,-0.4172931440331,-1.75800691092617,0.0,-0.0011344542745508,0.0,2046293.15329418,1.0E-16,949.279555787802,1.77406990387739,-5.27750975229383,0.74158071553594
5340.0,7234774.8565795,4158970.93884526,-876759.366562341,-2954919.4781478,7804547.71975475,-874756.68053632,-4845.98386845208,-2000.18093955339,3976.67791280965,1.99366901487031,-5.2656883136812,0.590193845359618,7708501.96641883,1.41271840928941,-0.418330601630179,-1.02029706979079,0.0992732664774777,-2.41437573862197,-0.366864244290101,-1.70852682351004,0.0,-0.0011344542745508,0.0,2013027.66495281,1.0E-16,948.486176472287,1.99366901487031,-5.2656883136812,0.590193845359618
5400.0,7080495.84250518,4390982.7477933,-637417.804353845,-3241957.36219113,7675070.20801237,-635186.656247222,-4719.73239561714,-2315.51733429854,4007.42739504955,2.21498648742948,-5.24380024212599,0.433975436256889,7708501.96641883,1.41709367853979,-0.454919092671518,-1.03526166318495,0.145466348234478,-2.43030846834975,-0.315647061590642,-1.66094320813657,0.0,-0.0011344542745508,0.0,1977851.20148072,1.0E-16,947.820649129214,2.21498648742948,-5.24380024212599,0.433975436256889
5460.0,6910929.72578327,4613695.35897825,-396509.920096065,-3521020.83160356,7526718.2083753,-394055.79812048,-4580.15462107399,-2629.22408805356,4028.65645483794,2.43784578497876,-5.21126660038934,0.272832031515409,7708501.96641885,1.42146894779017,-0.492211084190254,-1.0490408897779,0.193319076741361,-2.44345843333729,-0.263783905083046,-1.61493566850502,0.0,-0.0011344542745508,0.0,1940827.21721837,1.0E-16,947.295603672049,2.43784578497876,-5.21126660038934,0.272832031515409
5520.0,6726179.17544431,4826546.7706042,-154615.224275282,-3791307.66036978,7359609.02950513,-151944.245814502,-4427.16453173644,-2940.64394252895,4040.06716991563,2.66202173295436,-5.16746224195349,0.106685851107144,7708501.96641884,1.4258442170377,-0.529974651080514,-1.06163224362628,0.242582519395479,-2.45399143332805,-0.211402794672653,-1.57020615446741,0.0,-0.0011344542745508,0.0,1902024.21771183,1.0E-16,946.923498258043,2.66202173295436,-5.16746224195349,0.106685851107144
5580.0,6526376.03025854,5028973.16209888,87668.7739022259,-4052010.89904666,7173900.56836269,90549.8570628163,-4260.6912437139,-3249.08075563237,4041.35753251326,2.88723408690542,-5.11171632384309,-0.0645207133913844,7708501.96641881,1.43021948627666,-0.567943713593868,-1.07304979010131,0.292971493201517,-2.46204008220829,-0.158620428083223,-1.52647546802428,0.0,-0.0011344542745508,0.0,1861515.96579631,2.0E-16,946.716671747239,2.88723408690542,-5.11171632384309,-0.0645207133913844
5640.0,6311683.53758013,5220409.46825008,329726.359943879,-4302319.88571803,6969793.72488847,332810.157082735,-4080.68251156643,-3553.79679158211,4032.22280864058,3.11314061743057,-5.04331349514281,-0.24082003324464,7708501.96641888,1.4345947555299,-0.605823898276893,-1.08332520286689,0.344170165108409,-2.46770545284813,-0.105544833314783,-1.48347953004925,0.0,-0.0011344542745508,0.0,1819381.69335158,2.0E-16,946.687399258707,3.11314061743057,-5.04331349514281,-0.24082003324464
5700.0,6082298.74483091,5400290.13752767,570923.498375775,-4541421.48023545,6747534.97666178,574201.97616335,-3887.1086665839,-3854.01010650857,4012.35721960573,3.33932972878425,-4.96149591964542,-0.422213559713358,7708501.96641891,1.43897002478028,-0.643300443753086,-1.09250822060847,0.395839685638226,-2.47105849512447,-0.0522777670349083,-1.44096556759405,0.0,-0.0011344542745508,0.0,1775706.31663224,2.0E-16,946.847952189292,3.33932972878425,-4.96149591964542,-0.422213559713358
5760.0,5838455.04052299,5568050.09419066,810607.828368598,-4768501.54830694,6507419.10620311,814072.308246918,-3679.96701106639,-4148.89208489746,3981.45598406972,3.56531264842428,-4.86546631324495,-0.608665482840238,7708501.9664189,1.44334529401923,-0.680047623417345,-1.10066643612123,0.447627331306596,-2.47214110918533,0.0010830770346514,-1.39868829867987,0.0,-0.0011344542745508,0.0,1730580.65267117,2.0E-16,947.210664081644,3.56531264842428,-4.86546631324495,-0.608665482840238
5820.0,5580424.83693815,5723125.92753582,1048108.79350024,-4982746.72353261,6249792.06992345,1051749.95032493,-3459.28669260116,-4437.56519374433,3939.2177611565,3.79051525053314,-4.75439219935116,-0.800095699752462,7708501.96641884,1.44772056326676,-0.715738929398678,-1.10788438502348,0.499176404258401,-2.47096680755212,0.0544419853135389,-1.35640613964667,0.0,-0.0011344542745508,0.0,1684101.63379613,3.0E-16,947.788003500809,3.79051525053314,-4.75439219935116,-0.800095699752462
5880.0,5308522.38328805,5864957.33200171,1282737.93095149,-5183346.47679379,5975053.99333425,1286545.79313076,-3225.13407762705,-4719.10103415833,3885.34753669255,4.01426960840781,-4.62741160781402,-0.996372073584459,7708501.96641884,1.45209583251429,-0.75005713725529,-1.11426196330964,0.550136013330002,-2.46752093294638,0.107703203413478,-1.3138774303028,0.0,-0.0011344542745508,0.0,1636372.51678683,3.0E-16,948.592654335303,4.01426960840781,-4.62741160781402,-0.996372073584459
5940.0,5023106.6950881,5992988.82146813,1513789.34797848,-5369495.52336736,5683662.27192726,1517753.299368,-2977.6186367577,-4992.51878430909,3819.55999525964,4.23580540931979,-4.48364046331831,-1.19730198256021,7708501.96641883,1.45647110176467,-0.782703378033471,-1.1199122618778,0.600169868617893,-2.46176042210434,0.160768913910078,-1.27085665866307,0.0,-0.0011344542745508,0.0,1587503.08263004,4.0E-16,949.637602135159,4.23580540931979,-4.48364046331831,-1.19730198256021
6000.0,4724584.57847573,6106671.7435108,1740540.41605296,-5540396.59861798,5376134.75104754,1744649.19989062,-2716.89934497277,-5256.78414290065,3741.58342006456,4.4542414116051,-4.32218192619255,-1.4026231834766,7708501.9664188,1.46084637101505,-0.813404481224969,-1.12495895214501,0.648963359234658,-2.45361312616172,0.213537149687987,-1.22709066733339,0.0,-0.0011344542745508,0.0,1537609.82220585,5.0E-16,950.936220979301,4.4542414116051,-4.32218192619255,-1.4026231834766
6060.0,4413413.72341383,6205466.61796757,1962252.71551996,-5695263.63295263,5053052.95105027,1966494.44070973,-2443.19158742054,-5510.80889850473,3651.1641602536,4.66857717774185,-4.14213795981281,-1.611994045883,7708501.96641882,1.46522164025686,-0.841918085689612,-1.12953338294822,0.696228418127434,-2.44297672183024,0.265899579100585,-1.1823148376487,0.0,-0.0011344542745508,0.0,1486816.10256154,6.0E-16,952.502345524181,4.66857717774185,-4.14213795981281,-1.611994045883
6120.0,4090105.83240389,6288845.82389398,2178173.26587618,-5833325.35570958,4715065.29601544,2182535.41595484,-2156.77454573252,-5753.45126666723,3548.071700752,4.87768537902239,-3.94262340141884,-1.8249832537082,7708501.96641883,1.46959690949868,-0.868035292983134,-1.13377155271531,0.741705955796806,-2.42971728144226,0.317739098505413,-1.13624927826152,0.0,-0.0011344542745508,0.0,1435252.307706,7.0E-16,954.350286162012,4.87768537902239,-3.94262340141884,-1.8249832537082
6180.0,3755229.74300416,6356296.65766754,2387536.07867594,-5953829.35557619,4362890.2952849,2392005.52382013,-1857.99901997404,-5983.51715309802,3432.10436245932,5.08030503659611,-3.72278280372502,-2.0410591208577,7708501.96641881,1.47397217874906,-0.89158090274138,-1.13781110461738,0.785165910440647,-2.41366762242538,0.368927168176365,-1.08859509777308,0.0,-0.0011344542745508,0.0,1383055.94709851,8.0E-16,956.494650690382,5.08030503659611,-3.72278280372502,-2.0410591208577
6240.0,3409414.49421009,6407324.78184126,2589564.07144587,-6056046.62173528,3997319.61711933,2594127.08389777,-1547.29561723689,-6199.76251662017,3303.09565009919,5.27503613885605,-3.48181028910588,-2.25957872702522,7708501.96641883,1.47834744799087,-0.912411478676177,-1.14178846172676,0.826405171268422,-2.39462563881943,0.419320831310254,-1.03903092545515,0.0,-0.0011344542745508,0.0,1330371.72422249,1.0E-15,958.949168188521,5.27503613885605,-3.48181028910588,-2.25957872702522
6300.0,3053352.27750662,6441458.08027707,2783471.38161883,-6139276.58496207,3619220.98294097,2788113.65492676,-1225.18320912557,-6400.89701878628,3160.92125060221,5.46033615407296,-3.21897261171435,-2.47977714979511,7708501.96641882,1.4827227172384,-0.930411622636599,-1.14583618121819,0.865243760743357,-2.37235294334097,0.468759366461229,-0.98720997337124,0.0,-0.0011344542745508,0.0,1277351.55684753,1.3E-15,961.731998717242,5.46033615407296,-3.21897261171435,-2.47977714979511
6360.0,2687801.20122479,6458250.93061804,2968466.11913218,-6202852.67104676,3229540.79910106,2973172.791615,-892.277526870813,-6585.58915676431,3005.50666599938,5.63451903627447,-2.93363555060695,-2.70075714851066,7708501.96641883,1.48709798648878,-0.94548888052697,-1.1500805680626,0.901519707715427,-2.34657433603753,0.517060547064361,-0.932758124448193,0.0,-0.0011344542745508,0.0,1224154.53981706,1.6E-15,964.88328158415,5.63451903627447,-2.93363555060695,-2.70075714851066
6420.0,2313587.78819862,6457288.8965363,3143753.59468958,-6246148.36991973,2829306.4311504,3148509.27754018,-549.299724659419,-6752.47308054839,2836.83544088618,5.79575739652975,-2.62529365366323,-2.92147974281638,7708501.96641878,1.49147325573631,-0.95756768096972,-1.15463955446952,0.935083020090771,-2.31697888451195,0.564016526670572,-0.875273803668225,0.0,-0.0011344542745508,0.0,1170946.84048428,2.0E-15,968.441185284661,5.79575739652975,-2.62529365366323,-2.92147974281638
6480.0,1931609.11414045,6438193.833901,3308540.0574449,-6268583.81244205,2419628.01356995,3313328.86788589,-197.084699489323,-6900.15729275561,2654.95791518091,5.94208857417648,-2.29360321300232,-3.14075622140943,7708501.96641877,1.49584852498669,-0.966582636924735,-1.1596208243278,0.965789094282927,-2.28322376723355,0.609389448060048,-0.814330759547862,0.0,-0.0011344542745508,0.0,1117901.51629638,2.5E-15,972.440669704141,5.94208857417648,-2.29360321300232,-3.14075622140943
6540.0,1542834.48334577,6400629.3934107,3462036.97070084,-6269632.83277137,2001699.67633877,3466842.5705927,163.411089596209,-7027.23541695538,2460.00039795707,6.07142538437966,-1.93841817391654,-3.35724220989833,7708501.96641883,1.50022379422564,-0.972471444607764,-1.16512014281328,0.99349180177579,-2.24494249493595,0.652907005858194,-0.749485349694987,0.0,-0.0011344542745508,0.0,1065198.24354338,3.1E-15,976.913762510655,6.07142538437966,-1.93841817391654,-3.35724220989833
6600.0,1148306.52935393,6344306.88820943,3603465.84678787,-6248830.47737554,1576800.05922215,3608271.4870648,531.102607131818,-7132.29919620083,2252.17461771705,6.18157232914704,-1.55982845909733,-3.56943451438577,7708501.96641882,1.50459906347603,-0.975167512126901,-1.17121983939357,1.01803638983652,-2.20175964133929,0.694258395775748,-0.68029044326198,0.0,-0.0011344542745508,0.0,1013022.94599964,4.0E-15,981.888707709436,6.18157232914704,-1.55982845909733,-3.56943451438577
6660.0,749141.617208751,6268991.47970635,3732063.65228995,-6205780.90210675,1146291.97604568,3736852.22355784,904.770382446782,-7213.95384470742,2031.78725917402,6.27024802637274,-1.15819992903833,-3.77567153098423,7708501.96641884,1.50897433272355,-0.974592356258146,-1.17798738600077,1.03925223775057,-2.15331464995748,0.733091375979019,-0.6063184910712,0.0,-0.0011344542745508,0.0,961567.312156892,5.1E-15,987.388518044617,6.27024802637274,-1.15819992903833,-3.77567153098423
6720.0,346529.420566798,6174508.61576035,3847088.78194754,-6140165.57639112,711621.085420267,3851842.87152143,1283.05620013163,-7270.83582013678,1799.24934757808,6.33511452249314,-0.734214902948607,-3.97413806030932,7708501.9664189,1.51334960196536,-0.970647729152235,-1.18547400918064,1.05694543139384,-2.09929735222347,0.769011546287028,-0.527196384760508,0.0,-0.0011344542745508,0.0,911028.190050986,6.7E-15,993.429027606177,6.33511452249314,-0.734214902948607,-3.97413806030932
6780.0,-58268.4590473929,6060750.63603886,3947827.58372694,-6051751.6888546,274313.422461858,3952529.53930813,1664.46076896966,-7301.63300983938,1555.08519071288,6.37381399584547,-0.288911842591927,-4.16287537755915,7708501.96641888,1.51772487121575,-0.963207384632822,-1.19371327368001,1.07089106469524,-2.03949703769732,0.801585372417441,-0.44265393362067,0.0,-0.0011344542745508,0.0,861606.849398471,9.3E-15,1000.01649453257,6.37381399584547,-0.288911842591927,-4.16287537755915
6840.0,-463920.961487698,5927683.4372987,4033601.3986567,-5940400.62217182,-164028.350837198,4038233.39875255,2047.34382221822,-7305.10723062681,1299.94053854688,6.3840131183265,0.176277529096878,-4.3397973692682,7708501.96641891,1.52210014046327,-0.952108374236332,-1.20271957371567,1.08082515477942,-1.9738645803412,0.830348813782662,-0.352585452530087,0.0,-0.0011344542745508,0.0,813508.10196627,1.34E-14,1007.1448410905,6.3840131183265,0.176277529096878,-4.3397973692682
6900.0,-869031.249241556,5775353.06907605,4103774.05724485,-5806076.33745238,-601730.109598561,4108318.18831484,2429.92710878494,-7280.11882834868,1034.58957463808,6.36345501457057,0.659495718070953,-4.50271344319849,7708501.96641889,1.52647540971366,-0.937141789731059,-1.21248646623471,1.08643608187563,-1.9025826368433,0.854823402549088,-0.257119467657706,0.0,-0.0011344542745508,0.0,766939.272878084,2.06E-14,1014.79269945146,6.36345501457057,0.659495718070953,-4.50271344319849
6960.0,-1272141.71333553,5603892.10820253,4157759.7499841,-5648853.48125461,-1037052.96075083,4162198.09015456,2810.30071906882,-7225.65303255603,759.940316058607,6.31001833872685,1.15843387021523,-4.64935873543953,7708501.96641891,1.53085067896118,-0.918042966148744,-1.22298477797188,1.08735556014292,-1.82613239174698,0.874540913865675,-0.156685006427819,0.0,-0.0011344542745508,0.0,722109.017994384,3.37E-14,1022.92054055906,6.31001833872685,1.15843387021523,-4.64935873543953
7020.0,-1671740.39496002,5413525.63983541,4195031.16328333,-5468925.00284391,-1468201.55979426,4199345.87231169,3186.43314573413,-7140.84757672627,477.037974791969,6.22178248580661,1.67031560052689,-4.77743186944537,7708501.96641894,1.53522594820014,-0.894481371051259,-1.2341604167869,1.08314935517526,-1.74533847359188,0.889076049138107,-0.0520560885457879,0.0,-0.0011344542745508,0.0,679225.985646167,5.78E-14,1031.46828155983,6.22178248580661,1.67031560052689,-4.77743186944537
7080.0,-2066268.88688138,5204576.65505288,4215127.74510358,-5266609.04740029,-1893334.10708281,4219301.16009225,3556.18540389412,-7025.02094218723,187.065828612125,6.09709738541715,2.19189279669692,-4.88464016219024,7708501.96641895,1.53960121745052,-0.866050805194897,-1.24593182213966,1.07330836155815,-1.66137042707799,0.898083867622687,0.0556472036311687,0.0,-0.0011344542745508,0.0,638497.324899898,1.017E-13,1040.35386880014,6.09709738541715,2.19189279669692,-4.88464016219024
7140.0,-2454131.74293612,4977470.66173237,4217663.9379142,-5042354.87456453,-2310574.03799319,4221678.67408004,3917.32942399881,-6877.70043282388,-108.65683131985,5.93465572143736,2.71945584463946,-4.96875172820177,7708501.96641895,1.54397648670376,-0.832261242133448,-1.25818700896951,1.05724135471709,-1.57568435780423,0.901335792481704,0.165017465026811,0.0,-0.0011344542745508,0.0,600127.047183622,1.798E-13,1049.47339390047,5.93465572143736,2.71945584463946,-4.96875172820177
7200.0,-2833707.37844612,4732739.29918453,4202337.1919165,-4796747.54315836,-2718023.36952555,4206176.24751834,4267.57078331084,-6698.64914910708,-408.680060842412,5.73356482636865,3.24886040979728,-5.02765341917478,7708501.96641895,1.54835175594557,-0.792534804097093,-1.27078021116167,1.03427189996311,-1.48990413621393,0.898746338870563,0.274479137265883,0.0,-0.0011344542745508,0.0,564314.253473226,3.139E-13,1058.7033110815,5.73356482636865,3.24886040979728,-5.02765341917478
7260.0,-3203360.39444668,4471022.74827854,4168935.55064084,-4530511.10424524,-3113777.60644234,4172582.41496314,4604.57566043314,-6487.89081709428,-711.432235645287,5.49341497063376,3.77557236366248,-5.05941298390886,7708501.96641895,1.5527270251931,-0.746210205696165,-1.2835282454765,1.0036437351377,-1.40566308919557,0.890383707545934,0.382447184696392,0.0,-0.0011344542745508,0.0,531251.245220547,5.337E-13,1067.90529790386,5.49341497063376,3.77557236366248,-5.05941298390886
7320.0,-3561455.20196294,4193070.73958924,4117344.58598941,-4244510.05779587,-3495942.04496474,4120783.34908331,4926.00168784275,-6245.73135498056,-1015.2328274785,5.21434037062391,4.2947316628311,-5.06234328182459,7708501.966419,1.55710229443491,-0.692562636207697,-1.29620694196432,0.964541582181083,-1.32444337782699,0.87646130676816,0.487488083960851,0.0,-0.0011344542745508,0.0,501121.543630633,8.758E-13,1076.93424678994,5.21434037062391,4.2947316628311,-5.06234328182459
