time,gePosition_m_X,gePosition_m_Y,gePosition_m_Z,eiPosition_m_X,eiPosition_m_Y,eiPosition_m_Z,eiVelocity_m_s_X,eiVelocity_m_s_Y,eiVelocity_m_s_Z,eiAccel_m_s2_X,eiAccel_m_s2_Y,eiAccel_m_s2_Z,semiMajorAxis_m,gast_rad,eulerAngle_rad_Roll,eulerAngle_rad_Pitch,eulerAngle_rad_Yaw,eulerAngleWrtEi_rad_Roll,eulerAngleWrtEi_rad_Pitch,eulerAngleWrtEi_rad_Yaw,bodyAngularRateWrtEi_rad_s_Roll,bodyAngularRateWrtEi_rad_s_Pitch,bodyAngularRateWrtEi_rad_s_Yaw,altitudeMsl_m,airDensity_kg_m3,ambientTemperature_dgK,eiGravitation_m_s2_X,eiGravitation_m_s2_Y,eiGravitation_m_s2_Z
0.0,-1436381.46529,4185811.71036,5163944.67155,-4315967.74,960356.2,5167269.53,129.091037,-7491.513855,1452.515654,5.46941408349,-1.21701227671,-6.54822705894,6759053.07579,1.02334780893,0.1968951984172613,1.481806032846006,0.1976572363801104,-1.3731447128742889,-0.8677376710085247,3.059772528969102,-1.9585614615013217E-5,-0.0011220591098061745,0.0,434989.540812,1.61790350067E-12,978.31253865,5.46941408349,-1.21701227671,-6.54822705894
60.0,-1794950.03461,3943126.0299,5239239.62072,-4298383.75497,509016.725548,5242568.01442,456.873453274,-7547.42173401,1056.41305958,5.45257924199,-0.645697124725,-6.65029442685,6759053.07579,1.02772307802,0.19652724636251725,1.4824157413270997,0.1972908656983884,-1.452969890422588,-0.8783853777363946,-3.120813581411742,-1.9585614615013217E-5,-0.001103095634961541,-5.033902076576947E-6,433093.864999,1.72931058094E-12,985.41174162,5.45257924199,-0.645697124725,-6.65029442685
120.0,-2147547.17171,3685627.21378,5290617.60031,-4261177.84166,55353.9685753,5293934.33528,782.91011309,-7568.91571403,655.073376703,5.41122605044,-0.0702934371387,-6.72271293264,6759053.07579,1.03209834711,0.1954176557636934,1.4842401004018573,0.19619956565619728,-1.533479061391224,-0.8839269262186437,-3.018014788323411,-1.9585614615013217E-5,-0.0010843617655487874,-9.98531836154474E-6,430905.280808,1.86248837629E-12,993.229374722,5.41122605044,-0.0702934371387,-6.72271293264
180.0,-2492684.25219,3414408.9038,5317818.00015,-4204498.84972,-398561.363029,5321107.91929,1105.73160266,-7555.82484025,250.289448679,5.3454273793,0.506714568946,-6.7650383498,6759053.07579,1.0364736162,0.19352903280368475,1.4872597800042702,0.19436596762170308,-1.6134126630268257,-0.8845009187374554,-2.9162167207420415,-1.9585614615013217E-5,-0.0010661099843323155,-1.4790784888030054E-5,428429.879583,2.0200445447E-12,1001.71491968,5.3454273793,0.506714568946,-6.7650383498
240.0,-2828892.49297,3130615.64088,5320688.44124,-4128583.60235,-850652.79475,5323936.49263,1423.8758901,-7508.12814382,-156.122774235,5.25535668535,1.08281296502,-6.77694529983,6759053.07579,1.04084888529,0.19077869239398637,1.4914393535860437,0.1917266942304497,-1.6915927414561143,-0.880342288005403,-2.8165375255808,-1.9585614615013217E-5,-0.0010485890150771404,-1.9389147439495868E-5,425676.596117,2.20464493186E-12,1010.78109632,5.25535668535,1.08281296502,-6.77694529983
300.0,-3154729.04304,2835438.4175,5299185.94612,-4033756.27142,-1298847.13302,5302377.25117,1735.89440574,-7425.95617001,-562.331476725,5.14128947641,1.65546667848,-6.75823092103,6759053.07579,1.04522415437,0.18702106165172827,1.4967276289472475,0.18815443799553336,-1.7670095358225015,-0.8717608616057896,-2.7199263096406083,-1.9585614615013217E-5,-0.00103204084438887,-2.3722614680714014E-5,422657.223054,2.41895697489E-12,1020.30840998,5.14128947641,1.65546667848,-6.75823092103
360.0,-3468783.08035,2530110.05102,5253377.66861,-3920427.38526,-1741083.58876,5256497.58981,2040.35820271,-7309.59197714,-966.496434168,5.00360451249,2.22212857049,-6.70881831892,6759053.07579,1.04959942346,0.18201204400960908,1.5030581515299308,0.18342202279315203,-1.8388763377753368,-0.8591144001847603,-2.627108010645554,-1.9585614615013217E-5,-0.0010166976819103966,-2.773780202915513E-5,419386.386708,2.66562931551E-12,1030.15596761,5.00360451249,2.22212857049,-6.70881831892
420.0,-3769681.89227,2215900.38876,5183441.17035,-3789092.46489,-2175322.94418,5186475.37826,2335.86418043,-7159.47157517,-1366.77666754,4.84278469881,2.780249035,-6.62875974534,6759053.07579,1.05397469255,0.17533646262210625,1.5103498576267926,0.17712957099890286,-1.9066479400294503,-0.8427807664869009,-2.538564686597722,-1.9585614615013217E-5,-0.0010027788757474068,-3.1386748937055446E-5,415881.483384,2.94730746813E-12,1040.17567346,4.84278469881,2.780249035,-6.62875974534
480.0,-4056096.91578,1894111.35661,5089664.23286,-3640330.28535,-2599556.72836,5092598.77217,2621.04135142,-6976.18377267,-1761.33827946,4.65941762361,3.32728612084,-6.51823944782,6759053.07579,1.05834996164,0.16625031902227735,1.5185078143065385,0.16854651562834605,-1.9700076347548026,-0.8231331826322652,-2.454548256628375,-1.9585614615013217E-5,-9.904878165160858E-4,-3.462788754932615E-5,412162.575825,3.26666590153E-12,1050.22576068,4.65941762361,3.32728612084,-6.51823944782
540.0,-4326749.71204,1566071.86402,4972444.19482,-3474800.76039,-3011816.36507,4975265.54902,2894.55712843,-6760.469401,-2148.3624498,4.45419569214,3.86071616874,-6.37757612705,6759053.07579,1.06272523073,0.15329828900441964,1.5274238594330973,0.15622888204996255,-2.028833262848935,-0.800521010318523,-2.375114183932657,-1.9585614615013217E-5,-9.800088807794159E-4,-3.742693650708371E-5,408252.249936,3.62642665043E-12,1060.18042342,4.45419569214,3.86071616874,-6.37757612705
600.0,-4580417.84864,1233132.57931,4832286.8057,-3293242.44988,-3410182.25456,4834981.96025,3155.12360624,-6513.21988518,-2526.05356531,4.22791580717,4.37804494471,-6.20722493659,6759053.07579,1.06710049981,0.1332232814231479,1.536976496977282,0.13692866697011521,-2.0831536757563005,-0.7752568648299449,-2.30016472881582,-1.9585614615013217E-5,-9.715044805558577E-4,-3.9757690637926947E-5,404175.432484,4.02933770337E-12,1069.93433334,4.22791580717,4.37804494471,-6.20722493659
660.0,-4815940.66127,896660.590704,4669804.5887,-3096469.69121,-3792792.74939,4672361.09222,3401.50380953,-6235.4751326,-2892.64745382,3.98147854685,4.87681923941,-6.00777895699,6759053.07579,1.0714757689,0.09697447398287597,1.547027128638005,0.1016017301136607,-2.1331046674929,-0.7476096455432555,-2.229492701741374,-1.9585614615013217E-5,-9.651122981785086E-4,-4.160267601640257E-5,399959.171112,4.47809600146E-12,1079.40272871,3.98147854685,4.87681923941,-6.00777895699
720.0,-5032224.8657,558033.969581,4485714.70755,-2885369.35763,-4157852.98233,4488120.73091,3632.51787503,-5928.42071291,-3246.41968936,3.71588679137,5.35463889108,-5.77997007488,6759053.07579,1.07585103799,0.006854701013664096,1.5573912612887255,0.012555074564187583,-2.178889997813801,-0.7178023919756511,-2.1628200801021524,-1.9585614615013217E-5,-9.609427930975026E-4,-4.295364083907902E-5,395632.378601,4.97521200478E-12,1088.51872962,3.71588679137,5.35463889108,-5.77997007488
780.0,-5228249.98959,218636.253829,4280836.33417,-2660897.24845,-4503643.50324,4283080.727,3847.04913363,-5593.38430506,-3585.69393051,3.43224375272,5.80916917685,-5.52466919803,6759053.07579,1.08022630708,-0.6259544055842902,1.5672218483404539,-0.6190280824524199,-2.220750009290779,-0.6860136731384437,-2.099828968598452,-1.9585614615013217E-5,-9.590770679270196E-4,-4.381185596116794E-5,391225.543994,5.52282073613E-12,1097.22954879,3.43224375272,5.80916917685,-5.52466919803
840.0,-5403073.59288,-120149.129324,4056087.51628,-2424074.11829,-4828528.68027,4058159.86081,4044.05005535,-5231.83139154,-3908.85024995,3.13175036477,6.23815350432,-5.24288573872,6759053.07579,1.08460157617,-2.642210603251043,1.5619942999460454,-2.6339065289711674,-2.2589381642228608,-0.6523813140384159,-2.0401845573862842,-1.9585614615013217E-5,-9.595651745264528E-4,-4.418820472582829E-5,386770.413852,6.1224476576E-12,1105.49276648,3.13175036477,6.23815350432,-5.24288573872
900.0,-5555836.24484,-456944.480378,3812481.54702,-2175981.35466,-5130964.8197,3814372.20879,4222.54801744,-4845.36018411,-4214.33340949,2.81570199584,6.6394263225,-4.93576630063,6759053.07579,1.08897684525,-2.813852875676266,1.5514409734124226,-2.804022889736876,-2.2937046166200252,-0.6170074938840495,-1.9835509407643286,-1.9585614615013217E-5,-9.624249274662411E-4,-4.4103049535490294E-5,382299.647578,6.77474051576E-12,1113.27333253,2.81570199584,6.6394263225,-4.93576630063
960.0,-5685766.22542,-790383.462502,3551122.84112,-1917756.31589,-5409507.95802,3552823.01637,4381.65085415,-4435.69577058,-4500.66103092,2.4854844516,7.01092615838,-4.60459250912,6759053.07579,1.09335211434,-2.866948310311297,1.5409217967745976,-2.855450460162499,-2.325285446541134,-0.5799645069426573,-1.929601144334834,-1.9585614615013217E-5,-9.676412727230807E-4,-4.358587184628137E-5,377846.4514,7.47917593203E-12,1120.54132281,2.4854844516,7.01092615838,-4.60459250912
1020.0,-5792183.91829,-1119116.73102,3273202.32557,-1650587.3436,-5662821.27932,3274704.08507,4520.5521448,-4004.68347826,-4766.43160951,2.14256924321,7.35070867344,-4.25077793096,6759053.07579,1.09772738343,-2.8947879479173406,1.5307060352460133,-2.881488973970647,-2.353896135232885,-0.5413007028575032,-1.8780227552437974,-1.9585614615013217E-5,-9.751662359902539E-4,-4.267469210715103E-5,373444.196214,8.23375872327E-12,1127.27057955,2.14256924321,7.35070867344,-4.25077793096
1080.0,-5874505.86327,-1441817.53295,2979992.3559,-1375708.46692,-5889682.11101,2981288.68486,4638.53619534,-3554.28145632,-5010.33231432,1.78850810379,7.65695962306,-3.87586403722,6759053.07579,1.10210265252,-2.9133919549150393,1.5209548934542791,-2.8981696554645042,-2.379728027923376,-0.501046299276636,-1.828520378487541,-1.9585614615013217E-5,-9.849194496693245E-4,-4.1415285706483695E-5,369126.025053,9.03472926469E-12,1133.43790615,1.78850810379,7.65695962306,-3.87586403722
1140.0,-5932248.43619,-1757187.2509,2672841.17243,-1094393.81814,-6088988.45127,2673926.00637,4734.98266817,-3086.55248662,-5231.14651659,1.42492674576,7.92800759199,-3.4815151726,6759053.07579,1.10647792161,-2.927756541521494,1.511808809504407,-2.9105019793285796,-2.4029467729043437,-0.4592188866492749,-1.780815897420556,-1.9585614615013217E-5,-9.96789233146914E-4,-3.986021936656844E-5,364924.456417,9.87630264167E-12,1139.02268004,1.42492674576,7.92800759199,-3.4815151726
1200.0,-5965031.12518,-2063960.8648,2353166.91479,-807951.782221,-6259764.98247,2354035.17104,4809.37081475,-2603.65504054,-5427.76098574,1.05351786143,8.16233637022,-3.06951250521,6759053.07579,1.11085319069,-2.939951333876845,1.503396298944359,-2.9205708467199076,-2.4236919664788306,-0.41582853185303104,-1.7346472705551859,-1.9585614615013217E-5,-0.0010106341799500005,-3.806773891403267E-5,360870.990095,1.07504659866E-11,1144.00668727,1.05351786143,8.16233637022,-3.06951250521
1260.0,-5972579.37343,-2360912.30404,2022451.21642,-517718.905445,-6401168.52591,2023098.82109,4861.28326571,-2107.83360755,-5599.1726915,0.676033380941,8.35859682742,-2.64174694339,6759053.07579,1.11522845978,-2.9509986692020496,1.4958346685261694,-2.9294156477036224,-2.4420774391777313,-0.37088244447827073,-1.6897663860109264,-1.9585614615013217E-5,-0.0010262851894837,-3.610054348484291E-5,356995.722332,1.16468626054E-11,1148.37400724,0.676033380941,8.35859682742,-2.64174694339
1320.0,-5954726.96024,-2646859.66204,1682232.4044,-225053.590989,-6512492.89535,1682656.31463,4890.4093349,-1601.40833006,-5744.49514997,0.29427601265,8.51561813893,-2.20021101976,6759053.07579,1.11960372887,-2.9614730975822927,1.489229187127429,-2.9376294947967145,-2.4581917802137787,-0.324389206452043,-1.6459363259237503,-1.9585614615013217E-5,-0.0010435478720897404,-3.402448281142384E-5,353326.977325,1.25527894343E-11,1152.1107562,0.29427601265,8.51561813893,-2.20021101976
1380.0,-5911417.89408,-2920670.24494,1334098.33399,68670.3880714,-6593173.10883,1334296.55535,4896.54779513,-1086.76398782,-5862.9642521,-0.089909896044,8.63241821494,-1.7469897572,6759053.07579,1.12397899796,-2.971735101241144,1.4836719424262326,-2.9455926412776146,-2.4720988176565286,-0.2763625890679179,-1.6029282638196758,-1.9585614615013217E-5,-0.0010622052541060878,-3.190721343135893E-5,349890.961953,1.34533530949E-11,1155.20522554,-0.089909896044,8.63241821494,-1.7469897572
1440.0,-5842707.79365,-3181265.4259,979678.890618,362070.525485,-6642788.92137,979650.489396,4879.60908652,-566.338384237,-5953.94351428,-0.47464812762,8.70821318438,-1.2842505473,6759053.07579,1.12835426705,-2.982036607600181,1.479240711299653,-2.95357766319176,-2.4838378564429098,-0.226824996644519,-1.5605181219758915,-1.9585614615013217E-5,-0.0010820207143729436,-2.981684686670379E-5,346711.450415,1.43318190858E-11,1157.64867445,-0.47464812762,8.70821318438,-1.2842505473
1500.0,-5748764.736,-3427625.27674,620638.195746,653762.333106,-6661067.64437,620383.306138,4839.61692122,-42.6101956251,-6016.92869314,-0.85804093063,8.7424257886,-0.814232087702,6759053.07579,1.13272953613,-2.9925750508176634,1.4759979545681983,-2.9618031644416796,-2.493423534841344,-0.1758105861881151,-1.518483044862575,-1.9585614615013217E-5,-0.0011027410936624673,-2.7820618651606643E-5,343809.50501,1.51701321286E-11,1159.43578558,-0.85804093063,8.7424257886,-0.814232087702
1560.0,-5629869.55341,-3658792.94917,258666.556372,942366.16955,-6647886.22158,258186.382422,4776.70925287,481.91364696,-6051.55170992,-1.23817984887,8.7346925464,-0.339232440952,6759053.07579,1.13710480522,-3.0035250890112577,1.4739899793424884,-2.970465117228039,-2.5008451964124707,-0.12336811989888466,-1.4765976926936244,-1.9585614615013217E-5,-0.0011240999321318972,-2.5983602260268995E-5,341203.238719,1.59495931367E-11,1160.56478921,-1.23817984887,8.7346925464,-0.339232440952
1620.0,-5486415.56481,-3873878.77828,-104527.798867,1226514.10726,-6603272.53591,-105230.986633,4691.13858358,1004.71096567,-6057.58383388,-1.61315695787,8.68486956074,0.138403706297,6759053.07579,1.14148007431,-3.0150607129545377,1.473246286168888,-2.9797585798447477,-2.5060656968322568,-0.06956361371660796,-1.4346303210244604,-1.9585614615013217E-5,-0.0011458208046948729,-2.436748720612513E-5,338907.624413,1.66516624802E-11,1161.03736011,-1.61315695787,8.68486956074,0.138403706297
1680.0,-5318907.73071,-4072064.08257,-467227.151208,1504856.79758,-6527405.92614,-468150.024467,4583.27158689,1523.2576485,-6034.93807966,-1.98107641259,8.59303685006,0.616298489342,6759053.07579,1.1458553434,-3.0273743998263414,1.4737791054072236,-2.989896452929577,-2.5090195765148144,-0.014482851637187875,-1.3923385848356415,-1.9585614615013217E-5,-0.0011676207379537405,-2.302943645716036E-5,336934.354625,1.72588401533E-11,1160.8583641,-1.98107641259,8.59303685006,0.616298489342
1740.0,-5127961.22508,-4252604.63566,-827712.842534,1776070.29225,-6420616.89804,-828851.029179,4453.58803118,2035.04117495,-5983.67077935,-2.3400662012,8.45950110172,1.09205490778,6759053.07579,1.15023061249,-3.0406979227714426,1.4755831182678287,-3.001129892887455,-2.5096105365346926,0.04176615691289445,-1.349464987270936,-1.9585614615013217E-5,-0.0011892137027255615,-2.2021035281000297E-5,335291.754697,1.77555586388E-11,1160.03552918,-2.3400662012,8.45950110172,1.09205490778
1800.0,-4914299.42181,-4414833.78684,-1184273.89493,2038862.7791,-6283386.01996,-1185621.99837,4302.67899439,2537.57425735,-5903.98229722,-2.68828999194,8.28479676321,1.56327134181,6759053.07579,1.15460588158,-3.0553295112780368,1.478635347728466,-3.013775086270932,-2.507708161055621,0.09905068986999621,-1.3057318850931765,-1.9585614615013217E-5,-0.0012103141817394467,-2.1387341884932447E-5,333984.750972,1.81290159625E-11,1158.57911406,-2.68828999194,8.28479676321,1.56327134181
1860.0,-4678751.29767,-4558165.2095,-1535215.64684,2291981.18932,-6116341.99901,-1536767.27052,4131.24436819,3028.40849621,-5796.21686253,-3.0239589542,8.06968540626,2.02755640835,6759053.07579,1.15898115066,-3.071674056303141,1.4828951880792594,-3.028253088054826,-2.503143841969251,0.15721069680557045,-1.260835968527234,-1.9585614615013217E-5,-0.0012306408115714763,-2.116604974513173E-5,333014.894418,1.83698766295E-11,1156.5016412,-3.0239589542,8.06968540626,2.02755640835
1920.0,-4422248.25862,-4682095.25886,-1878868.35241,2534217.63371,-5920258.94013,-1880616.12945,3940.08965667,3505.14794438,-5660.86150438,-3.34534343127,7.81515332121,2.48254401346,6759053.07579,1.16335641975,-3.090308018404245,1.488304510050858,-3.045154391104188,-2.495705891659094,0.21605594166798073,-1.214442160735631,-1.9585614615013217E-5,-0.0012499200910504784,-2.1386772041389387E-5,332380.438837,1.84727775671E-11,1153.81774951,-3.34534343127,7.81515332121,2.48254401346
1980.0,-4145820.40067,-4786204.92279,-2213595.68989,2764415.62604,-5696052.79669,-2215531.31771,3730.12208223,3965.46247332,-5498.54408123,-3.65078433973,7.52240732274,2.92590844975,6759053.07579,1.16773168884,-3.1120917957890177,1.4947877110781727,-3.0653509928056404,-2.4851338923574406,0.2753627753610999,-1.1661769464301237,-1.9585614615013217E-5,-0.0012678901359290007,-2.207045972472138E-5,332076.471525,1.8436594037E-11,1150.54420514,-3.65078433973,7.52240732274,2.92590844975
2040.0,-3850592.22128,-4870161.3526,-2537803.12491,2981476.05246,-5444777.02776,-2539917.40465,3502.34601885,4407.10083406,-5310.03040723,-3.93870417168,7.1928687723,3.35537938303,6759053.07579,1.17210695793,-3.1383779780488488,1.5022514259404927,-3.0902043923422475,-2.471112454062556,0.3348703958643082,-1.1156212651632582,-1.9585614615013217E-5,-0.0012843044426474432,-2.3228965882139907E-5,332095.093073,1.826444434E-11,1146.7000883,-3.93870417168,7.1928687723,3.35537938303
2100.0,-3537777.80187,-4933718.96329,-2849946.07462,3184362.84734,-5167617.48352,-2852228.9552,3257.85778014,4827.9033068,-5096.22048649,-4.20761747786,6.82816584821,3.76875657018,6759053.07579,1.17648222702,3.1117573571591075,1.5105832274109832,-3.121981990997386,-2.453264777851667,0.39427644895278796,-1.0623033333982759,-1.9585614615013217E-5,-0.0012989356049062375,-2.4864769655236314E-5,332425.641892,1.79634385026E-11,1142.307153,-4.20761747786,6.82816584821,3.76875657018
2160.0,-3208675.48644,-4976720.09638,-3148537.81989,3372108.33799,-4865886.54667,-3150978.44646,2997.83979695,5225.8138354,-4858.14387639,-4.45614071542,6.43012411936,4.1639241511,6759053.07579,1.1808574961,3.0678590823407026,1.5196475690014735,3.118414027200797,-2.431146810528949,0.4532318409241762,-1.0056921531531515,-1.9585614615013217E-5,-0.0013115789076164237,-2.6970872513169286E-5,333054.958087,1.75442010788E-11,1137.39033624,-4.45614071542,6.43012411936,4.1639241511
2220.0,-2864662.08548,-4999095.24134,-3432157.11416,3543818.22264,-4541016.56366,-3434743.88065,2723.55422592,5598.8915474,-4596.9542099,-4.68300135086,6.00075550322,4.5388643611,6759053.07579,1.18523276519,3.00494733540868,1.5292737550118074,3.056448020783355,-2.4042434211327364,0.5113347012393915,-0.9451931137063013,-1.9585614615013217E-5,-0.0013220557067175327,-2.9530877761662485E-5,333967.680488,1.70202181435E-11,1131.97837515,-4.68300135086,6.00075550322,4.5388643611
2280.0,-2507186.63844,-5000862.81521,-3699455.43968,3698676.14909,-4194552.6056,-3702176.04521,2436.33603669,5945.32156562,-4313.92291635,-4.88704611809,5.54224571226,4.89167051695,6759053.07579,1.18960803428,2.904277929092583,1.5392173129813769,2.9565643876146455,-2.371969044106802,0.568123590565124,-0.8801481109561589,-1.9585614615013217E-5,-0.001330216492569015,-3.2519260651032284E-5,335146.570036,1.64070709884E-11,1126.1044755,-4.88704611809,5.54224571226,4.89167051695
2340.0,-2137763.77156,-4982128.50339,-3949163.86436,3835947.86426,-3828144.60383,-3952005.37318,2137.58563129,6263.42502421,-4010.43218819,-5.06724834292,5.05694031478,5.22055913873,6759053.07579,1.19398330337,2.7138757374179048,1.5490102192175488,2.7667943635150976,-2.333676727628255,0.6230703661505956,-0.8098441063116237,-1.9585614615013217E-5,-0.0013359435313804004,-3.590183134746112E-5,336572.852288,1.57216228739E-11,1119.80695984,-5.06724834292,5.05694031478,5.22055913873
2400.0,-1757966.69114,-4943084.16797,-4180099.45578,3954984.90837,-3443538.91046,-4183048.36043,1828.76105392,6551.66821047,-3687.96724962,-5.22271425802,4.54732955557,5.52388108175,6759053.07579,1.19835857246,2.262692015114285,1.557208908112125,2.316098529834995,-2.2886815127990134,0.6755736868762197,-0.7335360372504163,-1.9585614615013217E-5,-0.001339152984669329,-3.963638668746035E-5,338226.571559,1.49812208898E-11,1113.12980628,-5.22271425802,4.54732955557,5.52388108175
2460.0,-1369419.85535,-4884006.3332,-4391171.21226,4055227.83087,-3042569.33836,-4394213.49952,1511.36985379,6808.67076269,-3348.10798978,-5.3526882467,4.01603209892,5.80013156679,6759053.07579,1.20273384154,1.349876100534429,1.5588313742988147,1.403638332923582,-2.2363062505807068,0.7249550717625877,-0.6504921750037461,-1.9585614615013217E-5,-0.0013397964212333011,-4.367353955885439E-5,340086.949208,1.42029642211E-11,1106.12296679,-5.3526882467,4.01603209892,5.80013156679
2520.0,-973791.369751,-4805254.26115,-4581385.47492,4136208.90944,-2627147.73915,-4584506.69429,1186.96066657,7033.2128646,-2992.52002966,-5.45655696921,3.46577787028,6.04795901291,6759053.07579,1.20710911063,0.7382943601237049,1.552005567930115,0.7922947843572831,-2.1759593187929904,0.7704607733615105,-0.5600713830112558,-1.9585614615013217E-5,-0.0013378616586846098,-4.795770759419726E-5,342132.738713,1.34030754251E-11,1098.84232518,-5.45655696921,3.46577787028,6.04795901291
2580.0,-572785.153879,-4707267.63332,-4749850.78901,4197554.35713,-2199254.18077,-4753036.12329,857.114582639,7224.24138794,-2622.94529694,-5.53385234125,2.89939018337,6.26617259505,6759053.07579,1.21148437972,0.4906520091795091,1.5424415167023127,0.5447899828899767,-2.107251959551964,0.8112743367561068,-0.46183998853105845,-1.9585614615013217E-5,-0.0013333729004045818,-5.2428236370954975E-5,344342.570476,1.25963955879E-11,1091.34912753,-5.53385234125,2.89939018337,6.26617259505
2640.0,-168132.927473,-4590563.85722,-4895782.18731,4238986.00693,-1760926.78911,-4899016.52483,523.436371451,7380.87494608,-2241.19218712,-5.58425335072,2.31976734681,6.45374846704,6759053.07579,1.21585964881,0.3678740871426202,1.5324191558760865,0.4220677432720567,-2.0301543998967824,0.8465459461499291,-0.35572742415776465,-1.9585614615013217E-5,-0.0013263901658873097,-5.702062712305079E-5,346695.279831,1.17960102269E-11,1083.70870943,-5.58425335072,2.31976734681,6.45374846704
2700.0,238413.934224,-4455735.01921,-5018504.87327,4260322.46716,-1314251.31974,-5021772.88145,187.545631709,7502.40783335,-1849.12539243,-5.60758671499,1.72986394752,6.60983461059,6759053.07579,1.2202349179,0.29370312945053273,1.5225768527886274,0.34789088255529843,-1.9451708742273528,0.8754441114820185,-0.2422007523107605,-1.9585614615013217E-5,-0.001317008044848582,-6.1667835620305E-5,349170.212256,1.10130028406E-11,1075.98838947,-5.60758671499,1.72986394752,6.60983461059
2760.0,645092.626255,-4303444.50744,-5117457.28626,4261479.74551,-861350.526996,-5120743.48606,-148.932063516,7588.31283656,-1448.65548146,-5.60382639698,1.13267200796,6.7337542903,6759053.07579,1.22461018698,0.24249260447408053,1.5132024479918942,0.2966342417929637,-1.8534853665923525,0.8972309342411884,-0.12240988641071884,-1.9585614615013217E-5,-0.0013053538347780561,-6.630160764149515E-5,351747.500551,1.02563282286E-11,1068.25453652,-5.60382639698,1.13267200796,6.7337542903
2820.0,1050137.17125,-4134423.33074,-5192193.5368,4242471.3432,-404373.398384,-5195482.37767,-484.373959199,7638.2429171,-1041.72831349,-5.57309201318,0.531202210826,6.82500811467,6759053.07579,1.22898545607,0.2036647044157169,1.5044814527258135,0.25774204215387514,-1.7570057217044104,0.9113529488533685,0.001768846479728221,-1.9585614615013217E-5,-0.0012915851451659377,-7.085381738916855E-5,354408.309484,9.53279747709E-12,1060.56906823,-5.57309201318,0.531202210826,6.82500811467
2880.0,1451786.6593,-3949466.16093,-5242385.20403,4203407.82517,54515.6783473,-5245661.13888,-817.168783163,7652.03177315,-630.314370399,-5.51564618127,-0.071534622764,6.88327472194,6759053.07579,1.23336072516,0.17211860952338187,1.4965560090917613,0.22613570528945537,-1.6582399516688022,0.9175276739239859,0.12785697777525365,-1.9585614615013217E-5,-0.0012758870672386685,-7.525777801426811E-5,357135.044295,8.84716777566E-12,1052.98594874,-5.51564618127,-0.071534622764,6.88327472194
2940.0,1848293.42267,-3749427.12758,-5267822.49316,4144495.87575,513147.748719,-5271070.0531,-1145.7252214,7629.69330268,-216.398087947,-5.43189086714,-0.672545625168,6.90841012752,6759053.07579,1.23773599425,0.14509095505231537,1.4895424829435004,0.19907387795283682,-1.5599948671488384,0.9157987498401906,0.2530758780302339,-1.9585614615013217E-5,-0.0012584690148274586,-7.944949770446208E-5,359911.520269,8.20232848813E-12,1045.5484784,-5.43189086714,-0.672545625168,6.90841012752
3000.0,2237931.09915,-3535215.39525,-5268414.75509,4066036.85298,969360.060599,-5271618.62336,-1468.48014593,7571.41999793,198.03273503,-5.32236280272,-1.26887338102,6.9004457868,6759053.07579,1.24211126334,0.12094055831560535,1.4835374395594334,0.17493672846551322,-1.464974441203557,0.906538042531394,0.37474903975950635,-1.9585614615013217E-5,-0.0012395613399846259,-8.336885989620476E-5,362723.091517,7.59956698499E-12,1038.28812062,-5.32236280272,-1.26887338102,6.9004457868
3060.0,2619002.53985,-3307790.55367,-5244190.37524,3968424.85797,1421006.70587,-5247335.46012,-1783.90654191,7477.58031148,610.997374296,-5.18772805519,-1.85761268475,6.85958544151,6759053.07579,1.24648653242,0.09861270641653311,1.4786197470488418,0.15268982530680925,-1.375412874533043,0.8903917914957697,0.4906696943896347,-1.9585614615013217E-5,-0.0012194118171609352,-8.696071147007175E-5,365556.737966,7.03888547715E-12,1031.22520936,-5.18772805519,-1.85761268475,6.85958544151
3120.0,2989847.51966,-3068157.85218,-5195296.04281,3852144.33894,1865969.07438,-5198367.549,-2090.52108555,7348.71504243,1020.5323942,-5.02877583577,-2.43592642589,6.78620083147,6759053.07579,1.25086180151,0.0773770799688261,1.4748512609258682,0.13162168191669477,-1.292856858824766,0.868188977073644,0.5993192661871283,-1.9585614615013217E-5,-0.0011982820741905376,-9.017584762853763E-5,368401.110435,6.51933050856E-12,1024.37127668,-5.02877583577,-2.43592642589,6.78620083147
3180.0,3348850.21116,-2817363.30924,-5121995.41597,3717767.25214,2302166.06313,-5124978.9142,-2386.8913301,7185.53279856,1424.70157259,-4.84641164172,-3.00106048949,6.68082636401,6759053.07579,1.2552370706,0.056687300497210234,1.47227698630471,0.11120296305777996,-1.2181307636763021,0.8408403288343402,0.6999029358758202,-1.9585614615013217E-5,-0.001176444029306022,-9.297188602615505E-5,371246.534488,6.03929708197E-12,1017.73225072,-4.84641164172,-3.00106048949,6.68082636401
3240.0,3694446.38566,-2556488.72799,-5024667.202,3565949.80423,2727563.98684,-5027548.69645,-2671.64246284,6988.90459627,1821.60547721,-4.64164982897,-3.55035757879,6.54415284235,6759053.07579,1.25961233969,0.036098327098905245,1.4709250790288466,0.09100358464918802,-1.1514408199304884,0.8092519935628608,0.7922462376139865,-1.9585614615013217E-5,-0.0011541763734063638,-9.531402530710086E-5,374084.974545,5.59678072794E-12,1011.31164377,-4.64164982897,-3.55035757879,6.54415284235
3300.0,4025130.30821,-2286646.64772,-4903802.67502,3397428.80301,3140186.14053,-4906568.66827,-2943.46360173,6759.85766546,2209.39064011,-4.4156057145,-4.08126988692,6.37702036051,6759053.07579,1.26398760878,0.015212017295130636,1.4708068382045212,0.0706380268488343,-1.092543501439002,0.7742655688639475,0.8766274822813375,-1.9585614615013217E-5,-0.0011317611184833243,-9.717568436011444E-5,376909.960475,5.18956737259E-12,1005.11307205,-4.4156057145,-4.08126988692,6.37702036051
3360.0,4339461.29657,-2008975.26081,-4760002.6568,3213017.64477,3538121.96808,-4762640.21201,-3201.11360661,6499.56853001,2586.2582837,-4.16948730724,-4.59137056448,6.1804104765,6759053.07579,1.26836287786,-0.006364742385043113,1.4719167504937063,0.04972326924096571,-1.0409157041258579,0.7366248178151277,0.9536084015721363,-1.9585614615013217E-5,-0.001109480218320189,-9.853901843766486E-5,379716.479529,4.81536504639E-12,999.141821614,-4.16948730724,-4.59137056448,6.1804104765
3420.0,4636069.91756,-1724633.32314,-4593973.9887,3013601.968,3919535.79589,-4596470.78875,-3443.4263856,6209.35543712,2950.47255823,-3.9045867647,-5.07836394948,5.95543777733,6759053.07579,1.27273814695,-0.029059214304778553,1.4742325981848907,0.027839471683351387,-0.9958931699318515,0.6969631825531251,1.0238965573250478,-1.9585614615013217E-5,-0.0010876122579302984,-9.939530708731657E-5,382500.8371,4.47188921313E-12,993.405495471,-3.9045867647,-5.07836394948,5.95543777733
3480.0,4913663.79742,-1434795.08476,-4406525.52516,2800135.00424,4282675.09454,-4408869.92844,-3669.3156829,5890.67021055,3300.36825786,-3.62227166888,-5.54009454489,5.70334094941,6759053.07579,1.27711341604,-0.053377724075674635,1.4777156078672082,0.004484973130356418,-0.9567680927612346,0.6558047988197899,1.0882485702033806,-1.9585614615013217E-5,-0.0010664292044172052,-9.974520705115986E-5,385260.490297,4.15691511046E-12,987.913952513,-3.62227166888,-5.54009454489,5.70334094941
3540.0,5171033.0263,-1140645.26632,-4198563.68078,2573632.65745,4625878.23626,-4200744.7735,-3877.77934009,5545.08960263,3634.35798889,-3.32397621037,-5.97455474653,5.4254734655,6759053.07579,1.28148868513,-0.0799664880632936,1.4823105762774014,-0.0209845693235655,-0.9228504015156468,0.6135728895489246,1.1474096637028772,-1.9585614615013217E-5,-0.001046193214229913,-9.959886145308513E-5,387993.858759,3.86830849711E-12,982.678793087,-3.32397621037,-5.97455474653,5.4254734655
3600.0,5407055.14017,-843374.104545,-3971087.5644,2335168.34355,4947581.72038,-3973095.2091,-4067.90302771,5174.30621967,3950.93877037,-3.01119236341,-6.37989134055,5.12329399539,6759053.07579,1.28586395422,-0.1097043405110635,1.4879458434269877,-0.04944888989080065,-0.8935018806736177,0.570601332142365,1.2020803550089407,-1.9585614615013217E-5,-0.00102715349933519,-9.897585527997164E-5,390700.117498,3.60404302282E-12,977.712612646,-3.01119236341,-6.37989134055,5.12329399539
3660.0,5620699.6667,-544172.488993,-3725183.73478,2085867.62197,5246326.84327,-3727008.61497,-4238.86344901,4780.11909369,4248.69805362,-2.68546112793,-6.75441080423,4.79835664237,6759053.07579,1.2902392233,-0.14385663230043008,1.4945328520427588,-0.08217694725219568,-0.8681521204095416,0.5271468996002348,1.2529012946234397,-1.9585614615013217E-5,-0.0010095432666256477,-9.790500688832017E-5,393378.976818,3.36220951557E-12,973.028183925,-2.68546112793,-6.75441080423,4.79835664237
3720.0,5811032.22481,-244227.209725,-3462020.61283,1826902.6506,5520765.79381,-3463654.27352,-4389.93102205,4364.42397074,4526.31915317,-2.34836390665,-7.09658345672,4.45230110012,6759053.07579,1.29461449239,-0.18434927090377193,1.5019647457829037,-0.12110085492973734,-0.8463033303443996,0.483400886111969,1.3004492181276126,-1.9585614615013217E-5,-9.935767590892397E-4,-9.642398646986816E-5,396030.45451,3.14102032076E-12,968.637667816,-2.34836390665,-7.09658345672,4.45230110012
3780.0,5977218.17013,55283.6658695,-3182842.58594,1559486.49531,5769667.15933,-3184277.46993,-4520.47204981,3929.20338342,4782.58608683,-2.00151407727,-7.40504651712,4.08684281729,6759053.07579,1.29898976148,-0.2342913140196465,1.5101127781679662,-0.16933832578339666,-0.8275288938808135,0.4394995769025242,1.3452391352560469,-1.9585614615013217E-5,-9.794464419824599E-4,-9.457875530330623E-5,398654.645627,2.93881044967E-12,964.551906322,-2.00151407727,-7.40504651712,4.08684281729
3840.00000001,6118525.78184,353195.271091,-2888963.83958,1284867.3242,5991920.83096,-2890193.31942,-4629.95039201,3476.51657091,5016.38782793,-1.64654881108,-7.67860613658,3.70376324796,6759053.07579,1.30336503057,-0.2990480816756801,1.5188175347056814,-0.23226560012263076,-0.8114687850225355,0.3955334380960032,1.3877296429546833,-1.9585614615013217E-5,-9.673203903342513E-4,-9.242282425603257E-5,401251.49508,2.75403650206E-12,960.779819016,-1.64654881108,-7.67860613658,3.70376324796
3900.00000001,6234328.98838,648360.258604,-2581761.95138,1004322.51621,6186542.30124,-2582780.35695,-4717.92865433,3008.48930614,5226.72197682,-1.28512118071,-7.91623847754,3.3049002569,6759053.07579,1.30774029966,-0.38863144917708636,1.5278668749835567,-0.3199075245326728,-0.7978237235181102,0.3515551074036935,1.4283295026855185,-1.9585614615013217E-5,-9.573399436720424E-4,-9.001633615146777E-5,403820.578217,2.5852739158E-12,957.327904974,-1.28512118071,-7.91623847754,3.3049002569
3960.00000001,6324109.63215,939652.947543,-2262671.28216,719152.712275,6352676.34982,-2263473.92368,-4784.06891379,2527.30368474,5412.69786296,-0.918892590997,-8.11708991876,2.89213873894,6759053.07579,1.31211556874,-0.523458355262484,1.5369361450487515,-0.4526958204430692,-0.7863491287698201,0.30758634999242923,1.467404446413072,-1.9585614615013217E-5,-9.496176983485632E-4,-8.742498387016932E-5,406360.894278,2.43121290224E-12,954.199841583,-0.918892590997,-8.11708991876,2.89213873894
4020.00000001,6387459.2751,1225973.28866,-1933176.19752,430675.836456,6489600.11669,-1933759.38411,-4828.13300025,2035.18792601,5573.53909174,-0.549525558554,-8.28047646755,2.4674015018,6759053.07579,1.31649083783,-0.7483658712647347,1.5454100020330894,-0.6754838926358109,-0.7768494295122906,0.26362416276492373,1.5052836887629286,-1.9585614615013217E-5,-9.442359062074929E-4,-8.471878377240127E-5,408870.677352,2.29065334057E-12,951.396166651,-0.549525558554,-8.28047646755,2.4674015018
4080.00000001,6424080.54918,1506250.63887,-1594804.15299,140221.112943,6596725.56493,-1595165.20658,-4849.98235563,1534.4062307,5708.58555321,-0.178676857557,-8.4058824621,2.03264045201,6759053.07579,1.32086610692,-1.1520287716275643,1.5518601397996175,-1.0769641221376662,-0.7691729908245236,0.21964619838929875,1.5422659283747693,-1.9585614615013217E-5,-9.412453402276571E-4,-8.19707315029658E-5,411347.229036,2.16249886658E-12,948.914028522,-0.178676857557,-8.4058824621,2.03264045201
4140.00000001,6433788.05692,1779447.33834,-1249118.67426,-150876.896397,6673601.33771,-1249255.93899,-4849.5774931,1027.24873609,5817.29491192,0.192008958426,-8.49295864643,1.58982811405,6759053.07579,1.32524137601,-1.759140960164201,1.55349104163033,-1.6818490016877683,-0.7632077564127645,0.17561565603104393,1.5786247954397392,-1.9585614615013217E-5,-9.406646737338465E-4,-7.925537369525019E-5,413786.776534,2.04575036608E-12,946.746988592,0.192008958426,-8.49295864643,1.58982811405
4200.00000001,6416508.82913,2044562.08466,-897712.26312,-441284.210585,6719914.01633,-897625.110148,-4826.97707905,516.021603133,5899.24359832,0.560905655685,-8.54151969878,1.14094950349,6759053.07579,1.3296166451,-2.280846960484432,1.5492048331488846,-2.2013023256835496,-0.7588776204828859,0.13148575904582746,1.6146137962007672,-1.9585614615013217E-5,-9.424804009145239E-4,-7.66473338518289E-5,416184.35937,1.93949905692E-12,944.884860768,0.560905655685,-8.54151969878,1.14094950349
4260.00000001,6372282.3474,2300633.10031,-542199.258236,-729673.282246,6735488.78823,-541888.08601,-4782.33666022,3.0372665686,5954.12732361,0.92641104427,-8.55154129087,0.687994366592,6759053.07579,1.33399191418,-2.5825387208531545,1.5417035163005492,-2.5007356881022025,-0.7561395072442978,0.08720391536935403,1.6504708513531612,-1.9585614615013217E-5,-9.466473043536418E-4,-7.42198332383109E-5,418533.747289,1.84291930919E-12,943.313572165,0.92641104427,-8.55154129087,0.687994366592
4320.00000001,6301260.14053,2546741.09072,-184208.67878,-1014728.76389,6720289.53563,-183674.908838,-4715.90705864,-509.395126458,5981.76114001,1.28695233576,-8.52315675145,0.232949790486,6759053.07579,1.33836718327,-2.755263420736858,1.5331520749559362,-2.671215978692711,-0.7549811263781321,0.042715636443364555,1.686422544294692,-1.9585614615013217E-5,-9.530894523868266E-4,-7.204324769135057E-5,420827.391292,1.75526320067E-12,942.015248625,1.28695233576,-8.52315675145,0.232949790486
4380.00000001,6203704.96422,2782011.99167,174622.922551,-1295153.16846,6674418.35662,175376.854216,-4628.03245557,-1018.97906735,5982.07906873,1.64099114902,-8.45665340193,-0.222206818869,6759053.07579,1.34274245236,-2.8649109131069643,1.524471792514078,-2.7786525147571948,-0.7554193773682293,-0.0020317241446452493,1.7226881990507386,-1.9585614615013217E-5,-9.617016874448615E-4,-7.018373882131812E-5,423056.40901,1.67593472608E-12,940.977980295,1.64099114902,-8.45665340193,-0.222206818869
4440.00000001,6079989.57449,3005619.50557,532658.571844,-1569672.40608,6598114.53198,533629.227771,-4519.14818534,-1523.43980887,5955.13331744,1.98702818223,-8.35246862583,-0.675514400542,6759053.07579,1.34711772145,-2.941639502845345,1.5160872112258468,-2.8532225116803445,-0.7574993869485648,-0.047085360341663794,1.759483903713743,-1.9585614615013217E-5,-9.723515481812998E-4,-6.870199345610122E-5,425210.605012,1.60449935919E-12,940.199593815,1.98702818223,-8.35246862583,-0.675514400542
4500.00000001,5930595.10512,3216787.42732,888267.927635,-1837041.18025,6491752.95185,889450.886141,-4389.77825825,-2020.53324557,5901.09310825,2.32360757277,-8.21118572715,-1.1250345593,6759053.07579,1.35149299054,-2.999619320176244,1.5082419600115342,-2.909114154663731,-0.76129417708752,-0.09248348369743535,1.7970265873333777,-1.9585614615013217E-5,-9.848815547908805E-4,-6.765209883783766E-5,427278.525857,1.54056156379E-12,939.674593845,2.32360757277,-8.21118572715,-1.1250345593
4560.00000001,5756109.0603,3414791.76093,1239834.25317,-2096048.22773,6355842.01713,1241224.12976,-4240.53263072,-2508.05454059,5820.24313635,2.6493209692,-8.033529625,-1.56885756298,6759053.07579,1.35586825962,-3.046126533703055,1.5011020588743729,-2.9536205194373832,-0.766904972939012,-0.13825182512145323,1.8355382476642434,-1.9585614615013217E-5,-9.991117795915367E-4,-6.708057371280601E-5,429247.549098,1.48375757831E-12,939.393347274,2.6493209692,-8.033529625,-1.56885756298
4620.00000001,5557222.93331,3598962.6291,1585761.28567,-2345521.38744,6191021.03107,1587351.75851,-4072.10423905,-2983.84649016,5712.98167777,2.96281134126,-7.82036242475,-2.00510804031,6759053.07579,1.36024352871,-3.085230902332658,1.4947924191125568,-2.990826845263062,-0.7744621678001297,-0.18440011455970534,1.8752504147791087,-1.9585614615013217E-5,-0.0010148426237612056,-6.702556779986124E-5,431104.004758,1.43375555586E-12,939.342115213,2.96281134126,-7.82036242475,-2.00510804031
4680.00000001,5334729.46254,3768685.97806,1924479.98215,-2584332.48475,5998057.0971,1926263.82142,-3885.2658118,-3445.80761963,5579.81836374,3.26277655495,-7.57267889759,-2.43195040586,6759053.07579,1.3646187978,-3.1193846352887333,1.4894111371678787,-3.023199133235451,-0.7841269621044564,-0.23091847605771815,1.9164089175002657,-1.9585614615013217E-5,-0.0010318577260494536,-6.751623490045597E-5,432833.327208,1.39025113144E-12,939.502461981,3.26277655495,-7.57267889759,-2.43195040586
4740.00000001,5089519.53598,3923405.08071,2254455.12217,-2811402.0181,5777841.53899,2256424.22324,-3680.86647401,-3891.90000602,5421.37163698,3.54797273996,-7.29160189264,-2.84759404108,6759053.07579,1.36899406689,3.133018783155098,1.4850355539097304,-3.0523280379154003,-0.7960936805142034,-0.2777736640648387,1.959278993496686,-1.9585614615013217E-5,-0.001049926939024619,-6.857227873220425E-5,434420.23484,1.35294485201E-12,939.847978113,3.54797273996,-7.29160189264,-2.84759404108
4800.00000001,4822578.7553,4062621.84102,2574191.74889,-3025703.63598,5531385.86001,2576337.16915,-3459.82815497,-4320.15682378,5238.3659036,3.81721747658,-6.97837769815,-3.25029826144,6759053.07579,1.37336933598,3.1045259712783135,1.4817249602322906,-3.0793060464901347,-0.8105927375592396,-0.32490505361480393,2.004150739807651,-1.9585614615013217E-5,-0.001068809321676433,-7.020366585817325E-5,435848.934436,1.32158367151E-12,940.350092943,3.81721747658,-6.97837769815,-3.25029826144
4860.00000001,4534983.6708,4185897.90326,2882241.43071,-3226268.39277,5259817.25767,2884553.42983,-3223.14180946,-4728.6896109,5031.62839281,4.06939282795,-6.63437136001,-3.63837710015,6759053.07579,1.37774460506,3.0775292247265567,1.4795218450748961,-3.10493356294036,-0.827894154965973,-0.37222028439338173,2.0513448267889194,-1.9585614615013217E-5,-0.0010882561122999134,-7.241049708002842E-5,437103.346736,1.29653599366E-12,941.064712002,4.06939282795,-6.63437136001,-3.63837710015
4920.00000001,4227897.69816,4292855.56917,3177208.32593,-3412188.77242,4964373.71099,3179676.40951,-2971.86346115,-5115.69525288,4802.08573416,4.30344824216,-6.26106195903,-4.01020393882,6759053.07579,1.38211987415,3.0514034725032504,1.4784524900190668,-3.129840573371628,-0.848311413429712,-0.4195904505184502,2.1012182738261056,-1.9585614615013217E-5,-0.0011080136605525124,-7.518302735590552E-5,438167.34937,1.27822735007E-12,942.052794687,4.30344824216,-6.26106195903,-4.01020393882
4980.00000001,3902566.72819,4383178.5266,3457755.03415,-3582622.46958,4646398.65725,3460368.00046,-2707.1100752,-5479.46268201,4550.76026094,4.51840334631,-5.86003784084,-4.36421601368,6759053.07579,1.38649514324,3.025612537332142,1.478527273885111,3.128619725612955,-0.8722052179426152,-0.4668447308443126,2.1541698800488165,-1.9585614615013217E-5,-0.0011278263109771533,-7.850182449325107E-5,439025.033059,1.26705098924E-12,943.363942476,4.51840334631,-5.86003784084,-4.36421601368
5040.00000001,3560314.44069,4456612.39282,3722608.21792,-3736795.91817,4307335.27534,3725354.20763,-2430.05526591,-5818.37928869,4278.7660462,4.7133506522,-5.43299178598,-4.69891882477,6759053.07579,1.39087041233,2.9996507061354767,1.4797408548624693,3.1035713380493943,-0.8999864265591513,-0.5137643808210824,2.210644573708603,-1.9585614615013217E-5,-0.0011474392405288565,-8.23380582128711E-5,439660.966818,1.26343843622E-12,945.043435177,4.7133506522,-5.43299178598,-4.69891882477
5100.00000001,3202537.33366,4512965.07563,3970563.97883,-3874007.55751,3948720.39332,3973430.52753,-2141.92484436,-6130.93704071,3987.3046765,4.88745819009,-4.98171610154,-5.01289047228,6759053.07579,1.39524568142,2.972991139253221,1.482072299629173,3.077675745309248,-0.9321168821275176,-0.5600760761963786,2.271135434352338,-1.9585614615013217E-5,-0.00116660125887873,-8.665391318476373E-5,440060.467783,1.27553912472E-12,947.134897068,4.88745819009,-4.98171610154,-5.01289047228
5160.00000001,2830699.47928,4552106.95507,4200492.97253,-3993630.82666,3572178.03751,4203467.0658,-1843.99220974,-6415.73830514,3677.66076719,5.03997208328,-4.50809761017,-5.30478594146,6759053.07579,1.39962095051,2.9450299354505187,1.4854851672969454,3.0503347197867257,-0.9691061343134678,-0.6054447433703101,2.336181390663117,-1.9585614615013217E-5,-0.0011850675818695607,-9.14031218123882E-5,440209.871228,1.28932716212E-12,949.681935827,5.03997208328,-4.50809761017,-5.30478594146
5220.00000001,2446327.01826,4573970.88854,4411345.24709,-4095116.87764,3179412.64155,4414413.37799,-1537.57358784,-6671.50136565,3351.19722158,5.17021907258,-4.01411250769,-5.57334135339,6759053.07579,1.40399621959,2.9150130304076733,1.489927498651245,3.02080245939373,-1.011501007351985,-0.6494662779883023,2.4063575668696373,-1.9585614615013217E-5,-0.0012026025854324429,-9.653161435629201E-5,440096.796396,1.31256729091E-12,952.729244057,5.17021907258,-4.01411250769,-5.57334135339
5280.00000001,2051002.40477,4578552.04154,4602154.78958,-4177996.99836,2772201.93365,4605303.01821,-1224.02311939,-6897.06562669,3009.35023591,5.27760899537,-3.5018210563,-5.81737819459,6759053.07579,1.40837148868,2.8819262692341536,1.4953315783798278,2.988075540396636,-1.0598637104506887,-0.6916610045797782,2.4822539924869393,-1.9585614615013217E-5,-0.0012189825400115704,-1.0197828503504147E-4,439710.403817,1.33671748245E-12,956.323129023,5.27760899537,-3.5018210563,-5.81737819459
5340.00000001,1646358.41437,4565907.54622,4772043.76549,-4241884.73652,2352389.5213,4775257.78059,-904.727800987,-7091.39649329,2653.6240508,5.36163721947,-2.97336207735,-6.03580753351,6759053.07579,1.41274675777,2.844312666725998,1.5016131808950326,2.9507100102442596,-1.1147329848390788,-0.7314694269606835,2.5644371885271444,-1.9585614615013217E-5,-0.0012339983149728582,-1.076758726609409E-4,439041.639926,1.38134194824E-12,960.511179722,5.36163721947,-2.97336207735,-6.03580753351
5400.00000001,1234071.92822,4536155.98949,4920226.43591,-4286477.71557,1921877.19323,4923491.61811,-581.10228154,-7253.58991356,2285.58545013,5.42188702733,-2.43094720504,-6.22763422668,6759053.07579,1.41712202686,2.7999434883571177,1.5086696663401375,2.9064922549308596,-1.1765623669367797,-0.7682527788412316,2.6533887290125358,-1.9585614615013217E-5,-0.0012474580297014782,-1.1355195302516962E-4,438083.464979,1.43896898493E-12,965.340602005,5.42188702733,-2.43094720504,-6.22763422668
5460.00000001,815857.507434,4489476.73228,5046012.73733,-4311559.13418,1482616.95938,5049314.2239,-254.583517253,-7382.87656815,1906.85800787,5.45803194134,-1.87685486137,-6.39196111156,6759053.07579,1.42149729595,2.7451805286999655,1.5163754604222162,2.851801021394461,-1.2456314397154549,-0.8013019803808953,2.74941666905904,-1.9585614615013217E-5,-0.001259189614898718,-1.1953003761727806E-4,436831.060473,1.51128740948E-12,970.854682908,5.45803194134,-1.87685486137,-6.39196111156
5520.00000001,393460.772461,4426109.06113,5148811.50896,-4316998.94089,1036602.85042,5152134.25972,73.3747107207,-7478.62568895,1519.116084,5.46983797588,-1.31342391202,-6.52799317687,6759053.07579,1.42587256503,2.673639329577889,1.5245712294839284,2.7802703405165747,-1.3219320056062078,-0.8298594166860668,2.852541791750684,-1.9585614615013217E-5,-0.0012690432352386088,-1.2553076952356962E-4,435282.012521,1.60026441777E-12,977.087008924,5.46983797588,-1.31342391202,-6.52799317687
5580.00000001,-31348.3966172,4346351.17324,5228133.35252,-4302754.67579,585862.49987,5231462.21682,401.307411113,-7540.34848648,1124.07857116,5.45716579717,-0.743046963408,-6.63504169538,6759053.07579,1.43024783412,2.5731445854635293,1.5330364693309446,2.679744604101995,-1.405043186661223,-0.8531576216244464,2.962372698049169,-1.9585614615013217E-5,-0.001276893514854707,-1.3147320284419945E-4,433436.467924,1.70812841677E-12,984.053613051,5.45716579717,-0.743046963408,-6.63504169538
5640.00000001,-456782.821916,4250558.99592,5283593.10973,-4268871.97156,132448.532868,5286912.89411,727.744123605,-7567.70116342,723.502395121,5.4199727668,-0.168163263252,-6.71252829728,6759053.07579,1.43462310321,2.4182908132066365,1.5414135047108437,2.524838878559445,-1.4940264224532394,-0.8704763024964542,3.0780007274834715,-1.9585614615013217E-5,-0.0012826415013957539,-1.3727614713548157E-4,431297.259978,1.83732391632E-12,991.744204928,5.4199727668,-0.168163263252,-6.71252829728
5700.00000001,-881045.133323,4139144.84105,5314911.94281,-4215484.70635,-321570.212897,5318207.47909,1051.21477831,-7560.48748941,319.17577317,5.35831484034,0.408748830564,-6.75998895603,6759053.07579,1.4389983723,2.1531897922748615,1.5489774211612877,2.2596859685003157,-1.5873858053913603,-0.8812134221347259,-3.085225140948437,-1.9585614615013217E-5,-0.001286216303462165,-1.4285955376488183E-4,428870.001421,1.99044295216E-12,1000.11477243,5.35831484034,0.408748830564,-6.75998895603
5760.00000001,-1302334.99809,4012575.89551,5321919.00359,-4142814.80182,-774117.606856,5325175.21719,1370.25566403,-7518.66091023,-87.0887630613,5.27234828788,0.985179843746,-6.77707785215,6759053.07579,1.44337364139,1.683191073139688,1.5540230264442036,1.789656535113326,-1.683137312839607,-0.8849583027755593,-2.9628879890575277,-1.9585614615013217E-5,-0.0012875763407399928,-1.481459171847362E-4,426163.142244,2.17014860834E-12,1009.08444902,5.27234828788,0.985179843746,-6.77707785215
5820.00000001,-1718856.45317,3871372.54814,5304552.67748,-4051171.66017,-1223119.25713,5307754.6556,1683.4154934,-7442.3261628,-493.461571984,5.16233119929,1.55859766783,-6.76357107406,6759053.07579,1.44774891047,1.0651936346492115,1.553872945768575,1.1716703583685744,-1.7790007655228168,-0.8815487038162608,-2.840423023720982,-1.9585614615013217E-5,-0.00128671015586701,-1.5306166146858332E-4,423187.990535,2.37911350702E-12,1018.53884588,5.16233119929,1.55859766783,-6.76357107406
5880.00000001,-2128825.31747,3716106.55431,5262861.38889,-3940951.23457,-1666511.62342,5265994.44832,1989.26155102,-7331.74036612,-898.103322436,5.02862473314,2.1264565504,-6.71937010921,6759053.07579,1.45212417956,0.6106297376635139,1.548707822574249,0.7171797980620478,-1.872677341871246,-0.8710945538685629,-2.720099016515078,-1.9585614615013217E-5,-0.001283636751295216,-1.5753848135060332E-4,419958.694923,2.61999247036E-12,1028.33991707,5.02862473314,2.1264565504,-6.71937010921
5940.00000001,-2530476.65938,3547399.03901,5197003.95552,-3812634.72876,-2102251.17886,5200053.70986,2286.38590757,-7187.3135572,-1299.17261595,4.87169406533,2.68620660527,-6.64450507325,6759053.07579,1.45649944865,0.35545682249509836,1.541264138564284,0.46216130991906396,-1.9621328369977185,-0.8539604408703124,-2.6039205226614404,-1.9585614615013217E-5,-0.001278405431827234,-1.6151460763697286E-4,416492.187642,2.89543271277E-12,1038.33984445,4.87169406533,2.68620660527,-6.64450507325
6000.00000001,-2922072.2933,3365918.33996,5107249.48006,-3666786.92222,-2528323.58661,5110201.90586,2573.4116808,-7009.6086407,-1694.83379346,4.69210899059,3.23530384598,-6.53913761962,6759053.07579,1.46087471774,0.20557578890100606,1.5331689754154156,0.31253336316178987,-2.045803818259181,-0.8307128402054874,-2.493421868662774,-1.9585614615013217E-5,-0.0012710951526625294,-1.649359691801078E-4,412808.08776,3.20810492466E-12,1048.39495786,4.69210899059,3.23530384598,-6.53913761962
6060.00000001,-3301908.27719,3172377.69254,4993976.76872,-3504054.11881,-2942752.85503,4996818.27049,2848.99932093,-6799.34072098,-2083.26490554,4.49054412846,3.7712207365,-6.40356346811,6759053.07579,1.46524998683,0.10781124536964502,1.5251105598685153,0.2151363542542521,-2.122682772755197,-0.8020485097930701,-2.3895821050962174,-1.9585614615013217E-5,-0.0012618133914714003,-1.6775722738732169E-4,408928.564602,3.56072619455E-12,1058.37619421,4.49054412846,3.7712207365,-6.40356346811
6120.00000001,-3668322.38111,2967532.75876,4857673.26755,-3325161.71827,-3343610.43351,4860390.74114,3111.8528953,-6557.375786,-2462.66582118,4.26777868438,4.29145724208,-6.23821448707,6759053.07579,1.46962525591,0.038001417699061985,1.5174310429906703,0.1458222139245406,-2.192290281945108,-0.7687224579542254,-2.29285287255764,-1.9585614615013217E-5,-0.0012506945798920145,-1.699426640509665E-4,404878.162011,3.95604667122E-12,1068.17450198,4.26777868438,4.29145724208,-6.23821448707
6180.00000001,-4019701.49553,2752179.00322,4698933.50908,-3130911.41127,-3729024.20909,4701514.4033,3360.72634414,-6284.7287138,-2831.26644658,4.02469571624,4.79355235221,-6.04366026157,6759053.07579,1.474000525,-0.015498106098168167,1.5103417842886877,0.09295789094053418,-2.2545756248678823,-0.7314885745682267,-2.2032577622436618,-1.9585614615013217E-5,-0.001237898142893848,-1.7146690860828264E-4,400683.584632,4.39678255559E-12,1077.70160269,4.02469571624,4.79355235221,-6.04366026157
6240.00000001,-4354488.94584,2527148.91971,4518457.06368,-2922178.00077,-4097187.36258,4520889.43969,3594.42967625,-5982.56057446,-3187.33502067,3.76228085798,5.27509603514,-5.82060907841,6759053.07579,1.47837579409,-0.058828689787358314,1.5039945232794023,0.050410822966122815,-2.3097922485683706,-0.6910582590862446,-2.12051671450353,-1.9585614615013217E-5,-0.0012236062030082403,-1.7231549619053027E-4,396373.44808,4.88549049784E-12,1086.88766956,3.76228085798,5.27509603514,-5.82060907841
6300.00000001,-4671191.67872,2293309.11279,4317045.99205,-2699905.85431,-4446367.04093,4319318.58037,3811.83507065,-5652.17520314,-3529.18645076,3.48162045382,5.73374157108,-5.56990825881,6759053.07579,1.48275106318,-0.09550849242186375,1.4985071336937834,0.014668928339845629,-2.3583813160818745,-0.6480762769380186,-2.0441622262641106,-1.9585614615013217E-5,-0.0012080210097010072,-1.7248525242881968E-4,391977.99548,5.42438726395E-12,1095.67763864,3.48162045382,5.73374157108,-5.56990825881
6360.00000001,-4968387.28395,2051557.23974,4095601.79765,-2465104.99395,-4774912.80163,4097704.05249,4011.88284749,-5295.01502332,-3855.19064664,3.18389905968,6.1672181982,-5.29254377058,6759053.07579,1.48712633227,-0.12770417808608978,1.4939737829913866,-0.016431214663202923,-2.4008793229628878,-0.6031100226048921,-1.973631356724631,-1.9585614615013217E-5,-0.0011913621524219636,-1.719845045424339E-4,387528.783533,6.01512279009E-12,1104.02742957,3.18389905968,6.1672181982,-5.29254377058
6420.00000001,-5244730.81453,1802818.81913,3855121.88067,-2218846.83276,-5081264.7836,3857044.03113,4193.58726913,-4912.65610392,-4163.7808083,2.87039627331,6.57334399256,-4.98963905461,6759053.07579,1.49150160135,-0.15684144145360915,1.4904691347693628,-0.04431494866878035,-2.437852908993187,-0.5566477733306299,-1.9083303850510418,-1.9585614615013217E-5,-0.0011738636098814772,-1.7083312043717118E-4,383058.341937,6.6585164414E-12,1111.90077376,2.87039627331,6.57334399256,-4.98963905461
6480.00000001,-5498961.36682,1548043.91339,3596695.49745,-1962259.56947,-5363961.55818,3598428.59556,4356.04212998,-4506.80243877,-4453.46161809,2.54248285958,6.9500388905,-4.66245300466,6759053.07579,1.49587687044,-0.18392239818979803,1.4880500776733974,-0.0699869265074648,-2.469857228536153,-0.5091022149954301,-1.8476757366365544,-1.9585614615013217E-5,-0.0011557706790546382,-1.6906237834827381E-4,378599.810642,7.354267715E-12,1119.26688618,2.54248285958,6.9500388905,-4.66245300466
6540.00000002,-5729908.3816,1288203.69389,3321499.23295,-1696523.2551,-5621647.61349,3323035.19808,4498.42609206,-4079.27944312,-4722.81728482,2.20161614478,7.29533774966,-4.3123770451,6759053.07579,1.50025213953,-0.20970422067399538,1.486756376880251,-0.09420969012294383,-2.497412025371398,-0.46081659890099663,-1.7911170130876397,-1.9585614615013217E-5,-0.0011373368168055202,-1.6671466910820167E-4,374186.560044,8.10065508751E-12,1126.09894085,2.20161614478,7.29533774966,-4.3123770451
6600.00000002,-5936497.62682,1024286.8981,3030791.99657,-1422864.54817,-5853080.42499,3032123.65605,4620.00772186,-3632.02666813,-4970.51938436,1.8493346616,7.60740333364,-3.94093125913,6759053.07579,1.50462740862,-0.23480941370608538,1.4866108565300464,-0.1176138357130011,-2.5209897849809266,-0.41207186963411746,-1.7381477344515572,-1.9585614615013217E-5,-0.0011188204168068473,-1.6384303178293528E-4,369851.799781,8.89424042943E-12,1132.37318547,1.8493346616,7.60740333364,-3.94093125913
6660.00000002,-6117756.82249,757296.189822,2725909.55538,-1142551.17782,-6057137.06573,2727030.68104,4720.15018305,-3167.08974167,-5195.33443833,1.48725203533,7.88453909477,-3.54975952895,6759053.07579,1.50900267771,-0.2598031353618493,1.4876193927030608,-0.1407751734095586,-2.5410114925612914,-0.3630938324549697,-1.6883082483189358,-1.9585614615013217E-5,-0.0011004815358904951,-1.605105216922679E-4,365628.182319,9.72960085183E-12,1138.06849711,1.48725203533,7.88453909477,-3.54975952895
6720.00000002,-6272820.86867,488244.434371,2408258.62218,-856886.136844,-6232820.31019,2409163.96263,4798.31553971,-2686.61155158,-5396.13117096,1.11705011239,8.12520162091,-3.14062365992,6759053.07579,1.51337794679,-0.28525827863059544,1.489770842349921,-0.16427960135895942,-2.5578468003657653,-0.314059906997013,-1.6411839874196927,-1.9585614615013217E-5,-0.001082578578857407,-1.567894083659134E-4,361547.40786,1.05991140046E-11,1143.16619028,1.11705011239,8.12520162091,-3.14062365992
6780.00000002,-6400936.63819,218150.902138,2079310.5196,-567201.629302,-6379264.18691,2079995.82799,4854.06862471,-2192.82269569,-5571.88738237,0.740471342797,8.32801260524,-2.71539647313,6759053.07579,1.51775321588,-0.31182419507218,1.493036945134285,-0.1887915805234863,-2.571816474638497,-0.2651053005960379,-1.5964011909989873,-1.9585614615013217E-5,-0.0010653649497143597,-1.5276020039541553E-4,357639.83744,1.14928253511E-11,1147.64990563,0.740471342797,8.32801260524,-2.71539647313
6840.00000002,-6501467.29684,-51962.5851118,1740594.445,-274852.800216,-6495738.93709,1741056.50208,4887.08042931,-1688.03123164,-5721.69637647,0.359310440104,8.49177019284,-2.27605386418,6759053.07579,1.52212848497,-0.34031692126551594,1.4973721602567756,-0.21514407676896016,-2.583195780872582,-0.21632859162287718,-1.553621418985582,-1.9585614615013217E-5,-0.0010490856809963727,-1.4851049502951846E-4,353934.12116,1.23984242754E-11,1151.50538093,0.359310440104,8.49177019284,-2.27605386418
6900.00000002,-6573896.1154,-321075.549599,1393690.36482,18788.7226954,-6581655.33799,1393926.99716,4897.13097144,-1174.61176825,-5844.77288159,-0.0245946455977,8.61545955559,-1.82466584024,6759053.07579,1.52650375406,-0.3718591260816203,1.502713296094366,-0.2444781945326646,-2.5922180041391663,-0.16779679009506845,-1.5125356494227031,-1.9585614615013217E-5,-0.0010339740608620782,-1.441336531489967E-4,350456.84849,1.33013681762E-11,1154.72042737,-0.0245946455977,8.61545955559,-1.82466584024
6960.00000002,-6617829.7401,-588172.777936,1040221.57054,312341.442733,-6636568.35348,1040231.66368,4884.11160299,-654.993949339,-5940.45840334,-0.409372393753,8.69826254692,-1.36338656342,6759053.07579,1.53087902315,-0.40812466799514924,1.5089785859961822,-0.2784873977769468,-2.5990776507543285,-0.11954997322911032,-1.4728583987173363,-1.9585614615013217E-5,-0.001020248289318636,-1.3972730515643026E-4,347232.22738,1.4185200058E-11,1157.28569793,-0.409372393753,8.69826254692,-1.36338656342
7020.00000002,-6633000.89028,-852248.248998,681846.932095,604420.728618,-6660180.07678,681630.438658,4848.02671944,-131.650389452,-6008.22595132,-0.793127958138,8.73956629052,-0.894443443813,6759053.07579,1.53525429223,-0.4518090695631305,1.5160653817383938,-0.31988763191563047,-2.603933094215683,-0.0716055990779082,-1.4343220834203978,-1.9585614615013217E-5,-0.001008108208867489,-1.3539170025444477E-4,344281.798482,1.50320407847E-11,1159.19521735,-0.793127958138,8.73956629052,-0.894443443813
7080.00000002,-6619270.45538,-1112309.05084,320252.887976,893645.632714,-6652341.93454,319810.830462,4788.99483915,392.915870195,-6047.68408435,-1.17395391808,8.73897056345,-0.42012534244,6759053.07579,1.53962956132,-0.5076238121266698,1.5238443461278777,-0.3734112561766423,-2.6069085574775284,-0.02396259467709159,-1.396671706657351,-1.9585614615013217E-5,-9.977321691582422E-4,-1.312279201930263E-4,341624.190274,1.58232410406E-11,1160.44655368,-1.17395391808,8.73897056345,-0.42012534244
7140.00000002,-6576628.9665,-1367379.26759,-42854.7855899,1178645.75438,-6613056.12594,-43520.3172491,4707.24902451,916.184309292,-6058.58022307,-1.54994145227,8.69629384202,0.0572300400434,6759053.07579,1.54400483041,-0.584631001823645,1.5321440914937896,-0.4481413436662864,-2.608095394371588,0.023394696134711682,-1.3596598700801772,-1.9585614615013217E-5,-9.89274097994565E-4,-1.2733598814139788E-4,339274.920048,1.65401662713E-11,1161.04074865,-1.54994145227,8.69629384202,0.0572300400434
7200.00000002,-6505197.42188,-1616503.81656,-405759.381045,1458068.1083,-6542476.27466,-406645.237269,4603.13662233,1435.63019564,-6040.80318364,-1.91919184085,8.61157789123,0.535249496953,6759053.07579,1.5483800995,-0.7024353916593543,1.5407062371922868,-0.5637033396015748,-2.607552669719541,0.07049263168481358,-1.3230420622009607,-1.9585614615013217E-5,-9.828608601466342E-4,-1.2381291299545438E-4,337246.244864,1.71650681808E-11,1160.98208495,-1.91919184085,8.61157789123,0.535249496953
7260.00000002,-6405227.44953,-1858752.21584,-766741.793526,1730583.9563,-6440907.27775,-767843.778199,4477.1183068,1948.73808135,-5994.38489244,-2.27982819195,8.48509079267,1.01153826498,6759053.07579,1.55275536859,-0.909598035799484,1.549032262097683,-0.7686783592663033,-2.6053070497438036,0.1173643941909299,-1.2865721426439207,-1.9585614615013217E-5,-9.785899891037832E-4,-1.2075071806170818E-4,335547.065491,1.76819806954E-11,1160.27776526,-2.27982819195,8.48509079267,1.01153826498
