time,gePosition_m_X,gePosition_m_Y,gePosition_m_Z,eiPosition_m_X,eiPosition_m_Y,eiPosition_m_Z,eiVelocity_m_s_X,eiVelocity_m_s_Y,eiVelocity_m_s_Z,eiAccel_m_s2_X,eiAccel_m_s2_Y,eiAccel_m_s2_Z,semiMajorAxis_m,gast_rad,eulerAngle_rad_Roll,eulerAngle_rad_Pitch,eulerAngle_rad_Yaw,eulerAngleWrtEi_rad_Roll,eulerAngleWrtEi_rad_Pitch,eulerAngleWrtEi_rad_Yaw,bodyAngularRateWrtEi_rad_s_Roll,bodyAngularRateWrtEi_rad_s_Pitch,bodyAngularRateWrtEi_rad_s_Yaw,altitudeMsl_m,airDensity_kg_m3,ambientTemperature_dgK,eiGravitation_m_s2_X,eiGravitation_m_s2_Y,eiGravitation_m_s2_Z
0.0,-1436381.46541304,4185811.71030584,5163944.67156165,-4315967.74,960356.2,5167269.53,129.091037,-7491.513855,1452.515654,5.46941408349186,-1.21701227670639,-6.54822705894005,6759053.07578957,1.02331944621101,1.48354308793975,0.001521078032323,0.017386890882379,-1.37314475827124,-0.867737478628041,3.05977258849909,-1.9585614615E-5,-0.0011220591098066,0.0,434989.540811728,1.6157E-12,978.026450176724,5.46941408349186,-1.21701227670639,-6.54822705894005
60.0,-1794950.03469682,3943126.03027672,5239239.62039872,-4298383.7549705,509016.725547943,5242568.014416,456.873453273778,-7547.42173400794,1056.41305957744,5.45257924198934,-0.645697124724796,-6.65029442684512,6759053.07578961,1.02769471546425,1.48413446727902,0.0015109615321118,0.0172362103811694,-1.45296990514267,-0.878385184631136,-3.12081354529615,-1.9585614615E-5,-0.0011030956350098,-5.0339446731E-6,433093.864997596,1.7266E-12,985.077038121306,5.45257924198934,-0.645697124724796,-6.65029442684512
120.0,-2147547.17176179,3685627.21460426,5290617.59970953,-4261177.84165868,55353.9685752154,5293934.33527938,782.910113090192,-7568.91571402678,655.07337670353,5.41122605044219,-0.0702934371387564,-6.72271293263913,6759053.07578964,1.0320699847175,1.48590466736735,0.0014948827099157,0.0167871835971242,-1.53347904482088,-0.88392673698703,-3.01801477654203,-1.9585614615E-5,-0.001084361765594,-9.9854031049E-6,430905.28080473,1.8592E-12,992.842921583234,5.41122605044219,-0.0702934371387564,-6.72271293263913
180.0,-2492684.25224873,3414408.90504188,5317817.99932331,-4204498.84971835,-398561.363029079,5321107.91929486,1105.73160265982,-7555.82484024784,250.289448678991,5.34542737930087,0.506714568945523,-6.76503834979497,6759053.07578959,1.03644525395931,1.48883621951644,0.001494944000583,0.0160482301122475,-1.61341261669996,-0.884500737864937,-2.91621673195377,-1.9585614615E-5,-0.0010661099843177,-1.47909105895E-5,428429.879579339,2.0161E-12,1001.2753911964,5.34542737930087,0.506714568945523,-6.76503834979497
240.0,-2828892.49299088,3130615.64256022,5320688.44023237,-4128583.6023506,-850652.794750067,5323936.4926294,1423.87589009516,-7508.12814381677,-156.122774234382,5.25535668534834,1.08281296502138,-6.77694529983116,6759053.07578961,1.04082052320969,1.49289632147665,0.0015337986369624,0.0150329158616303,-1.6915926688548,-0.880342119609933,-2.81653755647423,-1.9585614615E-5,-0.0010485890149445,-1.93893121841E-5,425676.596111968,2.2E-12,1010.28929728583,5.25535668534834,1.08281296502138,-6.77694529983116
300.0,-3154729.04301722,2835438.41961788,5299185.94499444,-4033756.27141947,-1298847.1330198,5302377.25117315,1735.89440574259,-7425.95617001195,-562.331476724263,5.14128947640569,1.65546667848239,-6.75823092102596,6759053.07578958,1.04519579246293,1.49803709363178,0.0016341283272066,0.0137598179428355,-1.76700944191862,-0.871760709232984,-2.71992635533277,-1.9585614615E-5,-0.0010320408440802,-2.37228158527E-5,422657.223048689,2.4135E-12,1019.76740038158,5.14128947640569,1.65546667848239,-6.75823092102596
360.0,-3468783.08032206,2530110.05351029,5253377.66742358,-3920427.38526259,-1741083.58875547,5256497.58980605,2040.35820270603,-7309.59197714158,-966.49643416778,5.0036045124875,2.22212857048777,-6.70881831891689,6759053.07578961,1.04957106170188,1.50419602631237,0.0018180741956552,0.0122522968684898,-1.8388762283857,-0.85911426668621,-2.62710806533978,-1.9585614615E-5,-0.0010166976813716,-2.77380363501E-5,419386.386702628,2.6593E-12,1029.57097163731,5.0036045124875,2.22212857048777,-6.70881831891689
420.0,-3769681.89219769,2215900.39164169,5183441.16916758,-3789092.46488668,-2175322.94417949,5186475.37826293,2335.86418042513,-7159.47157516543,-1366.77666753664,4.84278469880804,2.780249035003,-6.62875974533587,6759053.07578958,1.05394633095227,1.51129662519586,0.0021066399777432,0.0105381706345809,-1.90664782127008,-0.842780653957983,-2.53856474418811,-1.9585614615E-5,-0.0010027788749269,-3.13870125165E-5,415881.483378133,2.9401E-12,1039.55380640356,4.84278469880804,2.780249035003,-6.62875974533587
480.0,-4056096.91565647,1894111.35986483,5089664.23174969,-3640330.28534661,-2599556.72836456,5092598.77217143,2621.04135141869,-6976.18377266978,-1761.33827945768,4.65941762361238,3.32728612084399,-6.51823944782059,6759053.07578962,1.05832160020265,1.5192492593129,0.0025190896809943,0.0086492872011129,-1.97000751242123,-0.823133092428844,-2.45454831129835,-1.9585614615E-5,-9.904878153741E-4,-3.46281759469E-5,412162.575819702,3.2586E-12,1049.57564276436,4.65941762361238,3.32728612084399,-6.51823944782059
540.0,-4326749.71187633,1566071.86760629,4972444.19383741,-3474800.76038681,-3011816.36506649,4975265.54902249,2894.55712842805,-6760.46940100273,-2148.36244979966,4.45419569213631,3.86071616874267,-6.3775761270477,6759053.07578959,1.06269686945303,1.5279522123657,0.0030723642118655,0.006620995222748,-2.02883314210159,-0.800520943107551,-2.37511423046365,-1.9585614615E-5,-9.800088792886E-4,-3.74272448072E-5,408252.249931073,3.6175E-12,1059.5117554252,4.45419569213631,3.86071616874267,-6.3775761270477
600.0,-4580417.84842357,1233132.58321424,4832286.80491386,-3293242.44987752,-3410182.25455711,4834981.96024711,3155.12360624466,-6513.21988517532,-2526.05356531126,4.22791580717372,4.37804494470833,-6.20722493659363,6759053.0757896,1.06707213870913,1.53729293299066,0.0037805425447978,0.0044915169919302,-2.08315356087582,-0.775256820676947,-2.30016476290615,-1.9585614615E-5,-9.715044787015E-4,-3.97580135346E-5,404175.432480474,4.0196E-12,1069.25748898706,4.22791580717372,4.37804494470833,-6.20722493659363
660.0,-4815940.66101501,896660.594837502,4669804.58817306,-3096469.69121065,-3792792.74938619,4672361.09222003,3401.50380953292,-6235.4751325987,-2892.64745381786,3.98147854685284,4.87681923940804,-6.00777895699364,6759053.07578959,1.0714474079538,1.54714947353317,0.0046543726469698,0.0023012323026479,-2.13310456180787,-0.747609624000458,-2.22949272007105,-1.9585614615E-5,-9.651122959636E-4,-4.16030079078E-5,399959.171110083,4.4677E-12,1078.72839070159,3.98147854685284,4.87681923940804,-6.00777895699364
720.0,-5032224.86540142,558033.973921069,4485714.7073531,-2885369.35762981,-4157852.98232733,4488120.7309052,3632.51787502515,-5928.42071290877,-3246.41968936125,3.71588679137415,5.35463889108365,-5.77997007487552,6759053.07578958,1.07582267720419,1.55739210027466,0.0057008954307073,9.18869352669E-5,-2.1788899037124,-0.717802392168611,-2.16282008033468,-1.9585614615E-5,-9.609427905455E-4,-4.29539759295E-5,395632.378600569,4.9642E-12,1087.85757284423,3.71588679137415,5.35463889108365,-5.77997007487552
780.0,-5228249.9892477,218636.258308666,4280836.33436047,-2660897.24845206,-4503643.50324189,4283080.72699827,3847.04913363253,-5593.38430505624,-3585.69393050871,3.43224375272009,5.80916917685286,-5.52466919802615,6759053.07578956,1.08019794645171,1.56788505139972,0.0069231814689779,-0.0020942557482174,-2.22074992827588,-0.686013693854808,-2.09982894933683,-1.9585614615E-5,-9.590770650783E-4,-4.38121883688E-5,391225.543995107,5.5114E-12,1096.59196262918,3.43224375272009,5.80916917685286,-5.52466919802615
840.0,-5403073.59249387,-120149.124808066,4056087.51692803,-2424074.11828713,-4828528.68027266,4058159.86081266,4044.05005535284,-5231.83139153664,-3908.85024994633,3.13175036476534,6.23815350431976,-5.2428857387234,6759053.07578958,1.08457321569067,1.57848841290589,0.0083201952096313,-0.0042152974978137,-2.25893809704266,-0.652381353797491,-2.04018451810683,-1.9585614615E-5,-9.595651714442E-4,-4.41885285938E-5,386770.41385463,6.1108E-12,1104.88860571229,3.13175036476534,6.23815350431976,-5.2428857387234
900.0,-5555836.24442121,-456944.475826141,3812481.54818025,-2175981.35466125,-5130964.8197018,3814372.20878827,4222.5480174349,-4845.36018410729,-4214.33340949295,2.81570199583598,6.63942632249601,-4.93576630063469,6759053.07578955,1.08894848494105,1.58906007771348,0.0098867952449303,-0.0062305965606666,-2.29370456341298,-0.617007550997354,-1.98355088166335,-1.9585614615E-5,-9.6242492423E-4,-4.41033591434E-5,382299.647582307,6.7631E-12,1112.71169052807,2.81570199583598,6.63942632249601,-4.93576630063469
960.0,-5685766.22497491,-790383.457975985,3551122.84284392,-1917756.31588993,-5409507.95802185,3552823.01636852,4381.65085415027,-4435.69577058022,-4500.66103091702,2.48548445159963,7.01092615837816,-4.60459250912255,6759053.07578955,1.09332375419143,1.59945774990462,0.0116138722525192,-0.0081016406174055,-2.32528540691835,-0.579964579569748,-1.92960106626887,-1.9585614615E-5,-9.676412694318E-4,-4.358616172E-5,377846.451405959,7.4679E-12,1120.03032451707,2.48548445159963,7.01092615837816,-4.60459250912255
1020.0,-5792183.91783113,-1119116.72655542,3273202.32792152,-1650587.34359683,-5662821.2793198,3274704.08507232,4520.552144802,-4004.68347826532,-4766.43160950603,2.14256924320603,7.35070867343734,-4.25077793095623,6759053.07578956,1.09769902344753,1.60954095462128,0.0134886190380172,-0.0097928742331416,-2.3538961084531,-0.541300789049615,-1.87802265955565,-1.9585614615E-5,-9.751662327622E-4,-4.26749571238E-5,373444.196221701,8.223E-12,1126.81719810969,2.14256924320603,7.35070867343734,-4.25077793095623
1080.0,-5874505.86279716,-1441817.52864308,2979992.35891908,-1375708.46691858,-5889682.11100608,2981288.68486435,4638.5361953349,-3554.28145632442,-5010.33231432354,1.78850810379337,7.65695962306268,-3.87586403721893,6759053.0757895,1.10207429269791,1.61917301479195,0.0154949202324762,-0.0112724555507652,-2.37972801299012,-0.501046397014835,-1.82852026698148,-1.9585614615E-5,-9.84919446632E-4,-4.14155211931E-5,369126.025061545,9.0248E-12,1133.04780871211,1.78850810379337,7.65695962306268,-3.87586403721893
1140.0,-5932248.43569332,-1757187.24690407,2672841.17615929,-1094393.81813834,-6088988.45127256,2673926.00636792,4734.98266817231,-3086.55248662177,-5231.14651659024,1.42492674575698,7.92800759198617,-3.48151517260044,6759053.0757895,1.10644956193401,1.6282229584183,0.0176138431624034,-0.0125129202138733,-2.40294676865375,-0.459218993876226,-1.78081577221751,-1.9585614615E-5,-9.967892304447E-4,-3.98604211884E-5,364924.456426778,9.8676E-12,1138.70011046065,1.42492674575698,7.92800759198617,-3.48151517260044
1200.0,-5965031.12470037,-2063960.86106821,2353166.91928265,-807951.782221158,-6259764.98247251,2354035.17103897,4809.37081475106,-2603.65504053763,-5427.76098573779,1.05351786143359,8.16233637022416,-3.06951250520735,6759053.07578954,1.11082483119011,1.63656732431818,0.0198242066642063,-0.0134917349380478,-2.42369197168524,-0.415828646494804,-1.73464713401017,-1.9585614615E-5,-0.0010106341777326,-3.80679035529E-5,360870.990105313,1.07432E-11,1143.75439334647,1.05351786143359,8.16233637022416,-3.06951250520735
1260.0,-5972579.37296776,-2360912.30067767,2022451.22170333,-517718.905444596,-6401168.52591202,2023098.82108586,4861.28326571469,-2107.83360754953,-5599.17269149626,0.676033380940596,8.35859682741641,-2.64174694339406,6759053.0757896,1.11520010044049,1.64409183950845,0.0221032014742038,-0.0141917283190891,-2.44207745262144,-0.370882564473967,-1.68976624067084,-1.9585614615E-5,-0.0010262851879071,-3.61006681041E-5,356995.722342133,1.16414E-11,1148.19322110507,0.676033380940596,8.35859682741641,-2.64174694339406
1320.0,-5954726.9597847,-2646859.6591905,1682232.41049904,-225053.590988738,-6512492.89534927,1682656.31463424,4890.40933489851,-1601.4083300596,-5744.49514996998,0.294276012649896,8.51561813892549,-2.2002110197632,6759053.07578958,1.11957536967945,1.65069294724661,0.024427034447368,-0.014601391890916,-2.45819180078712,-0.324389329768666,-1.64593617444374,-1.9585614615E-5,-0.0010435478713076,-3.40245653075E-5,353326.977334451,1.25493E-11,1152.00122667964,0.294276012649896,8.51561813892549,-2.2002110197632
1380.0,-5911417.89367539,-2920670.24258486,1334098.34092607,68670.3880714363,-6593173.10883235,1334296.55535043,4896.54779513269,-1086.76398782069,-5862.96425210173,-0.0899098960439703,8.63241821494426,-1.74698975719515,6759053.07578959,1.12395063893269,1.65627917054325,0.0267715692346453,-0.0147150496555107,-2.4720988443524,-0.276362713712813,-1.60292810890728,-1.9585614615E-5,-0.0010622052542696,-3.19072524709E-5,349890.961961986,1.3452E-11,1155.16523504553,-0.0899098960439703,8.63241821494426,-1.74698975719515
1440.0,-5842707.79332461,-3181265.42410086,979678.898408266,362070.525485067,-6642788.92137505,979650.489396138,4879.60908652037,-566.338384237258,-5953.94351427951,-0.474648127619735,8.70821318437856,-1.28425054729522,6759053.07578959,1.12832590818593,1.66077230117182,0.029112938028103,-0.0145328989051625,-2.48383788843824,-0.226825120679636,-1.56051796635075,-1.9585614615E-5,-0.0010820207156232,-2.98168419086E-5,346711.45042201,1.43328E-11,1157.67510906874,-0.474648127619735,8.70821318437856,-1.28425054729522
1500.0,-5748764.73574869,-3427625.27559356,620638.204397722,653762.33310651,-6661067.64437275,620383.30613844,4839.61692122068,-42.6101956257976,-6016.92869314305,-0.858040930629492,8.74242578859706,-0.814232087701717,6759053.07578962,1.13270117743631,1.66410840842072,0.0314281022996433,-0.0140609288608728,-2.49342357151522,-0.175810707741769,-1.51848289121161,-1.9585614615E-5,-0.0011027410961247,-2.78205699547E-5,343809.505015566,1.51734E-11,1159.52428007636,-0.858040930629492,8.74242578859706,-0.814232087701717
1560.0,-5629869.55324696,-3658792.94874625,258666.565886113,942366.169550516,-6647886.22158188,258186.382421825,4776.70925286986,481.913646959253,-6051.55170992171,-1.2381798488707,8.73469254639537,-0.339232440952374,6759053.0757896,1.13707644668384,1.66623866479569,0.0336953447789823,-0.0133107263147107,-2.50084523736929,-0.123368237167789,-1.47659754363682,-1.9585614615E-5,-0.001124099935908,-2.59835108765E-5,341203.238721527,1.59551E-11,1160.70993053836,-1.2381798488707,8.73469254639537,-0.339232440952374
1620.0,-5486415.56471683,-3873878.77869345,-104527.788498137,1226514.10726217,-6603272.53590869,-105230.986633291,4691.13858357764,1004.71096567025,-6057.58383388115,-1.61315695786561,8.68486956074384,0.138403706296907,6759053.07578957,1.14145171592279,1.66712998750778,0.0358946798779235,-0.0122991790799207,-2.50606574188694,-0.0695637249722328,-1.43463017909076,-1.9585614615E-5,-0.0011458208098636,-2.43673549591E-5,338907.624412162,1.66594E-11,1161.2329355766,-1.61315695786561,8.68486956074384,0.138403706296907
1680.0,-5318907.73076424,-4072064.08378688,-467227.139999139,1504856.79757911,-6527405.92613742,-468150.024467087,4583.27158689276,1523.25764850298,-6034.93807965528,-1.98107641258771,8.59303685005709,0.616298489342018,6759053.07578954,1.14582698517889,1.66676549496806,0.0380081750175807,-0.011048088737756,-2.50901962572096,-0.0144829552290753,-1.39233845243553,-1.9585614615E-5,-0.0011676207445601,-2.30292659081E-5,336934.354619814,1.72685E-11,1161.09763967642,-1.98107641258771,8.59303685005709,0.616298489342018
1740.0,-5127961.22528402,-4252604.63776279,-827712.830507863,1776070.29224582,-6420616.89803687,-828851.029178708,4453.58803117789,2035.04117494663,-5983.67077934548,-2.34006620120474,8.45950110171694,1.09205490778311,6759053.07578956,1.15020225442927,1.66514477690523,0.0400201805327382,-0.0095837041299964,-2.50961059016979,0.0417660625564557,-1.34946486667973,-1.9585614615E-5,-0.0011892137107757,-2.20208296808E-5,335291.754687831,1.7767E-11,1160.31154261504,-2.34006620120474,8.45950110171694,1.09205490778311
1800.0,-4914299.42217288,-4414833.78987027,-1184273.88211833,2038862.77910034,-6283386.01995731,-1185621.99837082,4302.67899438514,2537.57425734886,-5903.98229721852,-2.68828999193688,8.28479676321372,1.563271341805,6759053.07578958,1.15457752367966,1.66228397549431,0.041917470737719,-0.0079361865458066,-2.50770821955346,0.0990506062416407,-1.30573177842968,-1.9585614615E-5,-0.001210314191201,-2.13871051152E-5,333984.750957618,1.81419E-11,1158.88496754225,-2.68828999193688,8.28479676321372,1.563271341805
1860.0,-4678751.29821146,-4558165.21350577,-1535215.63328031,2291981.18932055,-6116341.99900979,-1536767.27052194,4131.24436818569,3028.40849620852,-5796.21686253421,-3.02395895420375,8.06968540625815,2.02755640834891,6759053.07578956,1.15895279293004,1.65821567347499,0.0436893031137616,-0.0061390168681434,-2.50314390595856,0.157210625319357,-1.26083587773091,-1.9585614615E-5,-0.0012306408223662,-2.11657862479E-5,333014.894398122,1.83839E-11,1156.83077873846,-3.02395895420375,8.06968540625815,2.02755640834891
1920.0,-4422248.2593091,-4682095.26392738,-1878868.33814272,2534217.63371052,-5920258.94012935,-1880616.12944743,3940.08965666522,3505.14794437995,-5660.86150437838,-3.34534343126718,7.81515332121039,2.48254401346364,6759053.07578958,1.16332806216899,1.65298858411256,0.0453274062344735,-0.0042283543336622,-2.49570596189155,0.216055883659677,-1.21444208754587,-1.9585614615E-5,-0.0012499201030586,-2.13864867386E-5,332380.438811307,1.84877E-11,1154.1642054542,-3.34534343126718,7.81515332121039,2.48254401346364
1980.0,-4145820.40158894,-4786204.92889667,-2213595.67497765,2764415.62604309,-5696052.79668803,-2215531.31770619,3730.12208223045,3965.46247331476,-5498.54408123187,-3.65078433973407,7.52240732274138,2.92590844975423,6759053.0757896,1.16770333142223,1.64666703744699,0.0468259098360348,-0.0022423562221097,-2.48513396961745,0.275362732090167,-1.16617689235706,-1.9585614615E-5,-0.001267890148984,-2.20701579294E-5,332076.471493349,1.84521E-11,1150.90281188658,-3.65078433973407,7.52240732274138,2.92590844975423
2040.0,-3850592.22244182,-4870161.35976176,-2537803.10941339,2981476.05245764,-5444777.02775582,-2539917.40464889,3502.34601885052,4407.1008340567,-5310.03040722938,-3.93870417168096,7.19286877230397,3.35537938303054,6759053.07578961,1.17207860067547,1.63933025794617,0.0481812322482063,-2.204678472429E-4,-2.47111253913918,0.334870368509457,-1.11562123144484,-1.9585614615E-5,-0.0012843044565467,-2.32286532014E-5,332095.093035248,1.82802E-11,1147.06663353444,-3.93870417168096,7.19286877230397,3.35537938303054
2100.0,-3537777.80320513,-4933718.97158754,-2849946.05860384,3184362.84734183,-5167617.48351926,-2852228.95520334,3257.85778014097,4827.90330679594,-5096.22048649205,-4.20761747785849,6.8281658482146,3.76875657018345,6759053.07578961,1.17645386991157,1.63107143066549,0.0493919411489465,0.0017973072990328,-2.45326487145443,0.394276438606696,-1.06230332094471,-1.9585614615E-5,-0.0012989356194094,-2.48644518887E-5,332425.641848736,1.79793E-11,1142.6784792368,-4.20761747785849,6.8281658482146,3.76875657018345
2160.0,-3208675.48801359,-4976720.10578012,-3148537.8034273,3372108.33799301,-4865886.54666856,-3150978.44645977,2997.83979695316,5225.81383539459,-4858.14387638685,-4.45614071542316,6.43012411936472,4.16392415109863,6759053.07578959,1.1808291391591,1.62199655640636,0.0504586032501733,0.0037711465591932,-2.43114691315625,0.453231848585619,-1.00569216246801,-1.9585614615E-5,-0.0013115789224547,-2.69705555458E-5,333054.958038034,1.756E-11,1137.76437827333,-4.45614071542316,6.43012411936472,4.16392415109863
2220.0,-2864662.08732235,-4999095.25183311,-3432157.09733902,3543818.22264006,-4541016.56366384,-3434743.88065135,2723.55422591859,5598.89154740026,-4596.95420990154,-4.68300135086134,6.00075550322083,4.53886436109865,6759053.07578959,1.18520440840948,1.61222310108046,0.0513836370762062,0.0056621445405929,-2.40424353294069,0.511334727791731,-0.945193144784862,-1.9585614615E-5,-0.0013220557216025,-2.95305674558E-5,333967.680433208,1.70359E-11,1132.35413434041,-4.68300135086134,6.00075550322083,4.53886436109865
2280.0,-2507186.64059539,-5000862.82677454,-3699455.42258358,3698676.14908522,-4194552.6056001,-3702176.04520908,2436.33603668896,5945.32156561557,-4313.92291635233,-4.88704611808664,5.54224571226067,4.89167051694623,6759053.07578958,1.18957967766558,1.60187845027778,0.052171180538103,0.0074330341750766,-2.37196916473032,0.568123636745792,-0.880148163141632,-1.9585614615E-5,-0.0013302165071993,-3.25189627373E-5,335146.569976436,1.64225E-11,1126.48193294903,-4.88704611808664,5.54224571226067,4.89167051694623
2340.0,-2137763.77398653,-4982128.5160398,-3949163.84708394,3835947.86426356,-3828144.60382632,-3952005.37318311,2137.5856312859,6263.42502420436,-4010.4321881938,-5.06724834291527,5.05694031477751,5.22055913872514,6759053.0757896,1.1939549469131,1.59109818650916,0.052826981689647,0.0090488788052963,-2.33367685596788,0.623070432501434,-0.809844178124549,-1.9585614615E-5,-0.001335943545452,-3.59015513179E-5,336572.852223445,1.57367E-11,1120.18693404323,-5.06724834291527,5.05694031477751,5.22055913872514
2400.0,-1757966.69380835,-4943084.18169202,-4180099.43842837,3954984.90837466,-3443538.91045581,-4183048.36042904,1828.761053923,6551.66821046964,-3687.96724961923,-5.22271425801576,4.54732955556604,5.52388108175118,6759053.0757896,1.19833021615206,1.58002421324573,0.0533583171061814,0.0104777213464761,-2.28868164684025,0.67557377366475,-0.733536126184965,-1.9585614615E-5,-0.0013391529978874,-3.96361296942E-5,338226.571489781,1.49961E-11,1113.51376449023,-5.22271425801576,4.54732955556604,5.52388108175118
2460.0,-1369419.85833295,-4884006.34794466,-4391171.19493398,4055227.83087109,-3042569.33836472,-4394213.49951839,1511.36985379501,6808.67076269278,-3348.10798977714,-5.35268824669589,4.01603209892252,5.80013156678598,6759053.07578961,1.2027054854053,1.56880275614957,0.0537739380570293,0.0116911768682946,-2.23630638706721,0.724955178881408,-0.650492277309022,-1.9585614615E-5,-0.0013397964333162,-4.36733103174E-5,340086.94913633,1.42176E-11,1106.51280237854,-5.35268824669589,4.01603209892252,5.80013156678598
2520.0,-973791.373020459,-4805254.2768791,-4581385.45772349,4136208.90944026,-2627147.7391509,-4584506.69429281,1186.96066657227,7033.21286460019,-2992.52002965992,-5.4565569692058,3.46577787028102,6.04795901290666,6759053.07578962,1.20708075465283,1.55758227723357,0.0540840403949978,0.0126649559811713,-2.17595945308894,0.77046090018776,-0.56007149353155,-1.9585614615E-5,-0.0013378616693744,-4.7957510297E-5,342132.738637932,1.34175E-11,1099.24011630577,-5.4565569692058,3.46577787028102,6.04795901290666
2580.0,-572785.157410851,-4707267.64999094,-4749850.77205427,4197554.35713366,-2199254.18076707,-4753036.12328717,857.114582640024,7224.24138793887,-2622.94529693652,-5.53385234124749,2.89939018337024,6.26617259504594,6759053.07578962,1.21145602389464,1.54651134162911,0.0543002502279532,0.0133793081913019,-2.10725208556634,0.811274481990266,-0.461840100669531,-1.9585614615E-5,-0.0013333729094711,-5.24280746101E-5,344342.570399261,1.26106E-11,1091.7568943367,-5.53385234124749,2.89939018337024,6.26617259504594
2640.0,-168132.931318003,-4590563.8747716,-4895782.17072129,4238986.00692539,-1760926.7891124,-4899016.52483242,523.436371451115,7380.87494608289,-2241.19218712,-5.58425335071662,2.31976734681417,6.45374846704301,6759053.07578963,1.21583129314788,1.53573647883341,0.0544356143099014,0.0138193767988493,-2.03015451033455,0.846546107645034,-0.355727530117589,-1.9585614615E-5,-0.0013263901731345,-5.70205038256E-5,346695.279753666,1.181E-11,1084.12818767715,-5.58425335071662,2.31976734681417,6.45374846704301
2700.0,238413.930084503,-4455735.0375836,-5018504.85715015,4260322.46715883,-1314251.31973943,-5021772.88144666,187.545631709665,7502.40783335011,-1849.12539242644,-5.60758671499324,1.72986394751667,6.60983461059305,6759053.07578964,1.22020656239826,1.52540008058099,0.0545045819742105,0.0139754597492624,-1.9451709611758,0.875444286118645,-0.242200843737603,-1.9585614615E-5,-0.0013170080501148,-6.16677529961E-5,349170.212179849,1.10268E-11,1076.42083705051,-5.60758671499324,1.72986394751667,6.60983461059305
2760.0,645092.621828859,-4303444.52657258,-5117457.27073471,4261479.74550975,-861350.526996914,-5120743.48606463,-148.932063515461,7588.31283655987,-1448.65548146434,-5.60382639697612,1.13267200796172,6.73375429029991,6759053.07578968,1.22458183164864,1.51563837585072,0.0545229645174566,0.0138431738401364,-1.85348542261589,0.897231117901353,-0.122409955482145,-1.9585614615E-5,-0.0013053538379419,-6.63015671457E-5,351747.500475571,1.02699E-11,1068.7005857129,-5.60382639697612,1.13267200796172,6.73375429029991
2820.0,1050137.16653499,-4134423.35055054,-5192193.52198195,4242471.34319816,-404373.398384291,-5195482.37766702,-484.373959198257,7638.2429170959,-1041.72831349002,-5.57309201318033,0.531202210827275,6.82500811467302,6759053.07578968,1.22895710090188,1.50657952017754,0.0545078583053014,0.013423522542698,-1.75700574123269,0.911353136577993,0.0017688056635524,-1.9585614615E-5,-0.0012915851461442,-7.0853819698E-5,354408.309411127,9.5462E-12,1061.0286305526,-5.57309201318033,0.531202210827275,6.82500811467302
2880.0,1451786.6543832,-3949466.18130647,-5242385.19003754,4203407.82516546,54515.6783467763,-5245661.13888476,-817.168783162204,7652.03177314626,-630.314370399423,-5.51564618127355,-0.0715346227631284,6.8832747219349,6759053.07578964,1.23333237013798,1.49834183173354,0.0544775194720099,0.0127228701470689,-1.65823993224596,0.917527860245267,0.127856967918633,-1.9585614615E-5,-0.0012758870659839,-7.5257823017E-5,357135.044225889,8.8602E-12,1053.45817210126,-5.51564618127355,-0.0715346227631284,6.8832747219349
2940.0,1848293.41751326,-3749427.14846326,-5267822.48010651,4144495.87574793,513147.748718408,-5271070.05309789,-1145.72522139511,7629.69330268191,-216.398087947992,-5.43189086714175,-0.672545625167189,6.90841012752118,6759053.07578961,1.23770763938837,1.4910322010235,0.054451180778362,0.0117528267762182,-1.55999481009956,0.915798929272624,0.253075897985749,-1.9585614615E-5,-0.0012584690113325,-7.9449584508E-5,359911.520204531,8.215E-12,1046.03175016943,-5.43189086714175,-0.672545625167189,6.90841012752118
3000.0,2237931.0937677,-3535215.41653448,-5268414.74309487,4066036.8529752,969360.060598164,-5271618.62336221,-1468.48014592941,7571.4199979333,198.032735029213,-5.32236280271628,-1.26887338101502,6.90044578680078,6759053.07578961,1.24208290863875,1.48474469499863,0.0544488047553781,0.0105300499205923,-1.4649743513674,0.90653821006862,0.37474908479552,-1.9585614615E-5,-0.0012395613342784,-8.33689868442E-5,362723.091457414,7.6119E-12,1038.78010677182,-5.32236280271628,-1.26887338101502,6.90044578680078
3060.0,2619002.53430026,-3307790.57522503,-5244190.36441492,3968424.85796601,1421006.70586516,-5247335.46011733,-1783.90654191009,7477.58031147751,610.997374295233,-5.18772805519031,-1.8576126847488,6.85958544151392,6759053.07578961,1.2464581778777,1.47955937040062,0.0544907714195739,0.0090759685200919,-1.37541275919698,0.890391942993141,0.490669757258905,-1.9585614615E-5,-0.0012194118093056,-8.6960876176E-5,365556.737912572,7.0507E-12,1031.72292019121,-5.18772805519031,-1.8576126847488,6.85958544151392
3120.0,2989847.51392349,-3068157.87392603,-5195296.03326994,3852144.33894506,1865969.07438276,-5198367.54900418,-2090.52108554521,7348.71504243156,1020.53239419603,-5.02877583577407,-2.43592642588448,6.78620083147334,6759053.07578961,1.25083344713094,1.47554130561213,0.054597503307976,0.0074164353652323,-1.29285672632067,0.868189109447223,0.599319338546856,-1.9585614615E-5,-0.0011982820642873,-9.01760470199E-5,368401.110388849,6.5306E-12,1024.87115242525,-5.02877583577407,-2.43592642588448,6.78620083147334
3180.0,3348850.20527658,-2817363.33107396,-5121995.40781298,3717767.25214146,2302166.06312483,-5124978.91420241,-2386.89133010043,7185.53279855908,1424.70157259345,-4.84641164171984,-3.00106048948432,6.68082636400989,6759053.07578952,1.25520871638133,1.47273985550379,0.0547890350640386,0.0055813129001545,-1.21813062210706,0.840840440059695,0.699903009563484,-1.9585614615E-5,-0.0011764440174894,-9.29721164012E-5,371246.53444881,6.0499E-12,1018.23026348946,-4.84641164171984,-3.00106048948432,6.68082636400989
3240.0,3694446.37966238,-2556488.74978713,-5024667.19532256,3565949.80422837,2727563.98684163,-5027548.69644716,-2671.64246284091,6988.90459626829,1821.60547720875,-4.64164982897184,-3.55035757879173,6.54415284234805,6759053.07578949,1.25958398563171,1.47118812989645,0.0550845390513776,0.0036039966429667,-1.1514406763312,0.809252082556516,0.792246305502625,-1.9585614615E-5,-0.0011541763598448,-9.53142824014E-5,374084.974513825,5.6067E-12,1011.80341445376,-4.64164982897184,-3.55035757879173,6.54415284234805
3300.0,4025130.30212835,-2286646.66936177,-4903802.6699214,3397428.80301239,3140186.14052578,-4906568.66827063,-2943.46360172621,6759.85766546438,2209.39064011418,-4.41560571450021,-4.08126988692316,6.37702036051303,6759053.07578957,1.26395925488209,1.47090269333306,0.0555018222564579,0.0015208796751686,-1.09254336138744,0.774265635299371,0.876627538692706,-1.9585614615E-5,-0.00113176110338,-9.71759634228E-5,376909.960451696,5.1988E-12,1005.59400103525,-4.41560571450021,-4.08126988692316,6.37702036051303
3360.0,4339461.29046846,-2008975.28212923,-4760002.65336294,3213017.6447746,3538121.96807632,-4762640.21201323,-3201.11360661182,6499.56853000701,2586.25828370146,-4.16948730723985,-4.59137056447613,6.18041047649843,6759053.07578961,1.26833452412105,1.47188348179053,0.0560568128754864,-6.292387401463E-4,-1.04091557169203,0.736624861942617,0.953608442342243,-1.9585614615E-5,-0.0011094802019141,-9.85393143161E-5,379716.479513605,4.8238E-12,999.607231847027,-4.16948730723985,-4.59137056447613,6.18041047649843
3420.0,4636069.91144923,-1724633.34406502,-4593973.98700656,3013601.96800287,3919535.79588727,-4596470.78874719,-3443.42638559914,6209.35543712091,2950.47255822751,-3.90458676469899,-5.07836394947916,5.95543777732583,6759053.07578959,1.27270979337429,1.47411393057953,0.0567630573043207,-0.0028057971536842,-0.995893047829965,0.69696320504326,1.02389657967559,-1.9585614615E-5,-0.0010876122404898,-9.93956143179E-5,382500.837092931,4.4796E-12,993.850785080148,-3.90458676469899,-5.07836394947916,5.95543777732583
3480.0,4913663.79135571,-1434795.10515625,-4406525.52529051,2800135.00424336,4282675.09453767,-4408869.92844369,-3669.31568290383,5890.67021055439,3300.36825785972,-3.62227166888233,-5.54009454489266,5.70334094941405,6759053.07578965,1.27708506262181,1.47756130674583,0.0576312496287087,-0.0049671643545434,-0.956767982581407,0.655804800645035,1.08824857252943,-1.9585614615E-5,-0.0010664291862437,-9.97455199564E-5,385260.490297581,4.1638E-12,988.334752828617,-3.62227166888233,-5.54009454489266,5.70334094941405
3540.0,5171033.02033063,-1140645.28600207,-4198563.68279266,2573632.65745131,4625878.23626266,-4200744.77349738,-3877.77934009408,5545.0896026313,3634.357988892,-3.32397621037046,-5.97455474653275,5.42547346549884,6759053.07578971,1.28146033186077,1.48217723854975,0.0586688160323572,-0.0070713743456414,-0.922850303973635,0.613572871902412,1.14740964535324,-1.9585614615E-5,-0.0010461931956529,-9.9599174243E-5,387993.858766445,3.8744E-12,983.07112639209,-3.32397621037046,-5.97455474653275,5.42547346549884
3600.0,5407055.13431988,-843374.123438251,-3971087.56835042,2335168.34355357,4947581.7203799,-3973095.20910278,-4067.9030277064,5174.30621967505,3950.93877036727,-3.01119236341237,-6.37989134055109,5.1232939953933,6759053.07578972,1.28583560110829,1.48789843382878,0.0598795757144557,-0.0090768956023338,-0.893501795827106,0.570601296371955,1.2020803160841,-1.9585614615E-5,-0.0010271534807079,-9.89761621552E-5,390700.117512687,3.6094E-12,978.073042814266,-3.01119236341237,-6.37989134055109,5.1232939953933
3660.0,5620699.66102797,-544172.507003214,-3725183.7407066,2085867.62196979,5246326.84326992,-3727008.61497347,-4238.86344901354,4780.11909368659,4248.69805362129,-2.68546112793339,-6.75441080423406,4.79835664237041,6759053.07578978,1.29021087036154,1.4946475780607,0.0612634978850737,-0.0109434234412294,-0.868152047855266,0.52714684717424,1.25290123581424,-1.9585614615E-5,-0.0010095432483186,-9.79053021451E-5,393378.976838762,3.3668E-12,973.353952502506,-2.68546112793339,-6.75441080423406,4.79835664237041
3720.0,5811032.21936194,-244227.226699726,-3462020.62077796,1826902.65060036,5520765.79381341,-3463654.27352456,-4389.93102204541,4364.42397073914,4526.31915317071,-2.34836390665425,-7.09658345671684,4.45230110011653,6759053.07578971,1.29458613960906,1.50233440162892,0.0628165711839491,-0.0126326811780589,-0.846303269360884,0.483400818592225,1.30044914058191,-1.9585614615E-5,-9.935767414866E-4,-9.6424264603E-5,396030.454536183,3.1449E-12,968.926808177047,-2.34836390665425,-7.09658345671684,4.45230110011653
3780.0,5977218.16495756,55283.6499993393,-3182842.5959317,1559486.49530577,5769667.15932609,-3184277.4699272,-4520.47204981062,3929.2033834191,4782.58608683257,-2.00151407727182,-7.40504651712275,4.08684281728847,6759053.0757897,1.29896140886516,1.51085690411481,0.0645307975138014,-0.0141092127016592,-0.82752884355658,0.439499495928227,1.34523904047582,-1.9585614615E-5,-9.794464254752E-4,-9.45790111069E-5,398654.645656367,2.942E-12,964.80332933419,-2.00151407727182,-7.40504651712275,4.08684281728847
3840.0,6118525.77698569,353195.256560708,-2888963.85163082,1284867.32420198,5991920.83096121,-2890193.31941931,-4629.9503920067,3476.51657091364,5016.38782792529,-1.64654881108113,-7.67860613658223,3.70376324796037,6759053.07578968,1.30333667810126,1.52010272144823,0.0663943169432936,-0.015341146506626,-0.811468744349105,0.395533345366503,1.38772953271966,-1.9585614615E-5,-9.673203753092E-4,-9.24230529187E-5,401251.495112581,2.7566E-12,960.993365005309,-1.64654881108113,-7.67860613658223,3.70376324796037
3900.0,6234328.9839004,648360.245438953,-2581761.96550331,1004322.51621189,6186542.30124288,-2582780.35695025,-4717.92865432974,3008.48930613975,5226.72197682089,-1.28512118071169,-7.91623847753958,3.30490025690369,6759053.07578968,1.30771194735164,1.52995061954514,0.0683916642609807,-0.0163009094684037,-0.797823691461064,0.351555004671242,1.42832937899201,-1.9585614615E-5,-9.573399305036E-4,-9.00165333453E-5,403820.578251372,2.5873E-12,957.504358572599,-1.28512118071169,-7.91623847753958,3.30490025690369
3960.0,6324109.62809562,939652.935850129,-2262671.29833651,719152.712275027,6352676.34982107,-2263473.92368254,-4784.06891379319,2527.3036847457,5412.69786296459,-0.918892590997366,-8.11708991875737,2.89213873894447,6759053.07578971,1.31208721660202,1.54027209580592,0.0705041512820965,-0.0169658680144286,-0.786349104331599,0.307586239045086,1.46740431142163,-1.9585614615E-5,-9.496176873948E-4,-8.74251458297E-5,406360.894312488,2.4328E-12,954.340908056844,-0.918892590997366,-8.11708991875737,2.89213873894447
4020.0,6387459.27151295,1225973.27862696,-1933176.21573093,430675.836456563,6489600.11668557,-1933759.38410625,-4828.1330002531,2035.18792600776,5573.53909173785,-0.549525558554984,-8.2804764675477,2.46740150180001,6759053.07578965,1.31646248583812,1.550933067714,0.0727103625298655,-0.0173188750496382,-0.776849411773397,0.263624045422919,1.50528354476042,-1.9585614615E-5,-9.442358977989E-4,-8.47189073637E-5,408870.677384565,2.2918E-12,951.504410422553,-0.549525558554984,-8.2804764675477,2.46740150180001
4080.0,6424080.54611915,1506250.63050523,-1594804.17320312,140221.112943857,6596725.56493027,-1595165.20657588,-4849.98235562592,1534.40623070539,5708.58555321062,-0.178676857557427,-8.40588246209598,2.03264045201248,6759053.07578962,1.3208377550885,1.56179562593987,0.0749867458796597,-0.0173487031126907,-0.769172978983495,0.219646076487882,1.54226577773644,-1.9585614615E-5,-9.412453346549E-4,-8.19708142802E-5,411347.229065871,2.1633E-12,948.992776600516,-0.178676857557427,-8.40588246209598,2.03264045201248
4140.0,6433788.05444515,1779447.33172932,-1249118.69643967,-150876.896397051,6673601.33771437,-1249255.93899142,-4849.57749310338,1027.24873608713,5817.2949119176,0.192008958425556,-8.49295864643136,1.58982811405046,6759053.07578961,1.32521302433889,1.57271982797139,0.0773082746153029,-0.0170503477045509,-0.763207749804559,0.175615531413157,1.57862464060128,-1.9585614615E-5,-9.406646712471E-4,-7.92554139435E-5,413786.776560072,2.0463E-12,946.800203468354,0.192008958425556,-8.49295864643136,1.58982811405046
4200.0,6416508.82728702,2044562.07987028,-897712.287209196,-441284.210584578,6719914.01632654,-897625.110148413,-4826.97707904761,516.021603133731,5899.2435983205,0.560905655684054,-8.54151969877883,1.14094950349418,6759053.07578955,1.32958829359213,1.58356550747587,0.079649153503176,-0.016425189335583,-0.758877618601369,0.131485633547068,1.61461363962426,-1.9585614615E-5,-9.424804017139E-4,-7.66473306156E-5,416184.359389576,1.9398E-12,944.916988853827,0.560905655684054,-8.54151969877883,1.14094950349418
4260.0,6372282.34623882,2300633.09742598,-542199.284167394,-729673.282245916,6735488.78822666,-541888.086010173,-4782.33666022377,3.03726656943554,5954.12732361199,0.926411044270019,-8.55154129086946,0.687994366592425,6759053.07578964,1.33396356284251,1.59419407442137,0.0819835392511121,-0.015481008248774,-0.75613950975519,0.0872037908070789,1.65047069550206,-1.9585614615E-5,-9.466473085813E-4,-7.42197863354E-5,418533.747302276,1.8431E-12,943.329374959308,0.926411044270019,-8.55154129086946,0.687994366592425
4320.0,6301260.14005773,2546741.08987926,-184208.706475219,-1014728.76389374,6720289.53562947,-183674.908838078,-4715.90705864183,-509.395126457674,5981.76114001016,1.28695233576198,-8.52315675145378,0.232949790486884,6759053.07578965,1.33833883208147,1.60447028146403,0.0842862452646461,-0.0142318515775659,-0.754981133116864,0.0427155146046949,1.68642239160727,-1.9585614615E-5,-9.530894601263E-4,-7.20431577111E-5,420827.391296068,1.7553E-12,942.019486146264,1.28695233576198,-8.52315675145378,0.232949790486884
4380.0,6203704.96451803,2782011.99285171,174622.893181224,-1295153.16846306,6674418.35662141,175376.854215604,-4628.0324555746,-1018.97906734474,5982.07906872938,1.64099114902446,-8.45665340192902,-0.222206818868421,6759053.07578965,1.34271410133185,1.6142639332138,0.0865334019737099,-0.0126977584298081,-0.755419388344632,-0.0020318415136879,1.72268805191187,-1.9585614615E-5,-9.617016987171E-4,-7.01836071082E-5,423056.409005298,1.6759E-12,940.973453019628,1.64099114902446,-8.45665340192902,-0.222206818868421
4440.0,6079989.57559865,3005619.50880914,532658.540901351,-1569672.40608202,6598114.53198347,533629.227770246,-4519.14818534236,-1523.43980886458,5955.13331743575,1.98702818223082,-8.35246862583439,-0.675514400541814,6759053.07578965,1.34708937058509,1.62345151665123,0.0887030470543274,-0.010904353612533,-0.757499402334301,-0.04708547154616,1.75948376443783,-1.9585614615E-5,-9.723515629372E-4,-6.87018220796E-5,425210.604996778,1.6044E-12,940.188263017868,1.98702818223082,-8.35246862583439,-0.675514400541814
4500.0,5930595.1070769,3216787.4326591,888267.895230565,-1837041.1802509,6491752.95185376,889450.886140313,-4389.77825825521,-2020.53324557319,5901.0931082552,2.32360757276663,-8.21118572714712,-1.12503455930004,6759053.07578963,1.35146463983547,1.63191773306991,0.0907756243516499,-0.0088823250472005,-0.761294197205957,-0.0924835871024212,1.79702645811166,-1.9585614615E-5,-9.848815729169E-4,-6.76518905493E-5,427278.525830034,1.5404E-12,939.658020022022,2.32360757276663,-8.21118572714712,-1.12503455930004
4560.0,5756109.06313764,3414791.76839814,1239834.21942293,-2096048.22772631,6355842.01712531,1241224.12975934,-4240.53263072528,-2508.05454058831,5820.24313635021,2.64932096919514,-8.03352962499699,-1.5688575629815,6759053.07578963,1.35583990908586,1.63955691432817,0.0927343758580653,-0.0066668030989375,-0.766904998241971,-0.138251919159447,1.8355381305876,-1.9585614615E-5,-9.99111800904E-4,-6.70803318899E-5,429247.549058828,1.4836E-12,939.37251022218,2.64932096919514,-8.03352962499699,-1.5688575629815
4620.0,5557222.93700757,3598962.63879023,1585761.2507204,-2345521.38744375,6191021.03106641,1587351.75850678,-4072.10423905302,-2983.84649016187,5712.98167776781,2.96281134126017,-7.82036242475482,-2.00510804030599,6759053.07578956,1.36021517832195,1.64627430875414,0.0945656172844609,-0.0042966619137096,-0.774462198845578,-0.184400197736591,1.87525031176898,-1.9585614615E-5,-0.0010148426480117,-6.70252963814E-5,431104.004706017,1.4336E-12,939.317228685483,2.96281134126017,-7.82036242475482,-2.00510804030599
4680.0,5334729.46717373,3768685.98990125,1924479.94613978,-2584332.48475446,5998057.09709774,1926263.82141755,-3885.26581179838,-3445.80761963111,5579.81836374383,3.26277655494807,-7.57267889758771,-2.43195040585614,6759053.07578955,1.36459044757234,1.65198722460442,0.096258894140999,-0.0018137634205259,-0.784126999518076,-0.23091854695995,1.9164088302936,-1.9585614615E-5,-0.0010318577529288,-6.75159383126E-5,432833.327143278,1.39E-12,939.472744470643,3.26277655494807,-7.57267889758771,-2.43195040585614
4740.0,5089519.54155098,3923405.09469637,2254455.08523937,-2811402.018098,5777841.53899276,2256424.22323567,-3680.86647401211,-3891.90000602086,5421.37163697546,3.5479727399584,-7.2916018926437,-2.84759404108206,6759053.07578959,1.36896571681986,1.65662602137871,0.0978070213970979,7.378359619938E-4,-0.796093724956603,-0.277773721363713,1.95927892361711,-1.9585614615E-5,-0.0010499269681609,-6.85719618066E-5,434420.234762489,1.3527E-12,939.81110415029,3.5479727399584,-7.2916018926437,-2.84759404108206
4800.0,4822578.76178691,4062621.85719435,2574191.71121485,-3025703.63597969,5531385.86001255,2576337.16915141,-3459.82815497006,-4320.15682378243,5238.36590360216,3.817217476578,-6.97837769815148,-3.25029826143497,6759053.07578963,1.37334098605596,1.66013494141607,0.0992060153599758,0.0033126974432102,-0.810592789669546,-0.324905096070038,2.00415068854833,-1.9585614615E-5,-0.0010688093526456,-7.02033337457E-5,435848.934345908,1.3213E-12,940.304545905604,3.817217476578,-6.97837769815148,-3.25029826143497
4860.0,4534983.67829771,4185897.92148877,2882241.39244299,-3226268.39277224,5259817.25767271,2884553.42983094,-3223.14180945943,-4728.68961089919,5031.62839281141,4.06939282795441,-6.63437136001331,-3.63837710015156,6759053.07578963,1.37771625531206,1.66247277595169,0.100454931117509,0.0058648145464169,-0.827894215306716,-0.37222031086354,2.05134479514475,-1.9585614615E-5,-0.0010882561446314,-7.24101551608E-5,437103.346633991,1.2962E-12,941.011755705914,4.06939282795441,-6.63437136001331,-3.63837710015156
4920.0,4227897.70662508,4292855.58945865,3177208.28725179,-3412188.77241816,4964373.71099474,3179676.40950793,-2971.86346115186,-5115.69525287926,4802.0857341624,4.30344824216331,-6.26106195903164,-4.01020393881892,6759053.0757896,1.38209152455673,1.66361336115391,0.101555622541973,0.0083484166390819,-0.848311482416115,-0.419590459967092,2.10121826244744,-1.9585614615E-5,-0.0011080136937401,-7.51826811456E-5,438167.349256229,1.2778E-12,941.992766268989,4.30344824216331,-6.26106195903164,-4.01020393881892
4980.0,3902566.73765606,4383178.54885807,3457754.99524704,-3582622.4695787,4646398.65724609,3460368.0004584,-2707.11007519663,-5479.46268200934,4550.7602609441,4.51840334630555,-5.86003784083879,-4.36421601368411,6759053.07578961,1.38646679380997,1.6635459005984,0.102512444338122,0.010718750108033,-0.872205295753941,-0.466844722356163,2.15416988918874,-1.9585614615E-5,-0.0011278263444859,-7.850147955E-5,439025.032934137,1.2666E-12,943.29649950029,4.51840334630555,-5.86003784083879,-4.36421601368411
5040.0,3560314.4511403,4456612.41700204,3722608.17897293,-3736795.9181649,4307335.2753445,3725354.20762784,-2430.05526591042,-5818.37928868756,4278.76604620003,4.71335065219902,-5.43299178598308,-4.69891882477168,6759053.0757896,1.39084206306035,1.66227511123776,0.103331916905855,0.0129328282205697,-0.899986513041251,-0.513764353616691,2.21064460316233,-1.9585614615E-5,-0.0011474392738062,-8.2337720044E-5,439660.966684121,1.2629E-12,944.96748355608,4.71335065219902,-5.43299178598308,-4.69891882477168
5100.0,3202537.34503801,4512965.10169011,3970563.94003485,-3874007.55750508,3948720.39332022,3973430.52753052,-2141.92484435868,-6130.93704071483,3987.30467650251,4.88745819009334,-4.98171610154284,-5.01289047227691,6759053.07578957,1.3952173322993,1.65982119030849,0.104022374895041,0.0149501424643124,-0.932116976671652,-0.560076029668785,2.27113548331293,-1.9585614615E-5,-0.0011666012913677,-8.66535871551E-5,440060.467640371,1.2673E-12,947.048513006093,4.88745819009334,-4.98171610154284,-5.01289047227691
5160.0,2830699.49161139,4552106.98288643,4200492.93407504,-3993630.82666368,3572178.03751337,4203467.06580358,-1843.99220974185,-6415.73830513894,3677.66076718547,5.03997208328405,-4.50809761017104,-5.30478594145679,6759053.07578959,1.39959260154969,1.65621960094482,0.104593619322492,0.0167333293072754,-0.969106235719315,-0.605444677116514,2.33618145767135,-1.9585614615E-5,-0.0011850676130204,-9.14028130553E-5,440209.871078124,1.2804E-12,949.582320682857,5.03997208328405,-4.50809761017104,-5.30478594145679
5220.0,2446327.03153672,4573970.91800745,4411345.20917812,-4095116.87764015,3179412.64155461,4414413.37798506,-1537.57358784366,-6671.50136565298,3351.19722158384,5.17021907258351,-4.01411250768784,-5.57334135339219,6759053.07578958,1.40396787080293,1.65152067472804,0.10505659109404,0.018248786849296,-1.01150111367781,-0.649466191873355,2.40635764964792,-1.9585614615E-5,-0.001202602614713,-9.65313276892E-5,440096.796241292,1.3029E-12,952.612728360996,5.17021907258351,-4.01411250768784,-5.57334135339219
5280.0,2051002.41888381,4578552.07258632,4602154.75240775,-4177996.99835832,2772201.93365167,4605303.01820931,-1224.0231193862,-6897.0656266918,3009.35023591516,5.27760899537301,-3.50182105630508,-5.81737819459184,6759053.07578958,1.40834314003902,1.64578903018308,0.105423080851295,0.0194672358225374,-1.05986381885878,-0.69166089880747,2.48225408781304,-1.9585614615E-5,-0.0012189825669249,-1.019780248796E-4,439710.403658929,1.3358E-12,956.185237852692,5.27760899537301,-3.50182105630508,-5.81737819459184
5340.0,1646358.42935479,4565907.57868835,4772043.7292529,-4241884.73652159,2352389.52129701,4775257.78059053,-904.727800987179,-7091.39649329415,2653.62405080487,5.36163721946779,-2.97336207735214,-6.03580753350747,6759053.07578956,1.41271840928941,1.63910280751735,0.105705486391566,0.0203642189982622,-1.11473309148091,-0.731469302173099,2.56443729216443,-1.9585614615E-5,-0.0012339983390597,-1.076756429692E-4,439041.63976585,1.3802E-12,960.346771177118,5.36163721946779,-2.97336207735214,-6.03580753350747
5400.0,1234071.94402949,4536156.02325851,4920226.40081137,-4286477.71557339,1921877.19323429,4923491.61811463,-581.102281540384,-7253.58991355625,2285.58545013129,5.42188702733129,-2.43094720503572,-6.22763422668562,6759053.07578959,1.41709367853979,1.63155272181029,0.105916624669247,0.0209205324803553,-1.17656246690052,-0.768252636229542,2.65338883566031,-1.9585614615E-5,-0.0012474580505566,-1.135517572136E-4,438083.464818973,1.4376E-12,965.144090016057,5.42188702733129,-2.43094720503572,-6.22763422668562
5460.0,815857.524012265,4489476.76720933,5046012.70357634,-4311559.13418248,1482616.95938217,5049314.2238975,-254.583517253146,-7382.87656814723,1906.85800787241,5.45803194133917,-1.87685486137106,-6.39196111156115,6759053.07578964,1.42146894779017,1.62324093947721,0.106069600789441,0.0211225818520705,-1.24563152712488,-0.801301821809663,2.74941677244695,-1.9585614615E-5,-0.0012591896321789,-1.195298785083E-4,436831.060315319,1.5096E-12,970.620352360946,5.45803194133917,-1.87685486137106,-6.39196111156115
5520.0,393460.789742846,4426109.09707177,5148811.4767423,-4316998.9408866,1036602.85041767,5152134.25971895,73.3747107206176,-7478.62568894837,1519.11608399599,5.46983797588145,-1.31342391201912,-6.52799317686719,6759053.07578968,1.4258442170377,1.61427978613222,0.106177731696633,0.0209626559225207,-1.32193207394631,-0.829859244803719,2.85254188502996,-1.9585614615E-5,-0.0012690432486648,-1.255306492964E-4,435282.012367868,1.5982E-12,976.809422082488,5.46983797588145,-1.31342391201912,-6.52799317686719
5580.0,-31348.3787310505,4346351.2100496,5228133.32202865,-4302754.6757922,585862.49987009,5231462.21682326,401.307411112601,-7540.34848647587,1124.07857116277,5.45716579717386,-0.743046963408232,-6.63504169537599,6759053.0757897,1.43021948627666,1.60479029786242,0.106254517719968,0.0204391110876897,-1.40504322939752,-0.853157439916657,2.96237277438637,-1.9585614615E-5,-0.0012768935242218,-1.31473122996E-4,433436.467776131,1.7055E-12,983.728088998179,5.45716579717386,-0.743046963408232,-6.63504169537599
5640.0,-456782.803432746,4250559.03342774,5283593.08115617,-4268871.97156272,132448.532867211,5286912.89411457,727.744123604831,-7567.70116341625,723.5023951215,5.41997276680387,-0.168163263252131,-6.71252829727648,6759053.07578976,1.4345947555299,1.59490063220696,0.106313651057961,0.0195564602015591,-1.49402643393019,-0.870476115249888,3.0780007809705,-1.9585614615E-5,-0.0012826415065744,-1.372761084539E-4,431297.25983833,1.8342E-12,991.367328931166,5.41997276680387,-0.168163263252131,-6.71252829727648
5700.0,-881045.114329857,4139144.87909367,5314911.91632789,-4215484.70634667,-321570.212897629,5318207.47909203,1051.21477831381,-7560.4874894098,319.175773170024,5.35831484034055,0.408748830564255,-6.75998895603285,6759053.07578971,1.43897002478028,1.58474435954218,0.106369046963823,0.0183253613843917,-1.58738578185502,-0.88121323426595,-3.08522511424249,-1.9585614615E-5,-0.0012862163043979,-1.428595563111E-4,428870.001290514,1.9867E-12,999.684866688521,5.35831484034055,0.408748830564255,-6.75998895603285
5760.0,-1302334.97871115,4012575.93389603,5321918.97938166,-4142814.80182097,-774117.606856177,5325175.21718555,1370.25566402565,-7518.66091023134,-87.0887630612362,5.27234828788179,0.98517984374614,-6.7770778521545,6759053.07578967,1.44334529401923,1.57445865978585,0.106434881094738,0.0167625043162055,-1.68313725331235,-0.884958119511274,-2.96288799023496,-1.9585614615E-5,-0.001287576337454,-1.4814596029E-4,426163.142124003,2.1656E-12,1008.60192334121,5.27234828788179,0.98517984374614,-6.7770778521545
5820.0,-1718856.43346203,3871372.58670515,5304552.65572302,-4051171.66016633,-1223119.25712834,5307754.65559506,1683.41549340059,-7442.32616280485,-493.461571984002,5.16233119928641,1.5585976678318,-6.76357107405592,6759053.0757897,1.44772056326676,1.56418245300419,0.106525615424646,0.0148903941219178,-1.77900067217729,-0.881548530281128,-2.8404230506771,-1.9585614615E-5,-0.0012867101484578,-1.530617437421E-4,423187.990427843,2.3738E-12,1018.00635990393,5.16233119928641,1.5585976678318,-6.76357107405592
5880.0,-2128825.29752538,3716106.59287021,5262861.36973489,-3940951.23456841,-1666511.62341579,5265994.44832398,1989.26155101661,-7331.74036612428,-898.103322435635,5.02862473314016,2.12645655040485,-6.7193701092119,6759053.07578966,1.45209583251429,1.55405449530611,0.106655995416362,0.0127370357253641,-1.87267721973134,-0.871094394664503,-2.72009906424699,-1.9585614615E-5,-0.0012836367399292,-1.575386007008E-4,419958.694829125,2.6138E-12,1027.76232622331,5.02862473314016,2.12645655040485,-6.7193701092119
5940.0,-2530476.63927859,3547399.07738324,5197003.93911622,-3812634.7287617,-2102251.17885765,5200053.70985487,2286.38590756692,-7187.31355720241,-1299.17261594502,4.87169406533304,2.68620660526962,-6.64450507325177,6759053.07578965,1.45647110176467,1.544211473065,0.106841002828272,0.0103355242655304,-1.96213269303049,-0.85396029973894,-2.60392058413711,-1.9585614615E-5,-0.0012784054167446,-1.615147613046E-4,416492.187562809,2.8884E-12,1037.72395453908,4.87169406533304,2.68620660526962,-6.64450507325177
6000.0,-2922072.27315067,3365918.37796698,5107249.46654593,-3666786.92221507,-2528323.58661059,5110201.90585916,2573.41168079923,-7009.608640702,-1694.83379345948,4.69210899058624,3.23530384598412,-6.5391376196215,6759053.07578963,1.46084637101505,1.53478612883487,0.107095751503387,0.0077235495617731,-2.04580366025459,-0.830712719861682,-2.49342193603154,-1.9585614615E-5,-0.0012710951341651,-1.649361537836E-4,412808.087695008,3.2002E-12,1047.74915327069,4.69210899058624,3.23530384598412,-6.5391376196215
6060.0,-3301908.25711314,3172377.72996558,4993976.75821931,-3504054.11880824,-2942752.8550347,4996818.27048536,2848.99932092644,-6799.34072098485,-2083.26490553557,4.49054412845696,3.77122073650229,-6.40356346811389,6759053.07578964,1.46522164025686,1.52590545125653,0.107435317557607,0.0049428244557733,-2.12268260821632,-0.802048411904415,-2.38958217076933,-1.9585614615E-5,-0.0012618133699252,-1.677574389792E-4,408928.564552963,3.552E-12,1057.71001566689,4.49054412845696,3.77122073650229,-6.40356346811389
6120.0,-3668322.36122741,2967532.79540428,4857673.26017529,-3325161.71827234,-3343610.43350745,4860390.74114204,3111.85289529696,-6557.37578600219,-2462.66582118508,4.26777868437706,4.29145724208502,-6.23821448707376,6759053.07578966,1.46959690949868,1.51768895884185,0.107874500264407,0.0020384479909869,-2.19229011735001,-0.768722383253177,-2.29285292995206,-1.9585614615E-5,-0.0012506945557171,-1.699428981843E-4,404878.161977747,3.9465E-12,1067.49823332605,4.26777868437706,4.29145724208502,-6.23821448707376
6180.0,-4019701.47591735,2752179.03892659,4698933.50494012,-3130911.41126963,-3729024.20909131,4701514.40330032,3360.72634413958,-6284.72871379936,-2831.2664465755,4.02469571623509,4.79355235221445,-6.04366026156809,6759053.07578968,1.47397217874906,1.51024710396758,0.108427515279813,-9.417852398522E-4,-2.25457546530042,-0.731488523025435,-2.20325780617372,-1.9585614615E-5,-0.0012378981165627,-1.714671604129E-4,400683.584613745,4.3865E-12,1077.02589845274,4.02469571623509,4.79355235221445,-6.04366026156809
6240.0,-4354488.92664447,2527148.95425683,4518457.06286229,-2922178.00076734,-4097187.36258446,4520889.43969109,3594.42967625253,-5982.56057446354,-3187.33502067349,3.76228085798313,5.27509603514021,-5.82060907841393,6759053.07578967,1.47834744799087,1.50367981899962,0.109107627295126,-0.003948118589682,-2.30979209765884,-0.691058230090222,-2.12051674128795,-1.9585614615E-5,-0.0012236061750436,-1.723157604562E-4,396373.448076335,4.8746E-12,1086.22323015424,3.76228085798313,5.27509603514021,-5.82060907841393
6300.0,-4671191.66003667,2293309.14602131,4317045.99461132,-2699905.85431449,-4446367.04093412,4319318.58037166,3811.83507065136,-5652.17520314217,-3529.18645076276,3.48162045381498,5.73374157107986,-5.56990825881343,6759053.07578966,1.4827227172384,1.49807522157648,0.109926734385687,-0.0069295996010705,-2.35838117618071,-0.648076269459303,-2.04416223355077,-1.9585614615E-5,-0.0012080209806657,-1.724855236958E-4,391977.995490131,5.413E-12,1095.03492630214,3.48162045381498,5.73374157107986,-5.56990825881343
6360.0,-4968387.26588408,2051557.27149243,4095601.80365979,-2465104.99395183,-4774912.80163288,4097704.05248477,4011.88284749381,-5295.01502332417,-3855.19064664234,3.18389905968013,6.16721819819998,-5.29254377057524,6759053.07578974,1.48709798648878,1.49350849111327,0.110894920920655,-0.0098348701212709,-2.40087919530232,-0.603110035329231,-1.97363134336592,-1.9585614615E-5,-0.0011913621229117,-1.719847771961E-4,387528.783555799,6.0035E-12,1103.41641469427,3.18389905968013,6.16721819819998,-5.29254377057524
6420.0,-5244730.79721355,1802818.84921357,3855121.8901592,-2218846.83276086,-5081264.78359574,3857044.03112557,4193.58726913211,-4912.65610391698,-4163.78080830371,2.87039627331195,6.57334399256225,-4.98963905461074,6759053.07578976,1.49147325573631,1.49004092394356,0.112019999648236,-0.0126129726620307,-2.43785279397138,-0.556647804755557,-1.90833035081497,-1.9585614615E-5,-0.0011738635805239,-1.708333888066E-4,383058.341971045,6.6469E-12,1111.33070395432,2.87039627331195,6.57334399256225,-4.98963905461074
6480.0,-5498961.35036458,1548043.94165294,3596695.51044516,-1962259.56947397,-5363961.55817828,3598428.59555968,4356.04212997665,-4506.80243876542,-4453.46161808669,2.54248285957629,6.95003889049714,-4.66245300466147,6759053.07578974,1.49584852498669,1.48771917054441,0.113307066275166,-0.0152141663735932,-2.4698571259515,-0.509102263494942,-1.84767568204386,-1.9585614615E-5,-0.0011557706504933,-1.690626368056E-4,378599.81068598,7.3429E-12,1118.74607552562,2.54248285957629,6.95003889049714,-4.66245300466147
6540.0,-5729908.36614407,1288203.72009967,3321499.2494527,-1696523.25510244,-5621647.61348564,3323035.1980816,4498.42609206217,-4079.2794431193,-4722.81728481964,2.2016161447822,7.29533774966077,-4.31237704509638,6759053.0757898,1.50022379422564,1.48657465525234,0.114758091384977,-0.0175907464816021,-2.49741193460598,-0.460816662773482,-1.79111693922398,-1.9585614615E-5,-0.0011373367896959,-1.667149121697E-4,374186.560095066,8.0898E-12,1125.634581749,2.2016161447822,7.29533774966077,-4.31237704509638
6600.0,-5936497.61246148,1024286.92217618,3030792.01656449,-1422864.54816798,-5853080.4249877,3032123.65604795,4620.00772186072,-3632.02666812878,-4970.51938435683,1.84933466159934,7.60740333364486,-3.94093125913118,6759053.07578981,1.50459906347603,1.48662317692766,0.116371574807407,-0.019697860805417,-2.52098970511429,-0.412071947130631,-1.73814764281959,-1.9585614615E-5,-0.0011188203918004,-1.638432542072E-4,369851.799838346,8.8842E-12,1131.97118862467,1.84933466159934,7.60740333364486,-3.94093125913118
6660.0,-6117756.80934368,757296.211600068,2725909.57882901,-1142551.17781939,-6057137.06573339,2727030.68103545,4720.1501830523,-3167.08974166729,-5195.33443833366,1.48725203533108,7.88453909476882,-3.54975952895246,6759053.07578982,1.50897433272355,1.48786468819141,0.11814228652472,-0.0214943159378678,-2.54101142258542,-0.363093921793942,-1.68830814075285,-1.9585614615E-5,-0.0011004815136275,-1.605107185762E-4,365628.182379199,9.7207E-12,1137.73336705232,1.48725203533108,7.88453909476882,-3.54975952895246
6720.0,-6272820.85685495,488244.453680243,2408258.64903709,-856886.136843011,-6232820.31018615,2409163.96262754,4798.31553970711,-2686.6115515758,-5396.13117096129,1.11705011239196,8.12520162091006,-3.14062365991664,6759053.07578981,1.51334960196536,1.49028325104765,0.120061115877287,-0.0229433638349458,-2.55784673920578,-0.314060006376647,-1.64118386599302,-1.9585614615E-5,-0.0010825785599506,-1.56789575236E-4,361547.40792108,1.05916E-11,1142.9009441434,1.11705011239196,8.12520162091006,-3.14062365991664
6780.0,-6400936.62781147,218150.918906751,2079310.54979678,-567201.629301236,-6379264.18691436,2079995.82798726,4854.06862470915,-2192.82269569014,-5571.88738237111,0.740471342795849,8.3280126052408,-2.71539647313228,6759053.0757898,1.51772487121575,1.49384716770124,0.122115047236508,-0.0240134570739365,-2.57181642124991,-0.265105408198767,-1.59640105796286,-1.9585614615E-5,-0.0010653649347374,-1.527603332923E-4,357639.837499477,1.1487E-11,1147.45604316962,0.740471342795849,8.3280126052408,-2.71539647313228
6840.0,-6501467.2879933,-51962.5710144022,1740594.4784545,-274852.800215055,-6495738.93708984,1741056.50208386,4887.0804293055,-1688.03123163918,-5721.69637647356,0.359310440103685,8.491770192838,-2.27605386417612,6759053.0757898,1.52210014046327,1.49850928687996,0.124287275510123,-0.0246789581391471,-2.58319573430055,-0.216328705622082,-1.55362127672054,-1.9585614615E-5,-0.0010490856704698,-1.485105905853E-4,353934.121214831,1.23945E-11,1151.38291240044,0.359310440103685,8.491770192838,-2.27605386417612
6900.0,-6573896.1081932,-321075.538255164,1393690.40142528,18788.7226959678,-6581655.33799074,1393926.99715799,4897.13097143501,-1174.61176825207,-5844.77288159378,-0.024594645598332,8.6154595555946,-1.8246658402402,6759053.07578981,1.52647540971366,1.50420748758565,0.126557468939848,-0.0249207851340606,-2.59221796356461,-0.16779690865425,-1.51253550039891,-1.9585614615E-5,-0.0010339740552375,-1.441337086552E-4,350456.84853895,1.32996E-11,1154.66789259143,-0.024594645598332,8.6154595555946,-1.8246658402402
