time,gePosition_m_X,gePosition_m_Y,gePosition_m_Z,eiPosition_m_X,eiPosition_m_Y,eiPosition_m_Z,eiVelocity_m_s_X,eiVelocity_m_s_Y,eiVelocity_m_s_Z,eiAccel_m_s2_X,eiAccel_m_s2_Y,eiAccel_m_s2_Z,semiMajorAxis_m,gast_rad,eulerAngle_rad_Roll,eulerAngle_rad_Pitch,eulerAngle_rad_Yaw,eulerAngleWrtEi_rad_Roll,eulerAngleWrtEi_rad_Pitch,eulerAngleWrtEi_rad_Yaw,bodyAngularRateWrtEi_rad_s_Roll,bodyAngularRateWrtEi_rad_s_Pitch,bodyAngularRateWrtEi_rad_s_Yaw,altitudeMsl_m,airDensity_kg_m3,ambientTemperature_dgK,eiGravitation_m_s2_X,eiGravitation_m_s2_Y,eiGravitation_m_s2_Z
0.0,-1436381.48862739,4185811.47756286,5163944.85376219,-4315967.73999999,960356.199999999,5167269.52999999,129.091036999934,-7491.51385500013,1452.51565399991,5.46941408349186,-1.21701227670639,-6.54822705894007,6759053.07578975,1.02331933954551,0.19689735485747,1.48180599450461,0.197659401373358,-1.37314475827125,-0.86773747862804,3.05977258849908,-1.9585614615E-5,-0.0011220591098066,0.0,435023.891975937,1.782E-12,992.872619628906,5.46941408349186,-1.21701227670639,-6.54822705894007
60.0,-1794950.05296065,3943125.78856612,5239239.79605635,-4298383.75497048,509016.725547931,5242568.01441598,456.873453273713,-7547.42173400805,1056.41305957734,5.45257924198937,-0.645697124724758,-6.65029442684518,6759053.07578973,1.02769460895833,0.196529411477998,1.48241570316537,0.19729302617323,-1.45296990514268,-0.878385184631133,-3.12081354529615,-1.9585614615E-5,-0.0011030956350098,-5.0339446731E-6,433115.87313641,1.7272E-12,986.205200195312,5.45257924198937,-0.645697124724758,-6.65029442684518
120.0,-2147547.18523093,3685626.96521056,5290617.76797841,-4261177.84165865,55353.9685751973,5293934.33527935,782.910113090134,-7568.91571402689,655.073376703436,5.41122605044224,-0.0702934371387033,-6.7227129326392,6759053.07578975,1.03206987837114,0.195419821444369,1.48424006322614,0.196201713693083,-1.53347904482088,-0.883926736987026,-3.01801477654203,-1.9585614615E-5,-0.001084361765594,-9.985403105E-6,430911.681513475,1.8587E-12,994.001220703125,5.41122605044224,-0.0702934371387033,-6.7227129326392
180.0,-2492684.26106042,3414408.64931455,5317818.15938755,-4204498.84971832,-398561.363029105,5321107.91929482,1105.73160265977,-7555.82484024798,250.289448678891,5.34542737930093,0.506714568945596,-6.76503834979504,6759053.07578975,1.03644514778395,0.193531190504223,1.48725974459676,0.194368095090051,-1.61341261669997,-0.884500737864933,-2.91621673195377,-1.9585614615E-5,-0.0010661099843177,-1.47909105895E-5,428423.881970259,2.0149E-12,1002.46813964843,5.34542737930093,0.506714568945596,-6.76503834979504
240.0,-2828892.49737323,3130615.38183372,5320688.59130997,-4128583.6023506,-850652.794750099,5323936.49262932,1423.87589009512,-7508.12814381691,-156.122774234484,5.25535668534846,1.08281296502147,-6.77694529983122,6759053.07578975,1.04082041719676,0.190780832608938,1.49143932068729,0.191728792259065,-1.69159266885481,-0.880342119609928,-2.81653755647423,-1.9585614615E-5,-0.0010485890149445,-1.93893121841E-5,425661.788629329,2.1986E-12,1011.51983642578,5.25535668534846,1.08281296502147,-6.77694529983122
300.0,-3154729.04319163,2835438.15525896,5299186.08634122,-4033756.27141946,-1298847.13301984,5302377.25117308,1735.89440574255,-7425.95617001209,-562.331476724368,5.14128947640578,1.6554666784825,-6.758230921026,6759053.07578974,1.04519568660958,0.187023173184655,1.49672759923728,0.188156496232593,-1.76700944191862,-0.871760709232982,-2.71992635533277,-1.9585614615E-5,-0.0010320408440802,-2.37228158527E-5,422639.041661672,2.4127E-12,1021.03753662109,5.14128947640578,1.6554666784825,-6.758230921026
360.0,-3468783.07647878,2530109.78695854,5253377.79833675,-3920427.3852626,-1741083.58875551,5256497.58980595,2040.358202706,-7309.59197714171,-966.496434167889,5.00360451248762,2.2221285704879,-6.70881831891693,6759053.07578973,1.04957095602238,0.18201411282656,1.50305812561044,0.183424028239887,-1.8388762283857,-0.859114266686207,-2.62710806533978,-1.9585614615E-5,-0.0010166976813716,-2.77380363501E-5,419368.929530792,2.6601E-12,1030.88061523437,5.00360451248762,2.2221285704879,-6.70881831891693
420.0,-3769681.88461013,2215900.12426178,5183441.28898942,-3789092.46488669,-2175322.94417954,5186475.37826282,2335.86418042511,-7159.47157516558,-1366.77666753675,4.84278469880816,2.78024903500316,-6.62875974533589,6759053.07578974,1.0539462254352,0.175338469848211,1.51034983600142,0.177131505990986,-1.90664782127008,-0.84278065395798,-2.53856474418812,-1.9585614615E-5,-0.0010027788749269,-3.13870125165E-5,415862.944916343,2.9435E-12,1040.90124511718,4.84278469880816,2.78024903500316,-6.62875974533589
480.0,-4056096.90457647,1894111.0930593,5089664.33987088,-3640330.28534663,-2599556.72836462,5092598.77217131,2621.04135141867,-6976.18377266991,-1761.33827945779,4.65941762361249,3.32728612084416,-6.51823944782057,6759053.07578977,1.05832149484801,0.166252237062641,1.51850779735764,0.16854835393006,-1.97000751242123,-0.823133092428842,-2.45454831129836,-1.9585614615E-5,-9.904878153741E-4,-3.46281759469E-5,412141.010399527,3.266E-12,1050.95715332031,4.65941762361249,3.32728612084416,-6.51823944782057
540.0,-4326749.69756451,1566071.60277223,4972444.28970021,-3474800.76038683,-3011816.36506654,4975265.54902237,2894.55712842804,-6760.46940100285,-2148.36244979976,4.45419569213641,3.86071616874285,-6.37757612704768,6759053.07578973,1.06269676426082,0.15330007307565,1.52742384739426,0.156230580369391,-2.0288331421016,-0.800520943107548,-2.37511423046365,-1.9585614615E-5,-9.800088792886E-4,-3.74272448072E-5,408245.009205563,3.6305E-12,1060.92248535156,4.45419569213641,3.86071616874285,-6.37757612704768
600.0,-4580417.83115437,1233132.32171001,4832286.88801512,-3293242.44987753,-3410182.25455717,4834981.96024697,3155.12360624466,-6513.21988517542,-2526.05356531136,4.22791580717381,4.37804494470854,-6.20722493659359,6759053.07578972,1.06707203367362,0.133224847884406,1.5369764898638,0.136930143259724,-2.08315356087583,-0.775256820676945,-2.30016476290615,-1.9585614615E-5,-9.715044787015E-4,-3.97580135346E-5,404179.462525087,4.0402E-12,1070.69116210937,4.22791580717381,4.37804494470854,-6.20722493659359
660.0,-4815940.64104647,896660.338080295,4669804.658067,-3096469.69121065,-3792792.74938626,4672361.0922199,3401.50380953293,-6235.4751325988,-2892.64745381796,3.9814785468529,4.87681923940826,-6.00777895699357,6759053.07578973,1.07144730308643,0.096975629713505,1.5470271260623,0.101602792922262,-2.13310456180788,-0.747609624000454,-2.22949272007106,-1.9585614615E-5,-9.651122959636E-4,-4.16030079078E-5,399971.032421958,4.498E-12,1080.177734375,3.9814785468529,4.87681923940826,-6.00777895699357
720.0,-5032224.84301553,558033.723222627,4485714.76365379,-2885369.35762982,-4157852.98232741,4488120.73090507,3632.51787502519,-5928.42071290884,-3246.41968936135,3.71588679137418,5.35463889108384,-5.7799700748754,6759053.07578974,1.07582257249925,0.0068547904678677,1.55739126153903,0.0125550700627307,-2.17888990371242,-0.717802392168604,-2.16282008033468,-1.9585614615E-5,-9.609427905455E-4,-4.29539759295E-5,395644.312507246,5.0068E-12,1089.31494140625,3.71588679137418,5.35463889108384,-5.7799700748754
780.0,-5228249.96471964,218636.014987864,4280836.37674413,-2660897.24845206,-4503643.50324198,4283080.72699815,3847.04913363255,-5593.38430505629,-3585.69393050879,3.43224375272009,5.80916917685302,-5.52466919802599,6759053.07578971,1.08019784191205,-0.625960206395713,1.56722183393656,-0.619033976518931,-2.22074992827589,-0.686013693854796,-2.09982894933684,-1.9585614615E-5,-9.590770650783E-4,-4.38121883688E-5,391239.371566104,5.569E-12,1098.04919433593,3.43224375272009,5.80916917685302,-5.52466919802599
840.0,-5403073.56610133,-120149.359440601,4056087.54513498,-2424074.11828712,-4828528.68027276,4058159.86081252,4044.05005535288,-5231.83139153667,-3908.85024994641,3.13175036476533,6.23815350431992,-5.24288573872322,6759053.07578971,1.08457311132487,-2.64220553390181,1.56199427474549,-2.63390155045171,-2.25893809704267,-0.652381353797479,-2.04018451810684,-1.9585614615E-5,-9.595651714443E-4,-4.41885285938E-5,386783.36853393,6.1865E-12,1106.337890625,3.13175036476533,6.23815350431992,-5.24288573872322
900.0,-5555836.21643855,-456944.700614717,3812481.56201669,-2175981.35466125,-5130964.8197019,3814372.20878814,4222.54801743493,-4845.36018410731,-4214.33340949304,2.81570199583596,6.63942632249614,-4.93576630063449,6759053.07578971,1.08894838073768,-2.81384916115255,1.55144094781058,-2.80401926194024,-2.293704563413,-0.617007550997341,-1.98355088166336,-1.9585614615E-5,-9.6242492423E-4,-4.41033591434E-5,382312.202711834,6.86E-12,1114.14501953125,2.81570199583596,6.63942632249614,-4.93576630063449
960.0,-5685766.19566931,-790383.671759211,3551122.84218329,-1917756.31588993,-5409507.95802194,3552823.01636839,4381.6508541503,-4435.69577058025,-4500.6610309171,2.4854844515996,7.01092615837827,-4.60459250912234,6759053.07578972,1.09332365015049,-2.86694510235965,1.54092176821346,-2.85544733321322,-2.32528540691836,-0.579964579569735,-1.92960106626887,-1.9585614615E-5,-9.676412694318E-4,-4.358616172E-5,377856.445031534,7.589E-12,1121.44067382812,2.4854844515996,7.01092615837827,-4.60459250912234
1020.0,-5792183.88745711,-1119116.92826509,3273202.31270561,-1650587.34359683,-5662821.27931989,3274704.08507219,4520.55214480204,-4004.68347826534,-4766.43160950609,2.142569243206,7.35070867343741,-4.25077793095601,6759053.07578973,1.0976989195633,-2.89478501287699,1.53070600358148,-2.88148611270644,-2.35389610845312,-0.541300789049598,-1.87802265955565,-1.9585614615E-5,-9.751662327622E-4,-4.26749571238E-5,373447.342355096,8.3717E-12,1128.19860839843,2.142569243206,7.35070867343741,-4.25077793095601
1080.0,-5874505.83161228,-1441817.71721154,2979992.32915881,-1375708.46691858,-5889682.11100618,2981288.68486422,4638.53619533496,-3554.28145632444,-5010.33231432359,1.78850810379332,7.6569596230627,-3.87586403721867,6759053.07578973,1.10207418897612,-2.91338920175377,1.52095485905552,-2.8981669674664,-2.37972801299014,-0.501046397014817,-1.82852026698148,-1.9585614615E-5,-9.84919446632E-4,-4.14155211931E-5,369123.039741439,9.204E-12,1134.39477539062,1.78850810379332,7.6569596230627,-3.87586403721867
1140.0,-5932248.4039663,-1757187.42128327,2672841.13193515,-1094393.81813834,-6088988.45127266,2673926.00636778,4734.98266817238,-3086.55248662178,-5231.14651659028,1.42492674575694,7.92800759198617,-3.48151517260018,6759053.07578971,1.10644945838892,-2.92775392729313,1.51180877294399,-2.91049942040587,-2.40294676865377,-0.459218993876203,-1.78081577221752,-1.9585614615E-5,-9.967892304447E-4,-3.98604211884E-5,364915.068191987,1.00797E-11,1140.0087890625,1.42492674575694,7.92800759198617,-3.48151517260018
1200.0,-5965031.09263159,-2063961.0204902,2353166.86074483,-807951.78222116,-6259764.9824726,2354035.17103883,4809.37081475112,-2603.65504053764,-5427.7609857378,1.05351786143355,8.16233637022415,-3.06951250520709,6759053.07578971,1.11082472780174,-2.93994883628533,1.50339626090264,-2.92056839352825,-2.42369197168526,-0.41582864649478,-1.73464713401018,-1.9585614615E-5,-0.0010106341777327,-3.80679035529E-5,360863.758501577,1.09902E-11,1145.02197265625,1.05351786143355,8.16233637022415,-3.06951250520709
1260.0,-5972579.34078806,-2360912.44430451,2022451.14907147,-517718.905444595,-6401168.5259121,2023098.8210857,4861.28326571475,-2107.83360754954,-5599.17269149623,0.676033380940563,8.3585968274164,-2.64174694339379,6759053.07578971,1.11519999721455,-2.95099627642193,1.49583462973671,-2.92941328752613,-2.44207745262146,-0.370882564473941,-1.68976624067085,-1.9585614615E-5,-0.0010262851879071,-3.61006681042E-5,356989.88879117,1.19243E-11,1149.41845703125,0.676033380940563,8.3585968274164,-2.64174694339379
1320.0,-5954726.92773196,-2646859.78623667,1682232.32406168,-225053.590988733,-6512492.89534937,1682656.31463409,4890.40933489856,-1601.40833005961,-5744.49514996993,0.294276012649861,8.51561813892541,-2.20021101976292,6759053.0757897,1.11957526662736,-2.96147080374292,1.48922914835005,-2.93762722111897,-2.45819180078715,-0.32438932976864,-1.64593617444374,-1.9585614615E-5,-0.0010435478713076,-3.40245653076E-5,353325.379358563,1.28683E-11,1153.18420410156,0.294276012649861,8.51561813892541,-2.20021101976292
1380.0,-5911417.86190764,-2920670.35250865,1334098.24103967,68670.3880714445,-6593173.10883245,1334296.55535028,4896.54779513275,-1086.7639878207,-5862.96425210167,-0.0899098960440005,8.63241821494413,-1.74698975719487,6759053.07578972,1.12395053604017,-2.97173290429832,1.48367190442215,-2.94559045159863,-2.47209884435242,-0.276362713712787,-1.60292810890727,-1.9585614615E-5,-0.0010622052542696,-3.1907252471E-5,349887.877812378,1.3806E-11,1156.30737304687,-0.0899098960440005,8.63241821494413,-1.74698975719487
1440.0,-5842707.76201866,-3181265.51636918,979678.785495972,362070.525485077,-6642788.92137517,979650.489395994,4879.60908652043,-566.338384237287,-5953.9435142794,-0.474648127619749,8.70821318437834,-1.28425054729494,6759053.07578971,1.12832580545299,-2.98203450820379,1.47924067480044,-2.95357555796237,-2.48383788843826,-0.226825120679605,-1.56051796635075,-1.9585614615E-5,-0.0010820207156232,-2.98168419086E-5,346706.096759477,1.47194E-11,1158.779296875,-0.474648127619749,8.70821318437834,-1.28425054729494
1500.0,-5748764.70507538,-3427625.34975377,620638.078947695,653762.333106524,-6661067.64437286,620383.306138302,4839.61692122074,-42.6101956258431,-6016.92869314292,-0.858040930629494,8.74242578859681,-0.814232087701472,6759053.07578972,1.13270107486579,-2.9925730517438,1.4759979202608,-2.96180114650034,-2.49342357151525,-0.175810707741738,-1.5184828912116,-1.9585614615E-5,-0.0011027410961247,-2.78205699547E-5,343802.040213793,1.5589E-11,1160.59423828125,-0.858040930629494,8.74242578859681,-0.814232087701472
1560.0,-5629869.52336298,-3658793.00444601,258666.428449587,942366.169550534,-6647886.22158201,258186.382421698,4776.70925286993,481.913646959191,-6051.55170992155,-1.23817984887068,8.73469254639504,-0.339232440952161,6759053.0757897,1.1370763442786,-3.00352319500193,1.47398994784706,-2.97046319159261,-2.50084523736931,-0.123368237167752,-1.47659754363682,-1.9585614615E-5,-0.0011240999359081,-2.59835108765E-5,341194.809433872,1.63948E-11,1161.75048828125,-1.23817984887068,8.73469254639504,-0.339232440952161
1620.0,-5486415.53578598,-3873878.81565195,-104527.937309176,1226514.10726219,-6603272.53590882,-105230.986633408,4691.13858357771,1004.71096567017,-6057.58383388099,-1.61315695786555,8.68486956074344,0.138403706297078,6759053.07578971,1.14145161369142,-3.01505893069237,1.47324625801413,-2.97975675371312,-2.50606574188697,-0.0695637249721956,-1.43463017909075,-1.9585614615E-5,-0.0011458208098637,-2.43673549592E-5,338900.033050452,1.71169E-11,1162.24951171875,-1.61315695786555,8.68486956074344,0.138403706297078
1680.0,-5318907.70283333,-4072064.1019676,-467227.299514595,1504856.79757914,-6527405.92613757,-468150.024467193,4583.27158689285,1523.25764850287,-6034.93807965509,-1.98107641258762,8.59303685005665,0.61629848934214,6759053.07578968,1.14582688310422,-3.02737273817368,1.47377908101374,-2.98989473591083,-2.50901962572099,-0.0144829552290365,-1.39233845243551,-1.9585614615E-5,-0.0011676207445601,-2.30292659082E-5,336930.547114413,1.77367E-11,1162.09594726562,-1.98107641258762,8.59303685005665,0.61629848934214
1740.0,-5127961.19846994,-4252604.63710667,-827713.000002484,1776070.29224585,-6420616.89803702,-828851.029178807,4453.58803117798,2035.04117494649,-5983.6707793453,-2.34006620120463,8.45950110171649,1.09205490778318,6759053.07578969,1.15020215251704,-3.04069639321877,1.47558309793052,-3.0011282974478,-2.50961059016982,0.0417660625564977,-1.34946486667972,-1.9585614615E-5,-0.0011892137107758,-2.20208296808E-5,335291.79559479,1.8238E-11,1161.29748535156,-2.34006620120463,8.45950110171649,1.09205490778318
1800.0,-4914299.39655295,-4414833.77045378,-1184274.06081496,2038862.77910038,-6283386.01995747,-1185621.99837091,4302.67899438522,2537.57425734871,-5903.98229721834,-2.68828999193672,8.28479676321324,1.563271341805,6759053.07578972,1.15457742192984,-3.05532812872009,1.47863533159297,-3.01377362848332,-2.50770821955349,0.0990506062416832,-1.30573177842966,-1.9585614615E-5,-0.001210314191201,-2.13871051153E-5,333986.592814175,1.86075E-11,1159.8642578125,-2.68828999193672,8.28479676321324,1.563271341805
1860.0,-4678751.27384586,-4558165.17550895,-1535215.82035346,2291981.18932059,-6116341.99900997,-1536767.27052201,4131.24436818579,3028.40849620833,-5796.21686253404,-3.02395895420355,8.06968540625765,2.02755640834885,6759053.07578971,1.15895269134266,-3.07167284028361,1.48289517611959,-3.02825178880887,-2.50314390595859,0.157210625319399,-1.26083587773089,-1.9585614615E-5,-0.0012306408223662,-2.1165786248E-5,333023.694576347,1.88361E-11,1157.80871582031,-3.02395895420355,8.06968540625765,2.02755640834885
1920.0,-4422248.23629437,-4682095.20758263,-1878868.5327224,2534217.63371056,-5920258.94012954,-1880616.12944749,3940.08965666533,3505.14794437974,-5660.86150437821,-3.34534343126696,7.81515332120991,2.48254401346353,6759053.07578972,1.16332796075546,-3.09030699504465,1.48830450204595,-3.04515327805758,-2.49570596189157,0.216055883659719,-1.21444208754585,-1.9585614615E-5,-0.0012499201030586,-2.13864867387E-5,332391.368537755,1.89188E-11,1155.14477539062,-3.34534343126696,7.81515332120991,2.48254401346353
1980.0,-4145820.37988565,-4786204.85465362,-2213595.87615342,2764415.62604315,-5696052.79668822,-2215531.31770625,3730.12208223058,3965.46247331452,-5498.54408123171,-3.65078433973382,7.5224073227409,2.92590844975406,6759053.07578973,1.16770323016828,-3.11209100105801,1.49478770656543,-3.06535010354879,-2.48513396961748,0.275362732090207,-1.16617689235703,-1.9585614615E-5,-0.001267890148984,-2.20701579295E-5,332088.124882657,1.88552E-11,1151.8896484375,-3.65078433973382,7.5224073227409,2.92590844975406
2040.0,-3850592.20205958,-4870161.26810219,-2537803.3162387,2981476.0524577,-5444777.02775601,-2539917.40464894,3502.34601885064,4407.10083405644,-5310.03040722925,-3.93870417168069,7.19286877230354,3.35537938303031,6759053.07578972,1.17207849958109,-3.13837746323864,1.50225142415961,-3.09020377994363,-2.47111253913921,0.334870368509493,-1.11562123144481,-1.9585614615E-5,-0.0012843044565466,-2.32286532014E-5,332106.492988088,1.86497E-11,1148.06201171875,-3.93870417168069,7.19286877230354,3.35537938303031
2100.0,-3537777.7842228,-4933718.86302895,-2849946.27010053,3184362.8473419,-5167617.48351946,-2852228.95520337,3257.8577801411,4827.90330679567,-5096.22048649193,-4.20761747785822,6.82816584821422,3.76875657018318,6759053.07578969,1.1764537689939,3.1117575153311,1.5105832271861,-3.1219817339878,-2.45326487145445,0.394276438606729,-1.06230332094468,-1.9585614615E-5,-0.0012989356194093,-2.48644518888E-5,332436.647119555,1.83109E-11,1143.68359375,-4.20761747785822,6.82816584821422,3.76875657018318
2160.0,-3208675.47035553,-4976719.98104162,-3148538.01859035,3372108.3379931,-4865886.54666878,-3150978.4464598,2997.83979695331,5225.81383539432,-4858.14387638673,-4.45614071542284,6.43012411936434,4.16392415109828,6759053.07578969,1.18082903840671,3.06785876228691,1.51964756851049,3.1184138053951,-2.43114691315628,0.453231848585649,-1.00569216246797,-1.9585614615E-5,-0.0013115789224547,-2.69705555459E-5,333066.005099968,1.78509E-11,1138.77880859375,-4.45614071542284,6.43012411936434,4.16392415109828
2220.0,-2864662.07094015,-4999095.11168753,-3432157.3151414,3543818.22264015,-4541016.56366408,-3434743.88065137,2723.55422591876,5598.89154739995,-4596.95420990145,-4.68300135086101,6.00075550322053,4.53886436109825,6759053.07578969,1.18520430781953,3.00494633002911,1.52927375126698,3.05644711121636,-2.40424353294072,0.511334727791756,-0.945193144784826,-1.9585614615E-5,-0.0013220557216025,-2.95305674559E-5,333979.109729137,1.72847E-11,1133.37670898437,-4.68300135086101,6.00075550322053,4.53886436109825
2280.0,-2507186.62541305,-5000862.67208411,-3699455.64198127,3698676.14908531,-4194552.60560034,-3702176.0452091,2436.33603668914,5945.32156561527,-4313.92291635228,-4.88704611808631,5.54224571226042,4.8916705169458,6759053.07578967,1.18957957723233,2.90427585672992,1.53921730048567,2.95656240680938,-2.37196916473035,0.568123636745813,-0.880148163141597,-1.9585614615E-5,-0.0013302165071993,-3.25189627374E-5,335158.673879047,1.66294E-11,1127.51000976562,-4.88704611808631,5.54224571226042,4.8916705169458
2340.0,-2137763.75998771,-4982128.34771015,-3949164.06702101,3835947.86426367,-3828144.60382657,-3952005.37318312,2137.5856312861,6263.42502420404,-4010.43218819379,-5.06724834291493,5.05694031477732,5.22055913872466,6759053.07578968,1.19395484664514,2.71387189501531,1.54901018596821,2.76679060665417,-2.33367685596791,0.623070432501448,-0.809844178124509,-1.9585614615E-5,-0.001335943545452,-3.5901551318E-5,336584.780760045,1.59034E-11,1121.21691894531,-5.06724834291493,5.05694031477732,5.22055913872466
2400.0,-1757966.68096509,-4943084.00071346,-4180099.65784223,3954984.90837478,-3443538.91045608,-4183048.36042906,1828.76105392322,6551.6682104693,-3687.96724961926,-5.2227142580154,4.54732955556591,5.52388108175066,6759053.07578966,1.19833011605796,2.26268645115923,1.55720882569632,2.31609304379542,-2.28868164684028,0.675573773664756,-0.733536126184924,-1.9585614615E-5,-0.0013391529978873,-3.96361296943E-5,338237.820605789,1.51251E-11,1114.54150390625,-5.2227142580154,4.54732955556591,5.52388108175066
2460.0,-1369419.84649417,-4884006.15541827,-4391171.41276059,4055227.83087124,-3042569.33836501,-4394213.49951842,1511.36985379525,6808.67076269241,-3348.1079897772,-5.3526882466955,4.01603209892244,5.8001315667854,6759053.07578966,1.20270538547076,1.34987795942864,1.55883124465902,1.40364026059711,-2.23630638706724,0.724955178881408,-0.650492277308985,-1.9585614615E-5,-0.0013397964333161,-4.36733103175E-5,340097.322523272,1.43125E-11,1107.53356933593,-5.3526882466955,4.01603209892244,5.8001315667854
2520.0,-973791.362125411,-4805254.07393307,-4581385.67290259,4136208.90944042,-2627147.73915122,-4584506.69429283,1186.96066657254,7033.21286459982,-2992.52002966002,-5.45655696920541,3.46577787028103,6.04795901290603,6759053.07578968,1.20708065488357,0.738299935337266,1.55200546224144,0.792300417884921,-2.17595945308897,0.770460900187755,-0.560071493531517,-1.9585614615E-5,-0.0013378616693743,-4.79575102971E-5,342141.696815048,1.34825E-11,1100.24890136718,-5.45655696920541,3.46577787028103,6.04795901290603
2580.0,-572785.147390056,-4707267.43781708,-4749850.98353471,4197554.35713384,-2199254.18076741,-4753036.12328721,857.114582640312,7224.24138793849,-2622.94529693667,-5.5338523412471,2.89939018337033,6.26617259504528,6759053.07578966,1.21145592429638,0.49065694327764,1.5424414323522,0.544794963693786,-2.10725208556639,0.811274481990256,-0.461840100669508,-1.9585614615E-5,-0.0013333729094709,-5.24280746102E-5,344348.701216598,1.26502E-11,1092.74890136718,-5.5338523412471,2.89939018337033,6.26617259504528
2640.0,-168132.922015103,-4590563.65462169,-4895782.37746618,4238986.00692558,-1760926.78911277,-4899016.52483245,523.436371451422,7380.87494608252,-2241.19218712019,-5.58425335071625,2.31976734681436,6.45374846704234,6759053.07578965,1.2158311937092,0.367878249075489,1.53241908452862,0.422071939373593,-2.03015451033461,0.846546107645022,-0.355727530117578,-1.9585614615E-5,-0.0013263901731343,-5.70205038257E-5,346699.89281992,1.1829E-11,1085.09899902343,-5.58425335071625,2.31976734681436,6.45374846704234
2700.0,238413.938762785,-4455734.81074195,-5018505.05814205,4260322.46715904,-1314251.31973982,-5021772.88144669,187.545631709992,7502.40783334975,-1849.12539242667,-5.60758671499291,1.72986394751696,6.60983461059239,6759053.07578962,1.220206463122,0.293706705472057,1.52257679058524,0.347894479510372,-1.94517096117588,0.875444286118631,-0.242200843737611,-1.9585614615E-5,-0.0013170080501147,-6.16677529962E-5,349172.113965115,1.10296E-11,1077.36669921875,-5.60758671499291,1.72986394751696,6.60983461059239
2760.0,645092.6299925,-4303444.29436086,-5117457.46498066,4261479.74550997,-861350.526997333,-5120743.48606466,-148.932063515115,7588.31283655952,-1448.6554814646,-5.60382639697585,1.13267200796212,6.73375429029929,6759053.07578961,1.22458173253482,0.242495733162542,1.51320239318868,0.296637377725185,-1.85348542261599,0.897231117901337,-0.122409955482165,-1.9585614615E-5,-0.0013053538379417,-6.63015671457E-5,351745.525172395,1.0261E-11,1069.61853027343,-5.60382639697585,1.13267200796212,6.73375429029929
2820.0,1050137.17430786,-4134423.1143157,-5192193.70851846,4242471.34319839,-404373.398384729,-5195482.37766708,-484.373959197895,7638.24291709557,-1041.72831349033,-5.57309201318007,0.531202210827764,6.82500811467242,6759053.07578959,1.22895700194763,0.203667474781284,1.50448140450678,0.257744805866269,-1.7570057412328,0.911353136577974,0.0017688056635155,-1.9585614615E-5,-0.001291585146144,-7.08538196981E-5,354398.272615846,9.5294E-12,1061.9169921875,-5.57309201318007,0.531202210827764,6.82500811467242
2880.0,1451786.66180941,-3949465.94244173,-5242385.36793528,4203407.82516573,54515.6783463177,-5245661.13888485,-817.168783161829,7652.03177314597,-630.314370399768,-5.51564618127331,-0.0715346227625522,6.88327472193428,6759053.0757896,1.23333227136044,0.172121078630964,1.49655596705985,0.226138153892151,-1.65823993224609,0.917527860245251,0.127856967918578,-1.9585614615E-5,-0.0012758870659837,-7.52578230171E-5,357127.050622775,8.8392E-12,1054.31591796875,-5.51564618127331,-0.0715346227625522,6.88327472193428
2940.0,1848293.42476427,-3749426.90833708,-5267822.64847497,4144495.87574823,513147.748717933,-5271070.053098,-1145.72522139472,7629.69330268168,-216.398087948374,-5.43189086714155,-0.672545625166528,6.90841012752058,6759053.07578962,1.23770754077325,0.145093159893617,1.48954244687238,0.199076048731911,-1.55999481009971,0.915798929272617,0.253075897985675,-1.9585614615E-5,-0.0012584690113323,-7.94495845081E-5,359899.91400636,8.1928E-12,1046.85974121093,-5.43189086714155,-0.672545625166528,6.90841012752058
3000.0,2237931.10095415,-3535215.17653549,-5268414.90108677,4066036.85297553,969360.060597678,-5271618.62336235,-1468.48014592901,7571.41999793311,198.032735028795,-5.32236280271612,-1.26887338101428,6.90044578680021,6759053.07578961,1.24208281018606,0.120942522798342,1.48353740926535,0.174938645866019,-1.46497435136756,0.906538210068618,0.374749084795425,-1.9585614615E-5,-0.0012395613342782,-8.33689868443E-5,362713.015715964,7.591E-12,1039.57971191406,-5.32236280271612,-1.26887338101428,6.90044578680021
3060.0,2619002.54149204,-3307790.33676917,-5244190.51123041,3968424.85796637,1421006.70586465,-5247335.4601175,-1783.90654190967,7477.58031147736,610.997374294783,-5.1877280551902,-1.85761268474796,6.85958544151339,6759053.07578962,1.24645807959887,0.0986144454584493,1.47861972231903,0.152691505014039,-1.37541275919717,0.890391942993151,0.490669757258795,-1.9585614615E-5,-0.0012194118093054,-8.69608761761E-5,365551.758324195,7.0333E-12,1032.49670410156,-5.1877280551902,-1.85761268474796,6.85958544151339
3120.0,2989847.52127339,-3068157.6383547,-5195296.1681605,3852144.33894544,1865969.07438224,-5198367.54900438,-2090.52108554479,7348.71504243146,1020.53239419555,-5.02877583577404,-2.43592642588359,6.78620083147289,6759053.07578961,1.25083334901168,0.0773786019173083,1.47485124147395,0.131623133257947,-1.29285672632086,0.86818910944724,0.599319338546733,-1.9585614615E-5,-0.0011982820642871,-9.017604702E-5,368397.876645554,6.5182E-12,1025.62231445312,-5.02877583577404,-2.43592642588359,6.78620083147289
3180.0,3348850.21287356,-2817363.0997522,-5121995.53008521,3717767.25214186,2302166.06312431,-5124978.91420265,-2386.89133010001,7185.53279855908,1424.70157259294,-4.84641164171985,-3.00106048948335,6.6808263640095,6759053.07578961,1.2552086184245,0.0566886085479914,1.47227697174581,0.111204190402155,-1.21813062210727,0.840840440059726,0.699903009563348,-1.9585614615E-5,-0.0011764440174893,-9.29721164013E-5,371246.104451938,6.0437E-12,1018.9634399414,-4.84641164171985,-3.00106048948335,6.6808263640095
3240.0,3694446.38759863,-2556488.52404688,-5024667.30434148,3565949.80422879,2727563.98684111,-5027548.69644744,-2671.64246284049,6988.90459626835,1821.60547720822,-4.6416498289719,-3.55035757879072,6.54415284234774,6759053.07578959,1.2595838878373,0.0360994200700155,1.47092506886067,0.0910045881575003,-1.15144067633141,0.80925208255656,0.792246305502484,-1.9585614615E-5,-0.0011541763598447,-9.53142824015E-5,374083.542986349,5.6075E-12,1012.52307128906,-4.6416498289719,-3.55035757879072,6.54415284234774
3300.0,4025130.31048884,-2286646.45050217,-4903802.76511362,3397428.80301284,3140186.14052526,-4906568.66827092,-2943.46360172579,6759.85766546449,2209.39064011363,-4.41560571450037,-4.08126988692214,6.37702036051282,6759053.0757896,1.26395915725012,0.0152128899431113,1.47080683179441,0.0706388027632111,-1.09254336138765,0.774265635299429,0.876627538692563,-1.9585614615E-5,-0.0011317611033798,-9.71759634229E-5,376903.690005046,5.2071E-12,1006.30517578125,-4.41560571450037,-4.08126988692214,6.37702036051282
3360.0,4339461.29930718,-2008975.0714589,-4760002.73421949,3213017.64477507,3538121.9680758,-4762640.21201355,-3201.11360661144,6499.56853000717,2586.25828370091,-4.1694873072401,-4.59137056447512,6.18041047649832,6759053.07578961,1.26833442666293,-0.0063640994292041,1.471916747077,0.0497238097924276,-1.04091557169225,0.736624861942691,0.953608442342099,-1.9585614615E-5,-0.0011094802019139,-9.85393143162E-5,379702.736520871,4.8397E-12,1000.31518554687,-4.1694873072401,-4.59137056447512,6.18041047649832
3420.0,4636069.9208655,-1724633.14273655,-4593974.05308538,3013601.96800336,3919535.79588678,-4596470.78874753,-3443.42638559879,6209.35543712113,2950.47255822695,-3.90458676469931,-5.07836394947816,5.95543777732581,6759053.0757896,1.27270969607574,-0.0290588149719646,1.47423259685032,0.027839764624944,-0.995893047830186,0.696963205043346,1.02389657967544,-1.9585614615E-5,-0.0010876122404896,-9.9395614318E-5,382481.219979073,4.503E-12,994.560974121093,-3.90458676469931,-5.07836394947816,5.95543777732581
3480.0,4913663.8013984,-1434794.91435448,-4406525.57621861,2800135.00424387,4282675.09453718,-4408869.92844407,-3669.3156829035,5890.67021055465,3300.36825785916,-3.62227166888272,-5.54009454489167,5.70334094941413,6759053.07578963,1.27708496548855,-0.0533775877325005,1.47771560754975,0.004485000832074,-0.956767982581631,0.655804800645135,1.08824857252928,-1.9585614615E-5,-0.0010664291862435,-9.97455199565E-5,385237.41801202,4.1944E-12,989.052734375,-3.62227166888272,-5.54009454489167,5.70334094941413
3540.0,5171033.03104035,-1140645.10687123,-4198563.71826794,2573632.65745183,4625878.23626217,-4200744.77349779,-3877.77934009378,5545.08960263163,3634.35798889144,-3.32397621037094,-5.97455474653182,5.42547346549906,6759053.07578964,1.28146023490136,-0.0799666409705083,1.48231057573651,-0.0209848313647033,-0.922850303973853,0.613572871902524,1.14740964535309,-1.9585614615E-5,-0.0010461931956527,-9.95991742431E-5,387972.994330063,3.9118E-12,983.801513671875,-3.32397621037094,-5.97455474653182,5.42547346549906
3600.0,5407055.14574881,-843373.956970038,-3971087.58814318,2335168.34355412,4947581.72037942,-3973095.20910322,-4067.90302770613,5174.30621967543,3950.93877036673,-3.01119236341293,-6.3798913405502,5.12329399539362,6759053.07578962,1.28583550431417,-0.109704818136375,1.48794584121911,-0.0494494753948167,-0.893501795827322,0.570601296372079,1.20208031608395,-1.9585614615E-5,-0.0010271534807078,-9.89761621553E-5,390683.297780776,3.653E-12,978.820373535156,-3.01119236341293,-6.3798913405502,5.12329399539362
3660.0,5620699.67320821,-544172.354127681,-3725183.74466066,2085867.62197036,5246326.84326943,-3727008.61497394,-4238.8634490133,4780.11909368701,4248.69805362076,-2.68546112793404,-6.75441080423327,4.79835664237087,6759053.07578961,1.29021077372699,-0.143857482949871,1.49453284645475,-0.0821779028185453,-0.868152047855475,0.527146847174372,1.2529012358141,-1.9585614615E-5,-0.0010095432483185,-9.79053021452E-5,393363.046407202,3.4159E-12,974.1220703125,-2.68546112793404,-6.75441080423327,4.79835664237087
3720.0,5811032.23230653,-244227.088333207,-3462020.60881147,1826902.65060095,5520765.79381297,-3463654.27352506,-4389.93102204522,4364.42397073962,4526.31915317023,-2.34836390665492,-7.09658345671612,4.45230110011704,6759053.07578962,1.29458604313979,-0.18435056144943,1.5019647347266,-0.121102245793943,-0.846303269361089,0.483400818592366,1.30044914058177,-1.9585614615E-5,-9.935767414864E-4,-9.64242646031E-5,396012.673116218,3.1988E-12,969.718872070312,-2.34836390665492,-7.09658345671612,4.45230110011704
3780.0,5977218.17867247,55283.7731039953,-3182842.56803762,1559486.49530637,5769667.15932568,-3184277.46992772,-4520.47204981049,3929.20338341964,4782.58608683212,-2.00151407727254,-7.40504651712211,4.08684281728905,6759053.07578962,1.29896131255261,-0.234293138914247,1.51011275898012,-0.169340244861922,-0.827528843556778,0.439499495928377,1.34523904047569,-1.9585614615E-5,-9.794464254751E-4,-9.4579011107E-5,398633.829816108,2.9999E-12,965.621520996093,-2.00151407727254,-7.40504651712211,4.08684281728905
3840.0,6118525.7914679,353195.363565346,-2888963.80787696,1284867.32420258,5991920.83096082,-2890193.31941986,-4629.95039200663,3476.51657091421,5016.38782792489,-1.64654881108188,-7.67860613658173,3.70376324796104,6759053.07578961,1.30333658196542,-0.299050576520179,1.51881750376108,-0.232268181601177,-0.8114687443493,0.395533345366658,1.38772953271953,-1.9585614615E-5,-9.673203753091E-4,-9.24230529189E-5,401228.961749201,2.8177E-12,961.838989257812,-1.64654881108188,-7.67860613658173,3.70376324796104
3900.0,6234328.99913108,648360.335801268,-2581761.9060321,1004322.51621249,6186542.30124253,-2582780.35695081,-4717.9286543297,3008.48930614035,5226.72197682053,-1.28512118071244,-7.91623847753918,3.30490025690441,6759053.0757896,1.30771185137822,-0.388634806311028,1.52786682693613,-0.319910959483058,-0.797823691461255,0.351555004671399,1.42832937899187,-1.9585614615E-5,-9.573399305036E-4,-9.00165333455E-5,403796.038610186,2.6508E-12,958.3779296875,-1.28512118071244,-7.91623847753918,3.30490025690441
3960.0,6324109.64404545,939653.009034997,-2262671.22336444,719152.712275633,6352676.34982074,-2263473.92368312,-4784.06891379319,2527.30368474633,5412.69786296427,-0.91889259099814,-8.11708991875713,2.89213873894525,6759053.07578958,1.31208712079104,-0.5234628088109,1.53693607134748,-0.452700341891459,-0.786349104331786,0.307586239045248,1.46740431142149,-1.9585614615E-5,-9.496176873948E-4,-8.74251458299E-5,406341.040816996,2.4978E-12,955.242004394531,-0.91889259099814,-8.11708991875713,2.89213873894525
4020.0,6387459.28815916,1225973.33410367,-1933176.1255476,430675.83645717,6489600.1166853,-1933759.38410685,-4828.13300025315,2035.1879260084,5573.53909173758,-0.549525558555749,-8.28047646754752,2.4674015018008,6759053.07578958,1.31646239020385,-0.748371420689508,1.54540988869716,-0.675489499128493,-0.776849411773579,0.263624045423083,1.50528354476028,-1.9585614615E-5,-9.442358977989E-4,-8.47189073638E-5,408851.006938865,2.3578E-12,952.431518554687,-0.549525558555749,-8.28047646754752,2.4674015018008
4080.0,6424080.56339722,1506250.66802299,-1594804.06816997,140221.112944461,6596725.56493004,-1595165.20657649,-4849.98235562601,1534.40623070603,5708.58555321041,-0.178676857558182,-8.40588246209594,2.03264045201328,6759053.07578956,1.32083765961666,-1.15203352332239,1.55185997180149,-1.07696891935463,-0.769172978983674,0.219646076488048,1.5422657777363,-1.9585614615E-5,-9.412453346549E-4,-8.19708142804E-5,411326.131446147,2.2294E-12,949.94384765625,-0.178676857558182,-8.40588246209594,2.03264045201328
4140.0,6433788.07229376,1779447.35104656,-1249118.57698844,-150876.896396454,6673601.33771419,-1249255.93899203,-4849.57749310353,1027.24873608778,5817.29491191744,0.192008958424821,-8.49295864643141,1.58982811405127,6759053.07578958,1.32521292902947,-1.75913967306817,1.55349084592094,-1.68184774806812,-0.763207749804733,0.175615531413323,1.57862464060114,-1.9585614615E-5,-9.406646712471E-4,-7.92554139437E-5,413768.384026218,2.112E-12,947.772521972656,0.192008958424821,-8.49295864643141,1.58982811405127
4200.0,6416508.84562925,2044562.08086488,-897712.153840008,-441284.210583991,6719914.01632641,-897625.110149041,-4826.97707904782,516.021603134377,5899.24359832039,0.560905655683346,-8.54151969877895,1.14094950349499,6759053.07578957,1.32958819844228,-2.28084148436033,1.54920467198209,-2.20129687070379,-0.758877618601539,0.131485633547234,1.61461363962413,-1.9585614615E-5,-9.424804017139E-4,-7.66473306158E-5,416179.399231692,2.0044E-12,945.907165527343,0.560905655683346,-8.54151969877895,1.14094950349499
4260.0,6372282.36499953,2300633.0800406,-542199.137446545,-729673.282245344,6735488.78822657,-541888.086010805,-4782.33666022399,3.03726657006836,5954.12732361191,0.926411044269356,-8.55154129086973,0.687994366593233,6759053.07578957,1.33396346785509,-2.58253321965854,1.5417033975771,-2.50073019564015,-0.756139509755356,0.0872037908072442,1.65047069550192,-1.9585614615E-5,-9.466473085813E-4,-7.42197863356E-5,418545.091397514,1.9061E-12,944.334045410156,0.926411044269356,-8.55154129086973,0.687994366593233
4320.0,6301260.15917735,2546741.05410495,-184208.54703272,-1014728.76389318,6720289.53562941,-183674.908838713,-4715.90705864209,-509.395126457062,5981.76114001012,1.28695233576136,-8.52315675145418,0.232949790487679,6759053.07578955,1.33833873726791,-2.75525879309951,1.53315198699561,-2.67121134754886,-0.754981133117026,0.0427155146048572,1.68642239160714,-1.9585614615E-5,-9.530894601263E-4,-7.20431577113E-5,420848.551801134,1.8163E-12,943.034851074218,1.28695233576136,-8.52315675145418,0.232949790487679
4380.0,6203704.98387366,2782011.9389264,174623.064654435,-1295153.16846251,6674418.35662137,175376.854214968,-4628.0324555749,-1018.97906734415,5982.0790687294,1.6409911490239,-8.45665340192954,-0.222206818867653,6759053.07578956,1.34271400668071,-2.86490712282604,1.52447172642555,-2.77864870911257,-0.755419388344792,-0.0020318415135292,1.72268805191174,-1.9585614615E-5,-9.617016987172E-4,-7.01836071084E-5,423074.328272054,1.7345E-12,941.996154785156,1.6409911490239,-8.45665340192954,-0.222206818867653
4440.0,6079989.59507822,3005619.437016,532658.723656441,-1569672.4060815,6598114.53198347,533629.227769613,-4519.14818534271,-1523.43980886402,5955.13331743581,1.98702818223033,-8.352468625835,-0.675514400541088,6759053.07578956,1.34708927609353,-2.94163640196037,1.51608716146788,-2.85321938418217,-0.757499402334455,-0.0470854715460065,1.75948376443769,-1.9585614615E-5,-9.723515629372E-4,-6.87018220798E-5,425221.275372278,1.6603E-12,941.215087890625,1.98702818223033,-8.352468625835,-0.675514400541088
4500.0,5930595.12657878,3216787.34334571,888268.08846409,-1837041.1802504,6491752.95185378,889450.886139684,-4389.7782582556,-2020.53324557267,5901.0931082553,2.32360757276622,-8.21118572714782,-1.12503455929936,6759053.07578955,1.35146454550634,-2.99961678404921,1.50824192297487,-2.90911158145622,-0.761294197206109,-0.0924835871022742,1.79702645811153,-1.9585614615E-5,-9.84881572917E-4,-6.76518905494E-5,427287.138066195,1.5933E-12,940.685913085937,2.32360757276622,-8.21118572714782,-1.12503455929936
4560.0,5756109.08254704,3414791.66202749,1239834.42228037,-2096048.22772583,6355842.01712538,1241224.12975871,-4240.53263072568,-2508.05454058784,5820.24313635036,2.64932096919479,-8.03352962499776,-1.56885756298086,6759053.07578957,1.35583981491915,-3.04612447134227,1.50110203199931,-2.95361841051989,-0.766904998242118,-0.138251919159307,1.83553813058747,-1.9585614615E-5,-9.991118009041E-4,-6.70803318901E-5,429251.813124295,1.5332E-12,940.399291992187,2.64932096919479,-8.03352962499776,-1.56885756298086
4620.0,5557222.95625692,3598962.51584116,1585761.46229995,-2345521.3874433,6191021.0310665,1587351.75850617,-4072.10423905347,-2983.84649016145,5712.98167776802,2.96281134125989,-7.82036242475565,-2.00510804030543,6759053.07578956,1.36021508433196,-3.08522924895009,1.49479240041088,-2.99082513702284,-0.774462198845723,-0.184400197736459,1.87525031176885,-1.9585614615E-5,-0.0010148426480119,-6.70252963816E-5,431105.766364756,1.4798E-12,940.341491699218,2.96281134125989,-7.82036242475565,-2.00510804030543
4680.0,5334729.48609182,3768685.85110709,1924480.16549626,-2584332.48475404,5998057.09709786,1926263.82141694,-3885.26581179884,-3445.80761963074,5579.8183637441,3.26277655494788,-7.57267889758858,-2.43195040585564,6759053.07578959,1.36459035374478,-3.11938334483864,1.48941112496869,-3.02319778094554,-0.784126999518219,-0.230918546959826,1.91640883029348,-1.9585614615E-5,-0.001031857752929,-6.75159383128E-5,432831.93192996,1.4328E-12,940.493896484375,3.26277655494788,-7.57267889758858,-2.43195040585564
4740.0,5089519.56002427,3923404.94078294,2254455.31138844,-2811402.01809761,5777841.5389929,2256424.22323509,-3680.86647401259,-3891.90000602054,5421.37163697571,3.54797273995827,-7.29160189264459,-2.84759404108163,6759053.0757896,1.36896562315758,3.13301974336071,1.48503554672122,-3.0523270103237,-0.796093724956746,-0.277773721363598,1.959278923617,-1.9585614615E-5,-0.001049926968161,-6.85719618068E-5,434417.999435222,1.392E-12,940.830078125,3.54797273995827,-7.29160189264459,-2.84759404108163
4800.0,4822578.77973681,4062621.68893373,2574191.94313732,-3025703.63597933,5531385.86001274,2576337.16915085,-3459.82815497056,-4320.15682378215,5238.36590360242,3.81721747657792,-6.97837769815235,-3.25029826143458,6759053.07578966,1.37334089257039,3.1045266241274,1.48172495666674,-3.07930532230259,-0.810592789669688,-0.324905096069931,2.00415068854822,-1.9585614615E-5,-0.0010688093526458,-7.0203333746E-5,435843.414340436,1.3571E-12,941.321411132812,3.81721747657792,-6.97837769815235,-3.25029826143458
4860.0,4534983.69551789,4185897.73988692,2882241.62908934,-3226268.3927719,5259817.25767291,2884553.4298304,-3223.14180945993,-4728.68961089897,5031.62839281169,4.06939282795441,-6.63437136001422,-3.63837710015127,6759053.07578964,1.37771616198321,3.07752958556082,1.47952184379728,-3.10493312844718,-0.827894215306859,-0.372220310863446,2.05134479514464,-1.9585614615E-5,-0.0010882561446316,-7.2410155161E-5,437097.874393171,1.3285E-12,942.023986816406,4.06939282795441,-6.63437136001422,-3.63837710015127
4920.0,4227897.72303791,4292855.39544775,3177208.5275468,-3412188.77241784,4964373.71099495,3179676.40950741,-2971.86346115238,-5115.69525287909,4802.08573416271,4.30344824216337,-6.26106195903254,-4.01020393881871,6759053.07578965,1.38209143139601,3.05140355055459,1.4784524897326,-3.12984042104864,-0.848311482416256,-0.419590459967009,2.10121826244734,-1.9585614615E-5,-0.0011080136937402,-7.51826811458E-5,438172.432069895,1.3067E-12,942.99853515625,4.30344824216337,-6.26106195903254,-4.01020393881871
4980.0,3902566.75310164,4383178.34353073,3457755.23809459,-3582622.46957842,4646398.65724632,3460368.00045791,-2707.11007519714,-5479.46268200923,4550.76026094441,4.51840334630567,-5.86003784083965,-4.36421601368394,6759053.07578967,1.38646670080883,3.02561233651998,1.47852727331191,3.12861959795186,-0.872205295754084,-0.466844722356092,2.15416988918864,-1.9585614615E-5,-0.0011278263444862,-7.85014795503E-5,439041.764582013,1.2922E-12,944.294799804687,4.51840334630567,-5.86003784083965,-4.36421601368394
5040.0,3560314.46551042,4456612.20146794,3722608.42326083,-3736795.91816465,4307335.27534475,3725354.20762737,-2430.05526591093,-5818.37928868749,4278.76604620034,4.7133506521992,-5.43299178598391,-4.69891882477158,6759053.07578964,1.39084197022164,2.9996502253302,1.47974085273998,3.10357092754572,-0.8999865130414,-0.513764353616632,2.21064460316224,-1.9585614615E-5,-0.0011474392738064,-8.23377200442E-5,439658.908882494,1.2853E-12,945.957763671875,4.7133506521992,-5.43299178598391,-4.69891882477158
5100.0,3202537.35826772,4512964.87709491,3970564.18463988,-3874007.55750485,3948720.39332048,3973430.52753006,-2141.92484435918,-6130.93704071482,3987.30467650283,4.88745819009359,-4.98171610154365,-5.01289047227688,6759053.07578963,1.39521723963445,2.97299037216466,1.4820722947018,3.07767504400083,-0.932116976671805,-0.560076029668736,2.27113548331285,-1.9585614615E-5,-0.001166601291368,-8.66535871553E-5,440068.444418618,1.2865E-12,948.031066894531,4.88745819009359,-4.98171610154365,-5.01289047227688
5160.0,2830699.50353811,4552106.75050764,4200493.17786794,-3993630.82666349,3572178.03751363,4203467.06580313,-1843.99220974233,-6415.73830513898,3677.66076718578,5.03997208328436,-4.50809761017183,-5.30478594145681,6759053.07578963,1.39959250904726,2.94502887004578,1.4854851583075,3.05033371399495,-0.969106235719477,-0.605444677116476,2.33618145767128,-1.9585614615E-5,-0.0011850676130206,-9.14028130555E-5,440231.812697057,1.2966E-12,950.558471679687,5.03997208328436,-4.50809761017183,-5.30478594145681
5220.0,2446327.04204165,4573970.67913695,4411345.45102873,-4095116.87763998,3179412.64155487,4414413.37798464,-1537.57358784412,-6671.50136565308,3351.19722158415,5.17021907258386,-4.01411250768857,-5.57334135339227,6759053.07578965,1.40396777846008,2.91501164770728,1.48992748432409,3.02080112859884,-1.01150111367798,-0.649466191873327,2.40635764964786,-1.9585614615E-5,-0.0012026026147132,-9.65313276894E-5,440130.236655273,1.3162E-12,953.584716796875,5.17021907258386,-4.01411250768857,-5.57334135339227
5280.0,2051002.4279465,4578551.82851299,4602154.99119005,-4177996.99835818,2772201.93365193,4605303.0182089,-1224.02311938664,-6897.06562669194,3009.35023591547,5.2776089953734,-3.50182105630576,-5.81737819459197,6759053.07578966,1.40834304787288,2.88192454145279,1.49533155738385,2.98807385542601,-1.05986381885894,-0.691660898807448,2.48225408781299,-1.9585614615E-5,-0.0012189825669251,-1.019780248798E-4,439750.386050494,1.3464E-12,957.155944824218,5.2776089953734,-3.50182105630576,-5.81737819459197
5340.0,1646358.4368186,4565907.33080803,4772043.96385025,-4241884.73652147,2352389.52129725,4775257.78059017,-904.72780098759,-7091.39649329434,2653.62405080518,5.36163721946821,-2.97336207735274,-6.03580753350765,6759053.07578968,1.4127183172857,2.8443105543344,1.50161315178822,2.9507079302752,-1.11473309148109,-0.731469302173084,2.5644372921644,-1.9585614615E-5,-0.0012339983390599,-1.076756429694E-4,439084.923827202,1.3883E-12,961.320190429687,5.36163721946821,-2.97336207735274,-6.03580753350765
5400.0,1234071.94981166,4536155.77295952,4920226.63012152,-4286477.71557328,1921877.19323453,4923491.61811428,-581.102281540769,-7253.58991355647,2285.5854501316,5.42188702733175,-2.43094720503626,-6.22763422668586,6759053.07578969,1.41709358669851,2.79994093567005,1.50866962745673,2.90648972322074,-1.17656246690071,-0.76825263622953,2.6533888356603,-1.9585614615E-5,-0.0012474580505568,-1.135517572139E-4,438130.224024553,1.4434E-12,966.124877929687,5.42188702733175,-2.43094720503626,-6.22763422668586
5460.0,815857.528039303,4489476.51590016,5046012.92651658,-4311559.1341824,1482616.9593824,5049314.22389713,-254.5835172535,-7382.87656814746,1906.85800787271,5.45803194133971,-1.87685486137154,-6.39196111156145,6759053.07578965,1.42146885611132,2.74517745786628,1.5163754096814,2.85179795917242,-1.24563152712509,-0.801301821809652,2.74941677244696,-1.9585614615E-5,-0.0012591896321791,-1.195298785085E-4,436877.484690338,1.5132E-12,971.613525390625,5.45803194133971,-1.87685486137154,-6.39196111156145
5520.0,393460.791964012,4426108.84617242,5148811.69225457,-4316998.94088653,1036602.85041788,5152134.25971861,73.3747107202956,-7478.62568894862,1519.11608399627,5.46983797588201,-1.3134239120195,-6.52799317686753,6759053.07578968,1.42584412552413,2.67363563458546,1.52457116402498,2.78026664108041,-1.32193207394653,-0.829859244803713,2.85254188502999,-1.9585614615E-5,-0.001269043248665,-1.255306492966E-4,435328.405731349,1.5999E-12,977.820922851562,5.46983797588201,-1.3134239120195,-6.52799317686753
5580.0,-31348.3783317469,4346350.96098908,5228133.52908442,-4302754.67579215,585862.499870285,5231462.21682293,401.307411112313,-7540.34848647615,1124.07857116302,5.45716579717442,-0.743046963408533,-6.63504169537633,6759053.07578971,1.43021939493695,2.57314013927604,1.53303638485152,2.67974013994939,-1.40504322939775,-0.853157439916653,2.96237277438641,-1.9585614615E-5,-0.001276893524222,-1.314731229963E-4,433479.918125764,1.7057E-12,984.763488769531,5.45716579717442,-0.743046963408533,-6.63504169537633
5640.0,-456782.804959922,4250558.78763307,5283593.27876133,-4268871.97156268,132448.532867387,5286912.89411425,727.744123604577,-7567.70116341652,723.50239512174,5.41997276680446,-0.168163263252344,-6.71252829727687,6759053.0757897,1.43459466434975,2.41828556299266,1.54141339439337,2.52483359663971,-1.49402643393044,-0.870476115249884,3.07800078097056,-1.9585614615E-5,-0.0012826415065745,-1.372761084541E-4,431342.313168843,1.833E-12,992.431762695312,5.41997276680446,-0.168163263252344,-6.71252829727687
5700.0,-881045.117801242,4139144.63797865,5314912.10352757,-4215484.70634666,-321570.21289747,5318207.47909173,1051.21477831358,-7560.48748941011,319.17577317024,5.3583148403411,0.408748830564127,-6.75998895603321,6759053.07578972,1.43896993376255,2.15318433963703,1.5489772755771,2.25968047041094,-1.58738578185528,-0.881213234265938,-3.0852251142424,-1.9585614615E-5,-0.0012862163043981,-1.428595563114E-4,428910.506094018,1.9847E-12,1000.78332519531,5.3583148403411,0.408748830564127,-6.75998895603321
5760.0,-1302334.98409894,4012575.69887143,5321919.15526477,-4142814.80182097,-774117.606856035,5325175.21718527,1370.25566402545,-7518.66091023167,-87.0887630610401,5.27234828788232,0.985179843746089,-6.77707785215483,6759053.07578973,1.44334520317537,1.68318874063001,1.5540228476219,1.78965414366231,-1.68313725331262,-0.884958119511254,-2.96288799023486,-1.9585614615E-5,-0.0012875763374542,-1.481459602902E-4,426199.601971012,2.1634E-12,1009.7378540039,5.27234828788232,0.985179843746089,-6.77707785215483
5820.0,-1718856.44080842,3871372.35913616,5304552.8194268,-4051171.66016634,-1223119.25712822,5307754.65559478,1683.41549340043,-7442.32616280516,-493.461571983824,5.16233119928694,1.55859766783184,-6.76357107405625,6759053.07578971,1.44772047258818,1.06519768019083,1.55387278487621,1.17167433193609,-1.77900067217757,-0.881548530281101,-2.84042305067699,-1.9585614615E-5,-0.0012867101484579,-1.530617437424E-4,423211.211763647,2.372E-12,1019.18151855468,5.16233119928694,1.55859766783184,-6.76357107405625
5880.0,-2128825.30682473,3716106.37409646,5262861.52044918,-3940951.23456842,-1666511.62341569,5265994.44832373,1989.26155101648,-7331.74036612459,-898.103322435478,5.02862473314062,2.12645655040494,-6.71937010921219,6759053.07578969,1.45209574200099,0.610635332341035,1.5487077154377,0.717185308450539,-1.87267721973163,-0.871094394664465,-2.72009906424686,-1.9585614615E-5,-0.0012836367399293,-1.575386007011E-4,419966.401707242,2.6133E-12,1028.97717285156,5.02862473314062,2.12645655040494,-6.71937010921219
5940.0,-2530476.65052275,3547398.86869656,5197004.07608752,-3812634.72876172,-2102251.17885755,5200053.70985462,2286.38590756683,-7187.31355720272,-1299.17261594488,4.87169406533349,2.68620660526978,-6.64450507325204,6759053.07578966,1.4564710114138,0.355461354841733,1.54126407233399,0.462165746582012,-1.96213269303079,-0.85396029973889,-2.60392058413699,-1.9585614615E-5,-0.0012784054167447,-1.615147613048E-4,416484.378568114,2.8902E-12,1038.97692871093,4.87169406533349,2.68620660526978,-6.64450507325204
6000.0,-2922072.28630784,3365918.18061628,5107249.58908132,-3666786.92221509,-2528323.58661052,5110201.90585893,2573.41168079917,-7009.60864070231,-1694.83379345936,4.69210899058664,3.23530384598432,-6.53913761962172,6759053.07578967,1.46084628082662,0.205579141083555,1.53316893499655,0.312536609385718,-2.04580366025488,-0.830712719861623,-2.49342193603142,-1.9585614615E-5,-0.0012710951341652,-1.649361537838E-4,412792.163006033,3.2057E-12,1049.03698730468,4.69210899058664,3.23530384598432,-6.53913761962172
6060.0,-3301908.27211179,3172377.54517306,4993976.86569004,-3504054.11880828,-2942752.85503465,4996818.27048513,2848.99932092641,-6799.34072098513,-2083.26490553546,4.49054412845732,3.77122073650253,-6.40356346811405,6759053.07578967,1.46522155023942,0.107813666638091,1.52511053594928,0.215138660589605,-2.1226826082166,-0.802048411904348,-2.38958217076922,-1.9585614615E-5,-0.0012618133699252,-1.677574389795E-4,408904.695709472,3.5627E-12,1059.0283203125,4.49054412845732,3.77122073650253,-6.40356346811405
6120.0,-3668322.37801422,2967532.62430831,4857673.35202015,-3325161.71827239,-3343610.43350742,4860390.7411418,3111.85289529696,-6557.37578600244,-2462.66582118497,4.2677786843774,4.2914572420853,-6.23821448707388,6759053.07578966,1.46959681965224,0.0380031207805798,1.51743102981931,0.145823794552146,-2.19229011735028,-0.7687223832531,-2.29285292995195,-1.9585614615E-5,-0.0012506945557171,-1.699428981845E-4,404852.982473297,3.9644E-12,1068.84069824218,4.2677786843774,4.2914572420853,-6.23821448707388
6180.0,-4019701.4944508,2752178.88256213,4698933.58066858,-3130911.41126968,-3729024.20909129,4701514.40330008,3360.7263441396,-6284.72871379959,-2831.26644657539,4.0246957162354,4.79355235221476,-6.04366026156816,6759053.07578966,1.47397208906505,-0.0154969728272309,1.5103417780109,0.0929588958183311,-2.25457546530068,-0.731488523025348,-2.20325780617363,-1.9585614615E-5,-0.0012378981165627,-1.714671604131E-4,400653.93308443,4.4136E-12,1078.38549804687,4.0246957162354,4.79355235221476,-6.04366026156816
6240.0,-4354488.94682242,2527148.81364957,4518457.12205726,-2922178.00076738,-4097187.36258444,4520889.43969087,3594.42967625258,-5982.56057446373,-3187.33502067338,3.76228085798338,5.27509603514052,-5.82060907841395,6759053.07578965,1.47834735847786,-0.0588280250174191,1.50399452108372,0.0504113550846898,-2.30979209765909,-0.691058230090127,-2.12051674128788,-1.9585614615E-5,-0.0012236061750436,-1.723157604565E-4,396357.62185792,4.9134E-12,1087.59204101562,3.76228085798338,5.27509603514052,-5.82060907841395
6300.0,-4671191.68178443,2293309.02205759,4317046.03693155,-2699905.85431454,-4446367.04093413,4319318.58037144,3811.83507065143,-5652.17520314235,-3529.18645076266,3.4816204538152,5.73374157108018,-5.56990825881342,6759053.07578965,1.48272262789067,-0.0955082261817521,1.49850713339686,0.0146690594195312,-2.35838117618095,-0.648076269459205,-2.04416223355071,-1.9585614615E-5,-0.0012080209806656,-1.724855236961E-4,391971.105962336,5.4663E-12,1096.40551757812,3.4816204538152,5.73374157108018,-5.56990825881342
6360.0,-4968387.28910638,2051557.16498066,4095601.82884211,-2465104.99395188,-4774912.80163287,4097704.05248453,4011.88284749388,-5295.01502332432,-3855.19064664223,3.18389905968035,6.16721819820033,-5.29254377057521,6759053.07578966,1.48709789730349,-0.12770426136711,1.49397378281481,-0.0164314338280339,-2.40087919530255,-0.603110035329131,-1.97363134336587,-1.9585614615E-5,-0.0011913621229117,-1.719847771964E-4,387529.251447023,6.0742E-12,1104.7802734375,3.18389905968035,6.16721819820033,-5.29254377057521
6420.0,-5244730.82179272,1802818.76089784,3855121.89802026,-2218846.8327609,-5081264.78359575,3857044.03112534,4193.5872691322,-4912.65610391712,-4163.7808083036,2.87039627331213,6.57334399256258,-4.98963905461066,6759053.07578968,1.49147316671629,-0.156841839725532,1.49046913322208,-0.0443154817590361,-2.4378527939716,-0.556647804755456,-1.90833035081493,-1.9585614615E-5,-0.0011738635805238,-1.708333888068E-4,383061.941866519,6.7381E-12,1112.68017578125,2.87039627331213,6.57334399256258,-4.98963905461066
6480.0,-5498961.37618452,1548043.87215177,3596695.50088287,-1962259.56947401,-5363961.5581783,3598428.59555946,4356.04212997678,-4506.80243876553,-4453.46161808659,2.54248285957642,6.95003889049745,-4.66245300466135,6759053.0757897,1.4958484361291,-0.183923087379491,1.48805007348722,-0.0699877476901491,-2.46985712595171,-0.509102263494842,-1.84767568204383,-1.9585614615E-5,-0.0011557706504932,-1.690626368058E-4,378607.030779342,7.4577E-12,1120.07397460937,2.54248285957642,6.95003889049745,-4.66245300466135
6540.0,-5729908.39305948,1288203.67001051,3321499.22244725,-1696523.25510246,-5621647.61348561,3323035.19808139,4498.4260920623,-4079.27944311938,-4722.81728481953,2.20161614478232,7.29533774966112,-4.3123770450963,6759053.07578966,1.50022370554192,-0.209705184690264,1.48675636897349,-0.0942107816091534,-2.4974119346062,-0.460816662773386,-1.79111693922395,-1.9585614615E-5,-0.0011373367896958,-1.6671491217E-4,374192.770048267,8.2315E-12,1126.93444824218,2.20161614478232,7.29533774966112,-4.3123770450963
6600.0,-5936497.64035191,1024286.89186337,3030791.97217901,-1422864.54816801,-5853080.42498767,3032123.65604775,4620.00772186085,-3632.02666812884,-4970.51938435671,1.84933466159943,7.60740333364518,-3.94093125913108,6759053.07578966,1.50459897495472,-0.234810642982152,1.48661084398194,-0.117615186329509,-2.5209897051145,-0.412071947130541,-1.73814764281957,-1.9585614615E-5,-0.0011188203918003,-1.638432542074E-4,369856.922030367,9.0557E-12,1133.23754882812,1.84933466159943,7.60740333364518,-3.94093125913108
6660.0,-6117756.83806198,757296.201400717,2725909.51720984,-1142551.17781941,-6057137.06573337,2727030.68103526,4720.15018305244,-3167.08974166733,-5195.3344383335,1.48725203533114,7.8845390947691,-3.54975952895232,6759053.07578966,1.50897424436754,-0.259804626118918,1.48761937473614,-0.14077677789338,-2.54101142258562,-0.363093921793857,-1.68830814075284,-1.9585614615E-5,-0.0011004815136273,-1.605107185764E-4,365629.372688843,9.9246E-12,1138.96215820312,1.48725203533114,7.8845390947691,-3.54975952895232
6720.0,-6272820.88624914,488244.463840324,2408258.57041363,-856886.136843023,-6232820.31018613,2409163.96262736,4798.31553970728,-2686.61155157582,-5396.13117096112,1.11705011239199,8.12520162091032,-3.14062365991648,6759053.07578966,1.51334951378035,-0.285260032736409,1.48977081831151,-0.164281460240095,-2.55784673920598,-0.314060006376571,-1.64118386599302,-1.9585614615E-5,-0.0010825785599504,-1.567895752362E-4,361543.527199736,1.083E-11,1144.08935546875,1.11705011239199,8.12520162091032,-3.14062365991648
6780.0,-6400936.65773262,218150.949470342,2079310.45448094,-567201.62930124,-6379264.18691436,2079995.82798708,4854.0686247093,-2192.82269569015,-5571.88738237094,0.740471342795849,8.32801260524099,-2.71539647313208,6759053.07578965,1.51772478319316,-0.311826220467466,1.49303691447671,-0.188793700575741,-2.5718164212501,-0.265105408198699,-1.59640105796286,-1.9585614615E-5,-0.0010653649347372,-1.527603332925E-4,357632.910916984,1.17611E-11,1148.60241699218,0.740471342795849,8.32801260524099,-2.71539647313208
6840.0,-6501467.3182825,-51962.5200458743,1740594.36683973,-274852.800215051,-6495738.93708985,1741056.50208369,4887.08042930564,-1688.03123163918,-5721.69637647339,0.359310440103663,8.49177019283813,-2.27605386417591,6759053.07578967,1.52210005260597,-0.340319233053693,1.49737212250345,-0.215146472123348,-2.58319573430074,-0.216328705622023,-1.55362127672055,-1.9585614615E-5,-0.0010490856704696,-1.485105905856E-4,353925.640979143,1.27047E-11,1152.48706054687,0.359310440103663,8.49177019283813,-2.27605386417591
6900.0,-6573896.13868956,-321075.467031905,1393690.27398518,18788.7226959798,-6581655.33799075,1393926.99715784,4897.13097143515,-1174.61176825205,-5844.77288159358,-0.0245946455983688,8.6154595555947,-1.82466584024,6759053.07578965,1.52647532201879,-0.37186174851035,1.50271325079516,-0.244480888673877,-2.5922179635648,-0.167796908654201,-1.51253550039891,-1.9585614615E-5,-0.0010339740552373,-1.441337086555E-4,350445.599526179,1.36448E-11,1155.73107910156,-0.0245946455983688,8.6154595555947,-1.82466584024
