time,gePosition_m_X,gePosition_m_Y,gePosition_m_Z,eiPosition_m_X,eiPosition_m_Y,eiPosition_m_Z,eiVelocity_m_s_X,eiVelocity_m_s_Y,eiVelocity_m_s_Z,eiAccel_m_s2_X,eiAccel_m_s2_Y,eiAccel_m_s2_Z,semiMajorAxis_m,gast_rad,eulerAngle_rad_Roll,eulerAngle_rad_Pitch,eulerAngle_rad_Yaw,eulerAngleWrtEi_rad_Roll,eulerAngleWrtEi_rad_Pitch,eulerAngleWrtEi_rad_Yaw,bodyAngularRateWrtEi_rad_s_Roll,bodyAngularRateWrtEi_rad_s_Pitch,bodyAngularRateWrtEi_rad_s_Yaw,altitudeMsl_m,airDensity_kg_m3,ambientTemperature_dgK,eiGravitation_m_s2_X,eiGravitation_m_s2_Y,eiGravitation_m_s2_Z
0.0,-1436381.4663574744,4185811.709981752,5163944.671561651,-4315967.74,960356.1999999998,5167269.529999999,129.09103699999832,-7491.513855000002,1452.515654000002,5.469414083491855,-1.2170122767063871,-6.548227058940051,6759053.075789573,1.0233194459853856,0.19689735485747226,1.4818059945046154,0.19765940137336116,-1.3731447582712453,-0.8677374786280413,3.0597725884990914,-1.958561461497245E-5,-0.0011220591098065936,-1.3213713977167085E-19,434989.54081172694,1.6159166507157113E-12,978.0522572877376,5.469414083491855,-1.2170122767063871,-6.548227058940051
60.0,-1794950.035604563,3943126.0298632947,5239239.620398924,-4298383.754970491,509016.7255464293,5242568.014416208,456.87345327461253,-7547.421734026879,1056.4130595804866,5.4525792419892305,-0.6456971247228347,-6.650294426845274,6759053.075823281,1.027694715234372,0.19652941148305084,1.4824157031658631,0.19729302617763764,-1.4529699051416485,-0.8783851846308014,-3.120813545296625,-1.958561461497245E-5,-0.0011030956350097142,-5.03394467320995E-6,433093.86499763327,1.7268595275371565E-12,985.1050726243584,5.4525792419892305,-0.6456971247228347,-6.650294426845274
120.0,-2147547.172627327,3685627.214099747,5290617.599709991,-4261177.841658559,55353.96857218295,5293934.335279837,782.9101130916994,-7568.915714045662,655.0733767057455,5.411226050441415,-0.07029343713486645,-6.72271293263895,6759053.075823526,1.0320699844833425,0.1954198214478523,1.4842400632267712,0.1962017136961641,-1.5334790448202198,-0.883926736986875,-3.0180147765423513,-1.958561461497245E-5,-0.0010843617655940177,-9.985403105122072E-6,430905.28080499155,1.8594904120836148E-12,992.8730189417888,5.411226050441415,-0.07029343713486645,-6.72271293263895
180.0,-2492684.253027655,3414408.9044734286,5317817.999323867,-4204498.849718085,-398561.36303361866,5321107.919295423,1105.7316026619326,-7555.824840266371,250.28944868039886,5.345427379299256,0.506714568951204,-6.765038349794059,6759053.07582338,1.0364452537322815,0.19353119050954806,1.4872597445975313,0.194368095094818,-1.6134126166991758,-0.8845007378646937,-2.916216731954054,-1.958561461497245E-5,-0.0010661099843177742,-1.4790910589722246E-5,428429.87957988,2.016417418293993E-12,1001.3073022223608,5.345427379299256,0.506714568951204,-6.765038349794059
240.0,-2828892.4937111354,3130615.6419104002,5320688.440232868,-4128583.6023501256,-850652.7947560895,5323936.492629891,1423.8758900978182,-7508.128143834895,-156.12277423374317,5.255356685345753,1.0828129650286642,-6.7769452998292286,6759053.0758233415,1.0408205229812044,0.19078083261872072,1.4914393206882977,0.19172879226820855,-1.69159266885377,-0.8803421196094311,-2.8165375564747213,-1.958561461497245E-5,-0.0010485890149446466,-1.9389312184438728E-5,425676.596112821,2.2003118787391837E-12,1010.3226925669846,5.255356685345753,1.0828129650286642,-6.7769452998292286
300.0,-3154729.0436835424,2835438.4188789,5299185.944994885,-4033756.271418726,-1298847.133027279,5302377.251173589,1735.8944057456954,-7425.956170029432,-562.3314767243173,5.141289476401708,1.6554666784909706,-6.758230921022534,6759053.075823226,1.0451957922300796,0.18702317320011363,1.496727599238558,0.18815649624738784,-1.7670094419172917,-0.8717607092322178,-2.719926355333597,-1.958561461497245E-5,-0.0010320408440804918,-2.372281585321171E-5,422657.22305001965,2.4138521596697784E-12,1019.8018848102258,5.141289476401708,1.6554666784909706,-6.758230921022534
360.0,-3468783.080893292,2530110.0527316886,5253377.667424056,-3920427.385261585,-1741083.5887643518,5256497.589806522,2040.358202709488,-7309.591977158356,-966.496434168427,5.003604512481625,2.222128570497101,-6.708818318911365,6759053.075823588,1.049571061478955,0.18201411284813473,1.503058125612022,0.18342402826079887,-1.8388762283840554,-0.8591142666852779,-2.6271080653410177,-1.958561461497245E-5,-0.0010166976813721774,-2.7738036350933187E-5,419386.38670468883,2.659703096591588E-12,1029.6061068664617,5.003604512481625,2.222128570497101,-6.708818318911365
420.0,-3769681.8927033585,2215900.3907892476,5183441.169167947,-3789092.4648853755,-2175322.9441897143,5186475.378263292,2335.8641804288113,-7159.471575181339,-1366.7766675377504,4.842784698800298,2.7802490350126234,-6.628759745328035,6759053.075823623,1.0539463307277828,0.17533846987666596,1.5103498360034049,0.17713150601877675,-1.9066478212680542,-0.8427806539570003,-2.5385647441898858,-1.958561461497245E-5,-0.0010027788749278712,-3.1387012517556466E-5,415881.4833809523,2.9405310411355767E-12,1039.5891367335603,4.842784698800298,2.7802490350126234,-6.628759745328035
480.0,-4056096.9160938356,1894111.3589408903,5089664.231749836,-3640330.285344971,-2599556.7283760714,5092598.77217157,2621.0413514224783,-6976.183772684787,-1761.3382794591005,4.659417623602753,3.32728612085339,-6.518239447810256,6759053.075823711,1.0583215999766105,0.16625223709907053,1.5185077973599865,0.16854835396580004,-1.9700075124188774,-0.8231330924278832,-2.4545483113005586,-1.958561461497245E-5,-9.904878153755166E-4,-3.462817594832414E-5,412162.57582333015,3.2590351628477635E-12,1049.6107194015108,4.659417623602753,3.32728612085339,-6.518239447810256
540.0,-4326749.712242957,1566071.8666134481,4972444.193837382,-3474800.760384821,-3011816.365079228,4975265.5490224585,2894.5571284318034,-6760.46940101687,-2148.3624498012036,4.454195692124636,3.8607161687511242,-6.377576127034611,6759053.075823952,1.0626968692254064,0.15330007312354713,1.52742384739694,0.1562305804165666,-2.028833142098995,-0.8005209431066197,-2.3751142304662163,-1.958561461497245E-5,-9.800088792905357E-4,-3.742724480897924E-5,408252.249935675,3.617965373970895E-12,1059.5461553837595,4.454195692124636,3.8607161687511242,-6.377576127034611
600.0,-4580417.84872433,1233132.5821292368,4832286.804913607,-3293242.4498751797,-3410182.254571001,4834981.960246851,3155.1236062482185,-6513.2198851884905,-2526.0535653127454,4.227915807160064,4.378044944715185,-6.207224936577685,6759053.075824006,1.0670721384741706,0.13322484794990908,1.5369764898667109,0.13693014332435557,-2.0831535608729523,-0.7752568206760138,-2.3001647629089454,-1.958561461497245E-5,-9.715044787041178E-4,-3.9758013536791745E-5,404175.4324861281,4.020100211800543E-12,1069.290827114386,4.227915807160064,4.378044944715185,-6.207224936577685
660.0,-4815940.661233866,896660.5937161287,4669804.588172557,-3096469.691207981,-3792792.7494011624,4672361.092219525,3401.503809536186,-6235.475132611081,-2892.647453819083,3.9814785468373564,4.876819239412575,-6.0077789569748115,6759053.075824247,1.0714474077229348,0.09697562979267238,1.5470271260651804,0.10160279300038098,-2.133104561805198,-0.7476096239996725,-2.2294927200734196,-1.958561461497245E-5,-9.651122959668733E-4,-4.1603007910325486E-5,399959.17111687944,4.468169423614765E-12,1078.7603252908957,3.9814785468373564,4.876819239412575,-6.0077789569748115
720.0,-5032224.8655430395,558033.9727479097,4485714.707352369,-2885369.357626817,-4157852.982343366,4488120.730904464,3632.517875028002,-5928.42071292031,-3246.4196893620415,3.7158867913569447,5.354638891085102,-5.779970074853813,6759053.075824374,1.075822676973096,0.006854790571127377,1.5573912615419425,0.012555070164883159,-2.1788899037099965,-0.7178023921679634,-2.1628200803366355,-1.958561461497245E-5,-9.609427905493665E-4,-4.295397593232344E-5,395632.3786086344,4.964718022318862E-12,1087.8878064198586,3.7158867913569447,5.354638891085102,-5.779970074853813
780.0,-5228249.989311372,218636.25709564745,4280836.334359574,-2660897.248448725,-4503643.503258884,4283080.726997369,3847.049133634801,-5593.384305067111,-3585.693930508892,3.4322437527013996,5.809169176850466,-5.524669198001828,6759053.07582453,1.0801979462217968,-0.6259602065539756,1.5672218339394803,-0.6190339766781773,-2.2207499282739116,-0.6860136938541347,-2.0998289493383084,-1.958561461497245E-5,-9.590770650828173E-4,-4.3812188371911196E-5,391225.54400452017,5.511916530810654E-12,1096.6202397241855,3.4322437527013996,5.809169176850466,-5.524669198001828
840.0,-5403073.592481517,-120149.12600941512,4056087.5169269415,-2424074.118283496,-4828528.680290552,4058159.8608115716,4044.0500553543784,-5231.831391547087,-3908.8502499456877,3.1317503647455722,6.238153504312901,-5.242885738696767,6759053.075824615,1.0845732154704657,-2.642205534120336,1.5619942747439068,-2.63390155067128,-2.2589380970410464,-0.6523813537968657,-2.0401845181077607,-1.958561461497245E-5,-9.595651714492763E-4,-4.4188528597212664E-5,386770.41386542964,6.111325822569056E-12,1104.9147187029548,3.1317503647455722,6.238153504312901,-5.242885738696767
900.0,-5555836.244334545,-456944.4770712256,3812481.548179034,-2175981.3546573287,-5130964.819720505,3814372.208787057,4222.548017435668,-4845.36018411744,-4214.333409491359,2.8157019958155516,6.639426322484071,-4.93576630060621,6759053.075824592,1.0889484847191346,-2.813849161216781,1.5514409478090974,-2.804019262005258,-2.2937045634120135,-0.6170075509965817,-1.9835508816636225,-1.958561461497245E-5,-9.624249242355143E-4,-4.410335914700478E-5,382299.64759453933,6.7636265489667625E-12,1112.7354457040803,2.8157019958155516,6.639426322484071,-4.93576630060621
960.0,-5685766.224813577,-790383.4592603706,3551122.8428426576,-1917756.31588578,-5409507.958041416,3552823.016367254,4381.6508541501935,-4435.695770590428,-4500.6610309143825,2.4854844515789485,7.01092615836042,-4.604592509092572,6759053.07582489,1.0933237539677718,-2.866945102381026,1.5409217682124299,-2.8554473332351806,-2.3252854069180433,-0.5799645795688362,-1.9296010662683272,-1.958561461497245E-5,-9.676412694376011E-4,-4.358616172363368E-5,377846.4514197657,7.468324764615598E-12,1120.0515691077105,2.4854844515789485,7.01092615836042,-4.604592509092572
1020.0,-5792183.917588678,-1119116.7279075428,3273202.3279202026,-1650587.3435924773,-5662821.279340298,3274704.0850709947,4520.552144801061,-4004.683478275874,-4766.431609502182,2.1425692431856,7.350708673413303,-4.2507779309251985,6759053.0758251855,1.0976990232163775,-2.894785012880594,1.5307060035809574,-2.881486112710406,-2.3538961084533616,-0.5413007890485063,-1.8780226595544034,-1.958561461497245E-5,-9.751662327681594E-4,-4.267495712752924E-5,373444.1962371717,8.223448125279973E-12,1126.83580610024,2.1425692431856,7.350708673413303,-4.2507779309251985
1080.0,-5874505.86247825,-1441817.5300251963,2979992.358917751,-1375708.4669140826,-5889682.111027395,2981288.6848630146,4638.536195333021,-3554.281456335693,-5010.332314318386,1.7885081037738788,7.656959623032119,-3.8758640371876685,6759053.075825151,1.1020742924649671,-2.9133892017493923,1.5209548590556161,-2.898166967462086,-2.379728012990913,-0.5010463970134202,-1.828520266979644,-1.958561461497245E-5,-9.849194466379882E-4,-4.141552119679624E-5,369126.0250786291,9.025251001520202E-12,1133.0636778396326,1.7885081037738788,7.656959623032119,-3.8758640371876685
1140.0,-5932248.435323717,-1757187.248226189,2672841.176158011,-1094393.8181337207,-6088988.451294848,2673926.0063666347,4734.98266816957,-3086.5524866340816,-5231.146516583726,1.424926745738972,7.928007591948598,-3.4815151725694986,6759053.075825376,1.1064495617135248,-2.9277539272841246,1.5118087729447194,-2.910499420396585,-2.402946768655032,-0.45921899387447,-1.7808157722151663,-1.958561461497245E-5,-9.967892304505504E-4,-3.986042119207195E-5,364924.45644562546,9.867951382875672E-12,1138.7131596413296,1.424926745738972,7.928007591948598,-3.4815151725694986
1200.0,-5965031.124248333,-2063960.8624429847,2353166.9192815386,-807951.7822164792,-6259764.982495643,2354035.171037853,4809.370814747496,-2603.655040551345,-5427.760985729919,1.053517861417832,8.162336370179647,-3.0695125051777787,6759053.075825375,1.110824830962067,-2.939948836272946,1.503396260904092,-2.9205683935152527,-2.4236919716869414,-0.4158286464926817,-1.7346471340073213,-1.958561461497245E-5,-0.0010106341777382114,-3.806790355642029E-5,360870.99012584006,1.0743526465207882E-11,1143.764560393344,1.053517861417832,8.162336370179647,-3.0695125051777787
1260.0,-5972579.372444584,-2360912.3020656267,2022451.2217024283,-517718.90543990815,-6401168.525936165,2023098.8210849538,4861.28326571038,-2107.8336075650413,-5599.1726914870505,0.6760333809277306,8.358596827364817,-2.6417469433665763,6759053.075825457,1.115200100210593,-2.950996276407243,1.4958346297387788,-2.929413287510638,-2.4420774526233426,-0.37088256447155676,-1.689766240667619,-1.958561461497245E-5,-0.001026285187912178,-3.610066810755425E-5,356995.72236443707,1.1641595888160612E-11,1148.2004604184015,0.6760333809277306,8.358596827364817,-2.6417469433665763
1320.0,-5954726.959222103,-2646859.660517921,1682232.4104984016,-225053.59098407513,-6512492.895374523,1682656.3146336046,4890.409334893665,-1601.408330077328,-5744.495149959564,0.29427601264061315,8.515618138866966,-2.200211019738692,6759053.075825597,1.1195753694590873,-2.9614708037282163,1.4892291483524793,-2.9376272211033627,-2.458191800788989,-0.32438932976614254,-1.645936174440465,-1.958561461497245E-5,-0.001043547871312043,-3.402456531082383E-5,353326.9773585577,1.2549419216842987E-11,1152.0055072409127,0.29427601264061315,8.515618138866966,-2.200211019738692
1380.0,-5911417.893039685,-2920670.24393126,1334098.3409257864,68670.38807605539,-6593173.108858767,1334296.5553501535,4896.54779512749,-1086.763987840985,-5862.964252090246,-0.08990989604900296,8.63241821487922,-1.7469897571745978,6759053.075825625,1.123950638707566,-2.9717329042730922,1.483671904425268,-2.945590451572185,-2.472098844354667,-0.2763627137103635,-1.6029281089029503,-1.958561461497245E-5,-0.0010622052542732326,-3.190725247391293E-5,349890.96198785875,1.3452050985187115E-11,1155.166541258461,-0.08990989604900296,8.63241821487922,-1.7469897571745978
1440.0,-5842707.792616311,-3181265.425460238,979678.8984083903,362070.52548962744,-6642788.921402823,979650.4893962602,4879.609086515014,-566.3383842605039,-5953.943514267228,-0.4746481276198704,8.708213184307374,-1.2842505472794867,6759053.075825819,1.1283259079560126,-2.9820345081757855,1.479240674804071,-2.9535755579330916,-2.4838378884404153,-0.22682512067713495,-1.560517966346101,-1.958561461497245E-5,-0.001082020715625899,-2.9816841911196914E-5,346711.45044970274,1.433269186903371E-11,1157.6734417441273,-0.4746481276198704,8.708213184307374,-1.2842505472794867
1500.0,-5748764.734978432,-3427625.276943131,620638.2043982899,653762.3331110126,-6661067.6444019945,620383.3061390056,4839.616921215404,-42.61019565232309,-6016.928693130196,-0.8580409306241361,8.74242578852045,-0.8142320876917226,6759053.075825897,1.1327011772044275,-2.9925730517160978,1.4759979202648819,-2.961801146471277,-2.4934235715172606,-0.17581070773917595,-1.5184828912069248,-1.958561461497245E-5,-0.0011027410961263549,-2.7820569956838834E-5,343809.5050450376,1.5173213186041267E-11,1159.5196570765772,-0.8580409306241361,8.74242578852045,-0.8142320876917226
1560.0,-5629869.552427905,-3658792.950063773,258666.56588714622,942366.1695549733,-6647886.221612751,258186.3824228573,4776.709252864995,481.9136469291677,-6051.551709908475,-1.2381798488593314,8.734692546314232,-0.33923244094897725,6759053.075825736,1.1370764464528427,-3.0035231949742887,1.47398994785155,-2.9704631915634137,-2.500845237371275,-0.12336823716517399,-1.4765975436321448,-1.958561461497245E-5,-0.0011240999359085134,-2.598351087820466E-5,341203.2387527312,1.595483890098077E-11,1160.7023872147697,-1.2381798488593314,8.734692546314232,-0.33923244094897725
1620.0,-5486415.563886452,-3873878.7799267815,-104527.78849663054,1226514.1072666068,-6603272.535941477,-105230.98663178734,4691.1385835734445,1004.7109656363438,-6057.583833868044,-1.6131569578476725,8.684869560658864,0.13840370629291407,6759053.075825934,1.1414517157012258,-3.015058930664991,1.4732462580190369,-2.979756753683793,-2.506065741889087,-0.06956372496962002,-1.4346301790860978,-1.958561461497245E-5,-0.0011458208098627833,-2.4367354960407112E-5,338907.6244451871,1.6658954479693182E-11,1161.2225250385743,-1.6131569578476725,8.684869560658864,0.13840370629291407
1680.0,-5318907.729860386,-4072064.0850250553,-467227.1399971768,1504856.7975835637,-6527405.926172304,-468150.0244651269,4583.271586889617,1523.257648465066,-6034.9380796426485,-1.9810764125628146,8.593036849969522,0.6162984893298911,6759053.075825982,1.1458269849495775,-3.027372738147271,1.4737790810190614,-2.989894735882053,-2.5090196257232904,-0.014482955226462752,-1.3923384524309717,-1.958561461497245E-5,-0.0011676207445578415,-2.3029265908975122E-5,336934.3546545821,1.7267992667137963E-11,1161.0844329198935,-1.9810764125628146,8.593036849969522,0.6162984893298911
1740.0,-5127961.224332161,-4252604.638968461,-827712.8305054758,1776070.2922503748,-6420616.898073943,-828851.029176323,4453.588031176211,2035.0411749045807,-5983.670779333628,-2.340066201172726,8.45950110162828,1.0920549077622432,6759053.075825713,1.1502022541979289,-3.040696393193943,1.4755830979362057,-3.0011282974202653,-2.5096105901722128,0.04176606255902039,-1.3494648666754017,-1.958561461497245E-5,-0.001189213710771968,-2.2020829681196134E-5,335291.75472419424,1.7766331391875606E-11,1160.295628540459,-2.340066201172726,8.45950110162828,1.0920549077622432
1800.0,-4914299.421176531,-4414833.79103785,-1184273.8821155955,2038862.779105084,-6283386.019996886,-1185621.9983680956,4302.678994385254,2537.574257302638,-5903.982297208078,-2.6882899918974683,8.28479676312512,1.5632713417748618,6759053.075825773,1.154577523446217,-3.055328128697253,1.478635331598944,-3.0137736284576877,-2.5077082195557714,0.09905060624410326,-1.3057317784256628,-1.958561461497245E-5,-0.0012103141911956664,-2.1387105115287196E-5,333984.7509956208,1.814113073880056E-11,1158.866452880322,-2.6882899918974683,8.28479676312512,1.5632713417748618
1860.0,-4678751.297174753,-4558165.214629264,-1535215.6332772826,2291981.1893255995,-6116341.999052134,-1536767.2705189192,4131.244368188012,3028.4084961581293,-5796.21686252569,-3.0239589541568463,8.069685406171018,2.027556408309026,6759053.075825879,1.1589527926945367,-3.071672840263058,1.4828951761258042,-3.02825178878544,-2.5031439059608056,0.15721062532164948,-1.2608358777272615,-1.958561461497245E-5,-0.0012306408223592173,-2.11657862476367E-5,333014.89443773497,1.8383036244225477E-11,1156.8097879021911,-3.0239589541568463,8.069685406171018,2.027556408309026
1920.0,-4422248.258289356,-4682095.264950718,-1878868.3381395556,2534217.633715986,-5920258.940174618,-1880616.1294442627,3940.089656670136,3505.1479443255057,-5660.861504372258,-3.3453434312129033,7.815153321126422,2.482544013413838,6759053.0758258095,1.163328061942793,-3.0903069950321784,1.4883045020523895,-3.045153278042418,-2.4957059618936093,0.21605588366204503,-1.2144420875430222,-1.958561461497245E-5,-0.0012499201030499497,-2.1386486738084433E-5,332380.4388524036,1.8486685382855885E-11,1154.1408803210168,-3.3453434312129033,7.815153321126422,2.482544013413838
1980.0,-4145820.4005246474,-4786204.929879759,-2213595.6749744946,2764415.62604912,-5696052.796736522,-2215531.3177030333,3730.122082238375,3965.462473256493,-5498.544081228697,-3.650784339672459,7.522407322662019,2.9259084496943166,6759053.075825955,1.1677033311910492,-3.1120910010552687,1.4947877065719026,-3.0653501035436364,-2.48513396961937,0.275362732092461,-1.166176892355158,-1.958561461497245E-5,-0.001267890148973655,-2.207015792880152E-5,332076.47153593233,1.8450972171949873E-11,1150.8773114985026,-3.650784339672459,7.522407322662019,2.9259084496943166
2040.0,-3850592.2213435136,-4870161.360692222,-2537803.109410439,2981476.0524644232,-5444777.027807636,-2539917.4046459384,3502.3460188618415,4407.100833994884,-5310.030407229724,-3.938704171612489,7.192868772230962,3.3553793829606806,6759053.075825967,1.1720786004407024,-3.1383774632448196,1.5022514241661031,-3.090203779947682,-2.471112539140987,0.33487036851156293,-1.1156212314437204,-1.958561461497245E-5,-0.0012843044565346564,-2.3228653200813787E-5,332095.0930791642,1.8279048898430115E-11,1147.0391336934254,-3.938704171612489,7.192868772230962,3.3553793829606806
2100.0,-3537777.8021546286,-4933718.972403866,-2849946.0586012783,3184362.8473496046,-5167617.483574673,-2852228.9552007834,3257.8577801560295,4827.90330673093,-5096.220486496345,-4.207617477783521,6.828165848149444,3.7687565701037316,6759053.075825947,1.176453869688895,3.1117575153114436,1.5105832271924098,-3.121981734005627,-2.453264871456298,0.39427643860854267,-1.062303320944611,-1.958561461497245E-5,-0.0012989356193956927,-2.4864451888282095E-5,332425.6418939733,1.797807053733865E-11,1142.6491719486407,-4.207617477783521,6.828165848149444,3.7687565701037316
2160.0,-3208675.48695993,-4976720.106523364,-3148537.8034253498,3372108.338002002,-4865886.546727697,-3150978.4464578265,2997.8397969723096,5225.813835326903,-4858.143876395653,-4.456140715342338,6.430124119309049,4.16392415100945,6759053.075825952,1.180829138937088,3.067858762245845,1.5196475685163187,3.118413805355683,-2.4311469131585244,0.4532318485871204,-1.0056921624692543,-1.958561461497245E-5,-0.0013115789224394552,-2.697055554572372E-5,333054.9580844743,1.7558712514337643E-11,1137.7334709815489,-4.456140715342338,6.430124119309049,4.16392415100945
2220.0,-2864662.0862557567,-4999095.252508884,-3432157.0973379654,3543818.2226504786,-4541016.5637268005,-3434743.880650296,2723.5542259420813,5598.891547330477,-4596.954209915349,-4.68300135077541,6.000755503176246,4.538864361000648,6759053.075825956,1.1852044081852489,3.004946329962764,1.5292737512723116,3.0564471111514946,-2.4042435329434015,0.5113347277927601,-0.945193144787234,-1.958561461497245E-5,-0.0013220557215858008,-2.953056745608878E-5,333967.68048072077,1.7034512478935008E-11,1132.3218488820203,-4.68300135077541,6.000755503176246,4.538864361000648
2280.0,-2507186.6394916917,-5000862.827392899,-3699455.422583778,3698676.149097299,-4194552.605666967,-3702176.045209287,2436.336036717119,5945.321565544253,-4313.922916371601,-4.887046117996391,5.54224571222852,4.891670516840195,6759053.075825877,1.1895796774333782,2.9042758566259255,1.5392173004904481,2.9565624067067335,-2.3719691647334997,0.5681236367462731,-0.8801481631449711,-1.958561461497245E-5,-0.0013302165071812284,-3.2518962737993916E-5,335146.57002493634,1.642109917869954E-11,1126.4485041383061,-4.887046117996391,5.54224571222852,4.891670516840195
2340.0,-2137763.772893146,-4982128.51657416,-3949163.847085654,3835947.864277565,-3828144.6038971283,-3952005.3731848337,2137.585631318895,6263.425024132174,-4010.4321882189643,-5.067248342821727,5.0569403147591965,5.220559138611994,6759053.075825675,1.1939549466814758,2.7138718948312093,1.5490101859720098,2.7667906064712766,-2.3336768559717007,0.6230704325013303,-0.8098441781290043,-1.958561461497245E-5,-0.0013359435454326155,-3.5901551319088324E-5,336572.85227278026,1.573537528822894E-11,1120.1526077881695,-5.067248342821727,5.0569403147591965,5.220559138611994
2400.0,-1757966.6927723878,-4943084.182125579,-4180099.4384320127,3954984.908390881,-3443538.9105306366,-4183048.360432695,1828.7610539609657,6551.6682103974335,-3687.9672496506614,-5.222714257919803,4.547329555562624,5.52388108163186,6759053.07582568,1.1983302159295892,2.2626864507920903,1.5572088256977885,2.3160930434293836,-2.288681646844931,0.6755737736641044,-0.7335361261907124,-1.958561461497245E-5,-0.0013391529978667952,-3.963612969576389E-5,338226.5715399258,1.499471660519016E-11,1113.478795330239,-5.222714257919803,4.547329555562624,5.52388108163186
2460.0,-1369419.8572878195,-4884006.348302392,-4391171.1949399095,4055227.830889863,-3042569.3384435233,-4394213.499524333,1511.369853838091,6808.670762621413,-3348.107989815127,-5.352688246598661,4.016032098934967,5.80013156666163,6759053.075825784,1.2027054851776549,1.349877959106842,1.5588312446561874,1.4036402602764582,-2.2363063870731184,0.7249551788802042,-0.6504922773162378,-1.958561461497245E-5,-0.0013397964332944954,-4.3673310319406754E-5,340086.9491871893,1.4216239094115173E-11,1106.4774503450928,-5.352688246598661,4.016032098934967,5.80013156666163
2520.0,-973791.3719985676,-4805254.277149997,-4581385.457732037,4136208.9094618605,-2627147.739233563,-4584506.6943013705,1186.9606666204522,7033.21286453057,-2992.5200297045985,-5.456556969108597,3.465777870310198,6.047959012778639,6759053.075825701,1.207080754425705,0.7382999352595959,1.5520054622374655,0.792300417808495,-2.175959453096269,0.7704609001859286,-0.5600714935403955,-1.958561461497245E-5,-0.0013378616693517974,-4.79575102993127E-5,342132.7386893455,1.341617038325964E-11,1099.2046430310593,-5.456556969108597,3.465777870310198,6.047959012778639
2580.0,-572785.1564430349,-4707267.650171058,-4749850.772065869,4197554.357158302,-2199254.1808534376,-4753036.1232987875,857.1145826932586,7224.241387871987,-2622.9452969881686,-5.533852341151519,2.8993901834167666,6.266172594915791,6759053.075825723,1.211456023673723,0.49065694325423004,1.5424414323486806,0.5447949636715244,-2.10725208557514,0.8112744819878144,-0.4618401006802123,-1.958561461497245E-5,-0.0013333729094476947,-5.242807461269731E-5,344342.5704510886,1.2609346404004769E-11,1091.7215583880427,-5.533852341151519,2.8993901834167666,6.266172594915791
2640.0,-168132.930354378,-4590563.874867271,-4895782.17073634,4238986.006953389,-1760926.7892023153,-4899016.524847489,523.4363715092856,7380.874946019683,-2241.1921871786444,-5.584253350623089,2.319767346878414,6.453748466912144,6759053.075825743,1.2158312929217412,0.36787824907120736,1.5324190845257437,0.4220719393702971,-2.0301545103453758,0.8465461076423659,-0.35572753013088604,-1.958561461497245E-5,-0.001326390173110492,-5.702050382834754E-5,346695.2798058229,1.1808839721777339E-11,1084.093239227195,-5.584253350623089,2.319767346878414,6.453748466912144
2700.0,238413.93102633496,-4455735.037591032,-5018504.857169039,4260322.467190512,-1314251.3198326214,-5021772.881465563,187.5456317725896,7502.407833291564,-1849.125392492037,-5.607586714903485,1.7298639475987392,6.609834610462984,6759053.075825789,1.2202065621697118,0.2937067054739196,1.5225767905829413,0.3478944795131706,-1.9451709611889183,0.8754442861161479,-0.24220084375365153,-1.958561461497245E-5,-0.0013170080500904326,-6.166775299892595E-5,349170.2122322316,1.1025716036139521E-11,1076.3865121591857,-5.607586714903485,1.7298639475987392,6.609834610462984
2760.0,645092.6227445492,-4303444.526489823,-5117457.270757767,4261479.745545314,-861350.5270930552,-5120743.486087714,-148.93206344805097,7588.312836506908,-1448.6554815367556,-5.603826396891528,1.1326720080615635,6.733754290172432,6759053.075825582,1.2245818314176822,0.2424957331658892,1.5132023931870215,0.2966373777294031,-1.8534854226314266,0.8972311178992902,-0.12240995550109553,-1.958561461497245E-5,-0.0013053538379172748,-6.630156714856237E-5,351747.50052797445,1.0268910519699959E-11,1068.6671007003279,-5.603826396891528,1.1326720080615635,6.733754290172432
2820.0,1050137.1674322302,-4134423.350373094,-5192193.522009584,4242471.343237865,-404373.3984830214,-5195482.37769468,-484.37395912670206,7638.2429170495,-1041.7283135690561,-5.573092013102117,0.531202210944512,6.825008114549707,6759053.075825386,1.228957100665621,0.2036674747831768,1.5044814045057047,0.2577448058688116,-1.7570057412503022,0.9113531365766113,0.0017688056418886263,-1.958561461497245E-5,-0.001291585146119494,-7.085381970094E-5,354408.3094634593,9.545215462575589E-12,1060.9961771227695,-5.573092013102117,0.531202210944512,6.825008114549707
2880.0,1451786.6551892187,-3949466.1810558103,-5242385.190070154,4203407.825209572,54515.678245883246,-5245661.138917407,-817.1687830869092,7652.031773107363,-630.3143704847752,-5.515646181202847,-0.07153462262910286,6.883274721817275,6759053.0758252675,1.2333323699135281,0.17212107863268386,1.4965559670594029,0.22613815389454425,-1.6582399322657735,0.9175278602449858,0.12785696789432163,-1.958561461497245E-5,-0.0012758870659593195,-7.525782301995056E-5,357135.04427808843,8.859372078918787E-12,1053.4269139026921,-5.515646181202847,-0.07153462262910286,6.883274721817275
2940.0,1848293.4182832434,-3749427.148123519,-5267822.480144452,4144495.875796584,513147.748615832,-5271070.053135858,-1145.7252213165498,7629.693302651567,-216.39808803927002,-5.431890867079693,-0.6725456250172055,6.908410127410929,6759053.075825344,1.2377076391614352,0.1450931598913197,1.4895424468726701,0.19907604873028986,-1.559994810121233,0.9157989292734384,0.2530758979590857,-1.958561461497245E-5,-0.0012584690113081735,-7.94495845108881E-5,359911.5202564394,8.214257760425748E-12,1046.0018212723294,-5.431890867079693,-0.6725456250172055,6.908410127410929
3000.0,2237931.0944980285,-3535215.416105221,-5268414.743138426,4066036.8530286057,969360.0604944252,-5271618.6234058095,-1468.4801458481584,7571.4199979121895,198.03273493249483,-5.322362802663979,-1.2688733808501294,6.900445786699407,6759053.075825162,1.2420829084093103,0.1209425227905672,1.4835374092664528,0.17493864585892424,-1.4649743513905946,0.906538210070607,0.3747490847667746,-1.958561461497245E-5,-0.001239561334254547,-8.336898684691165E-5,362723.09150891926,7.611152341848298E-12,1038.751612140974,-5.322362802663979,-1.2688733808501294,6.900445786699407
3060.0,2619002.5349496608,-3307790.5747361067,-5244190.364464403,3968424.8580243154,1421006.7057608322,-5247335.460166855,-1783.9065418266807,7477.580311466532,610.9973741936441,-5.187728055148684,-1.8576126845702543,6.859585441422844,6759053.075825244,1.246458177657154,0.0986144454461419,1.4786197223209414,0.15269150500251902,-1.3754127592213137,0.8903919429965708,0.49066975722851486,-1.958561461497245E-5,-0.0012194118092824276,-8.696087617836265E-5,365556.73796358483,7.050054816381801E-12,1031.695937752465,-5.187728055148684,-1.8576126845702543,6.859585441422844
3120.0,2989847.5145378117,-3068157.8733434957,-5195296.03332557,3852144.3390083015,1865969.0742784794,-5198367.5490598595,-2090.5210854603147,7348.715042431421,1020.532394090221,-5.028775835744009,-2.435926425693835,6.786200831394051,6759053.075825241,1.2508334469049975,0.07737860190160084,1.4748512414767119,0.13162313324306296,-1.2928567263455928,0.8681891094523334,0.5993193385152225,-1.958561461497245E-5,-0.0011982820642649655,-9.017604702187776E-5,368401.1104391955,6.530012398686176E-12,1024.8457360376487,-5.028775835744009,-2.435926425693835,6.786200831394051
3180.0,3348850.2058433658,-2817363.3304058397,-5121995.407875038,3717767.252209704,2302166.0630212645,-5124978.914264513,-2386.8913300146987,7185.532798570448,1424.7015724841488,-4.846411641701937,-3.001060489283163,6.680826363943535,6759053.075825324,1.2552087161527934,0.056688608528800984,1.472276971749331,0.11120419038384448,-1.2181306221320551,0.8408404400665647,0.699903009531132,-1.958561461497245E-5,-0.0011764440174680904,-9.297211640272378E-5,371246.53449844394,6.04942410252051E-12,1018.2064461404818,-4.846411641701937,-3.001060489283163,6.680826363943535
3240.0,3694446.380178625,-2556488.7490344876,-5024667.195391151,3565949.8043016447,2727563.986739471,-5027548.696515804,-2671.6424627550905,6988.904596291589,1821.6054770967266,-4.64164982896675,-3.55035757858194,6.54415284229575,6759053.075825296,1.2595839854005895,0.03609942004666248,1.4709250688648707,0.09100458813511507,-1.151440676355865,0.8092520825650943,0.7922463054699688,-1.958561461497245E-5,-0.0011541763598246896,-9.531428240242042E-5,374084.97456260957,5.606292250687049E-12,1011.7812112083167,-4.64164982896675,-3.55035757858194,6.54415284229575
3300.0,4025130.3025912996,-2286646.6685259277,-4903802.669996663,3397428.803090633,3140186.1404257403,-4906568.668345943,-2943.463601641086,6759.857665499929,2209.3906400003075,-4.4156057145083185,-4.08126988670668,6.377020360475777,6759053.075825252,1.2639592546483536,0.015212889917077498,1.470806831799114,0.07063880273851014,-1.0925433614115618,0.7742656353097767,0.8766275386602732,-1.958561461497245E-5,-0.0011317611033611753,-9.717596342322401E-5,376909.96049951564,5.198411811065252E-12,1005.5734115603796,-4.4156057145083185,-4.08126988670668,6.377020360475777
3360.0,4339461.290852605,-2008975.2812615081,-4760002.653444912,3213017.6448577354,3538121.9679791243,-4762640.212095268,-3201.113606528106,6499.56853005506,2586.2582835866265,-4.16948730726146,-4.59137056425505,6.1804104764770145,6759053.075825072,1.268334523896086,-0.006364099455961335,1.471916747082008,0.04972380976720436,-1.040915571715014,0.7366248619548713,0.9536084423105513,-1.958561461497245E-5,-0.0011094802018966226,-9.853931431587065E-5,379716.4795603546,4.8235016026406266E-12,999.5882425156956,-4.16948730726146,-4.59137056425505,6.1804104764770145
3420.0,4636069.91178082,-1724633.3431148948,-4593973.98709526,3013601.9680908103,3919535.795793678,-4596470.788835953,-3443.4263855176832,6209.355437181623,2950.472558112658,-3.9045867647342156,-5.078363949255566,5.955437777320793,6759053.075824965,1.2727097931452471,-0.029058814999881843,1.4742325968555887,0.027839764598801584,-0.9958930478517659,0.6969632050572322,1.023896579644728,-1.958561461497245E-5,-0.0010876122404738597,-9.93956143171436E-5,382500.83713853353,4.479289140129151E-12,993.8333707257223,-3.9045867647342156,-5.078363949255566,5.955437777320793
3480.0,4913663.79162568,-1434795.1041462237,-4406525.525385953,2800135.004335858,4282675.094448435,-4408869.928539204,-3669.315682825358,5890.670210627778,3300.3682577458126,-3.622271668930994,-5.540094544668694,5.703340949425831,6759053.075824931,1.2770850623929477,-0.05337758776156559,1.4777156075552116,0.004485000804994191,-0.9567679826019144,0.6558048006606325,1.0882485724995,-1.958561461497245E-5,-0.0010664291862292246,-9.974551995506105E-5,385260.4903419722,4.163562498538751E-12,988.3188782260654,-3.622271668930994,-5.540094544668694,5.703340949425831
3540.0,5171033.0205289535,-1140645.2849808582,-4198563.682894702,2573632.657548267,4625878.236178482,-4200744.773599494,-3877.7793400193677,5545.089602717337,3634.3579887799824,-3.323976210432549,-5.974554746310598,5.42547346552767,6759053.075824919,1.2814603316406326,-0.07996664100049145,1.4823105757421313,-0.02098483139247075,-0.9228503039928555,0.6135728719195535,1.1474096453242657,-1.958561461497245E-5,-0.0010461931956399662,-9.959917424111425E-5,387993.85880952096,3.874200587251285E-12,983.0567474715313,-3.323976210432549,-5.974554746310598,5.42547346552767
3600.0,5407055.134458857,-843374.1223679648,-3971087.56845884,2335168.34365468,4947581.720301514,-3973095.2092112717,-4067.9030276362287,5174.306219773536,3950.9387702581653,-3.0111923634875373,-6.379891340333084,5.123293995439276,6759053.07582485,1.2858356008883016,-0.10970481816677781,1.4879458412245337,-0.04944947542313703,-0.8935017958445309,0.5706012963903287,1.2020803160563795,-1.958561461497245E-5,-0.0010271534806965562,-9.897616215290911E-5,390700.1175543096,3.609190054971087E-12,978.0601077042354,-3.0111923634875373,-6.379891340333084,5.123293995439276
3660.0,5620699.661110949,-544172.5058561066,-3725183.740821286,2085867.6220747267,5246326.843198021,-3727008.615088237,-4238.863448948552,4780.119093797148,4248.698053516024,-2.685461128021056,-6.754410804022235,4.798356642433413,6759053.075824747,1.2902108701359387,-0.1438574829811615,1.4945328464599181,-0.08217790284789002,-0.8681520478709652,0.5271468471937023,1.2529012357877258,-1.958561461497245E-5,-0.0010095432483087157,-9.790530214243686E-5,393378.9768789046,3.366634128931666E-12,973.3424023513016,-2.685461128021056,-6.754410804022235,4.798356642433413
3720.0,5811032.219384626,-244227.22551142485,-3462020.620898562,1826902.6507087818,5520765.793748755,-3463654.27364525,-4389.931021986377,4364.423970861238,4526.319153070276,-2.3483639067537485,-7.096583456513326,4.452301100196098,6759053.07582461,1.29458613938356,-0.18435056148241383,1.5019647347314928,-0.12110224582517577,-0.8463032693749087,0.48340081861264406,1.3004491405565026,-1.958561461497245E-5,-9.935767414780375E-4,-9.642426460000958E-5,396030.45457479346,3.1447565416215737E-12,968.9165778134404,-2.3483639067537485,-7.096583456513326,4.452301100196098
3780.0,5977218.164920083,55283.65127523102,-3182842.596057859,1559486.4954173092,5769667.1592692705,-3184277.47005344,-4520.472049758104,3929.2033835522025,4782.586086737952,-2.001514077382474,-7.405046516929659,4.086842817384147,6759053.075824417,1.2989614086311496,-0.234293138954005,1.510112758984628,-0.16934024490028673,-0.827528843568938,0.43949949594927534,1.3452390404512664,-1.958561461497245E-5,-9.79446425467988E-4,-9.457901110360286E-5,398654.645693325,2.9419023200516646E-12,964.7943477856904,-2.001514077382474,-7.405046516929659,4.086842817384147
3840.0,6118525.77689089,353195.2577991009,-2888963.8517621686,1284867.3243162162,5991920.830912844,-2890193.3195507433,-4629.950391961395,3476.5165710569563,5016.3878278374,-1.6465488112020221,-7.678606136401425,3.703763248071452,6759053.075824317,1.3033366778787392,-0.29905057656505507,1.518817503765218,-0.23226818164490196,-0.8114687443598984,0.39553334538827023,1.3877295326960613,-1.958561461497245E-5,-9.673203753031444E-4,-9.242305291521728E-5,401251.49514785,2.7565364192441678E-12,960.9855559051093,-1.6465488112020221,-7.678606136401425,3.703763248071452
3900.0,6234328.983746882,648360.2467209935,-2581761.9656394166,1004322.5163283765,6186542.301203563,-2582780.3570864494,-4717.928654292089,3008.4893062924743,5226.721976740464,-1.2851211808418026,-7.916238477372727,3.304900257029288,6759053.075824071,1.307711947126297,-0.3886348063640689,1.5278668269398163,-0.31991095953521587,-0.7978236914703478,0.3515550046936293,1.4283293789693245,-1.958561461497245E-5,-9.573399304986829E-4,-9.001653334164182E-5,403820.57828494307,2.587240765467121E-12,957.4976404776287,-1.2851211808418026,-7.916238477372727,3.304900257029288
3960.0,6324109.627882954,939652.937171242,-2262671.2984769186,719152.7123933006,6352676.349791331,-2263473.923823044,-4784.068913763713,2527.303684906909,5412.697862892465,-0.9188925911356356,-8.117089918606009,2.892138739083587,6759053.075823992,1.312087216373823,-0.5234628088788701,1.536936071350542,-0.45270034195879927,-0.7863491043394599,0.30758623906790733,1.467404311399818,-1.958561461497245E-5,-9.496176873908623E-4,-8.742514582592002E-5,406360.89434433763,2.432710074574818E-12,954.3351947009961,-0.9188925911356356,-8.117089918606009,2.892138739083587
4020.0,6387459.271258469,1225973.2798908514,-1933176.2158751187,430675.83657609473,6489600.116665882,-1933759.3842505256,-4828.1330002321865,2035.1879261764868,5573.539091674716,-0.5495255587002231,-8.280476467413203,2.467401501951484,6759053.0758238565,1.3164624856213492,-0.7483714207981785,1.5454098886996228,-0.6754894992366034,-0.7768494117801873,0.2636240454462469,1.505283544739073,-1.958561461497245E-5,-9.442358977958881E-4,-8.471890735977916E-5,408870.6774146876,2.2917467198410247E-12,951.4996109192413,-0.5495255587002231,-8.280476467413203,2.467401501951484
4080.0,6424080.545809295,1506250.6317974378,-1594804.1733505125,140221.11306413097,6596725.564920984,-1595165.2067233734,-4849.9823556139345,1534.4062308805742,5708.58555315727,-0.17867685770844632,-8.405882461979694,2.0326404521751287,6759053.075823867,1.3208377548688435,-1.1520335234973271,1.5518599718027681,-1.076968919529014,-0.7691729789892913,0.21964607651168622,1.5422657777155384,-1.958561461497245E-5,-9.412453346527468E-4,-8.197081427629463E-5,411347.2290942006,2.163254879689079E-12,948.9887956042605,-0.17867685770844632,-8.405882461979694,2.0326404521751287
4140.0,6433788.054079962,1779447.333044778,-1249118.6965896746,-150876.89627657912,6673601.337715765,-1249255.9391415133,-4849.577493100584,1027.248736267652,5817.2949118745055,0.1920089582700291,-8.49295864633445,1.5898281142229747,6759053.075823662,1.325213024116306,-1.75913967326752,1.5534908459205248,-1.6818477482670307,-0.763207749809263,0.17561553143758707,1.5786246405808875,-1.958561461497245E-5,-9.406646712456779E-4,-7.925541393961544E-5,413786.7765865464,2.0462341662395796E-12,946.7969412983052,0.1920089582700291,-8.49295864633445,1.5898281142229747
4200.0,6416508.826861151,2044562.081221841,-897712.2873611632,-441284.21046446083,6719914.016338993,-897625.1103004745,-4826.977079054233,516.0216033184021,5899.243598288238,0.560905655525302,-8.54151969870184,1.14094950367504,6759053.07582382,1.3295882933637686,-2.280841484496738,1.5492046719802655,-2.201296870839892,-0.7588776186050177,0.13148563357202536,1.6146136396042448,-1.958561461497245E-5,-9.424804017133036E-4,-7.66473306118261E-5,416184.3594143089,1.93977290538324E-12,944.9143415744506,0.560905655525302,-8.54151969870184,1.14094950367504
4260.0,6372282.3457578765,2300633.0987896365,-542199.2843206532,-729673.2821267305,6735488.788250351,-541888.086163526,-4782.336660239836,3.037266757037202,5954.12732359087,0.9264110441093494,-8.551541290813066,0.6879943667801444,6759053.075823868,1.3339635626111994,-2.5825332197492465,1.541703397574843,-2.500730195730634,-0.7561395097578415,0.08720379083258188,1.6504706954825505,-1.958561461497245E-5,-9.466473085814722E-4,-7.421978633178136E-5,418533.74732525717,1.843041201790387E-12,943.3272344066072,0.9264110441093494,-8.551541290813066,0.6879943667801444
4320.0,6301260.13955153,2546741.0911771227,-184208.70662910413,-1014728.7637760427,6720289.535664462,-183674.9089920553,-4715.907058667412,-509.3951262683871,5981.7611400005335,1.286952335600702,-8.523156751418513,0.23294979067996818,6759053.075823852,1.3383388318585985,-2.7552587931628163,1.533151986993164,-2.6712113476120867,-0.754981133118498,0.04271551463048447,1.6864223915880552,-1.958561461497245E-5,-9.530894601271414E-4,-7.204315770775243E-5,420827.39131727064,1.7552846435072005E-12,942.0177470792394,1.286952335600702,-8.523156751418513,0.23294979067996818
4380.0,6203704.963961347,2782011.9941506796,174622.89302741102,-1295153.1683473992,6674418.356667889,175376.85406169915,-4628.032455609637,-1018.979067155005,5982.079068731438,1.6409911488637374,-8.456653401914727,-0.22220681867152065,6759053.075824069,1.3427141011059978,-2.864907122882535,1.524471726423524,-2.7786487091693783,-0.7554193883450118,-0.0020318414876171298,1.7226880518934413,-1.958561461497245E-5,-9.617016987186661E-4,-7.018360710514201E-5,423056.40902488795,1.6758864449798605E-12,940.972141815786,1.6409911488637374,-8.456653401914727,-0.22220681867152065
4440.0,6079989.574983826,3005619.5101206354,532658.5407483215,-1569672.4059689676,6598114.532041277,533629.227617126,-4519.148185386778,-1523.4398086756892,5955.133317449674,1.987028182071989,-8.352468625841375,-0.6755144003426533,6759053.075824172,1.347089370353365,-2.941636402004186,1.516087161466052,-2.85321938422651,-0.7574994023336259,-0.047085471520235934,1.7594837644195704,-1.958561461497245E-5,-9.723515629392278E-4,-6.8701822076989E-5,425210.60501466744,1.60440244418841E-12,940.1874533951445,1.987028182071989,-8.352468625841375,-0.6755144003426533
4500.0,5930595.106413125,3216787.4339592285,888267.8950790274,-1837041.1801409936,6491752.951922736,889450.8859886877,-4389.778258308796,-2020.533245386369,5901.093108281114,2.323607572610924,-8.211185727175295,-1.1250345591001871,6759053.07582426,1.3514646396007006,-2.9996167840857133,1.508241922973309,-2.9091115814935034,-0.7612941972041832,-0.09248358707669155,1.797026458093563,-1.958561461497245E-5,-9.848815729193905E-4,-6.765189054710307E-5,427278.52584622474,1.5404317403164235E-12,939.6577813145241,2.323607572610924,-8.211185727175295,-1.1250345591001871
4560.0,5756109.062426575,3414791.769680339,1239834.2192736014,-2096048.227620109,6355842.017205305,1241224.12960993,-4240.532630787775,-2508.054540404805,5820.243136387877,2.649320969043706,-8.033529625045881,-1.5688575627824748,6759053.075824205,1.3558399088480522,-3.0461244713745277,1.5011020319979718,-2.9536184105531316,-0.766904998239163,-0.13825191913389573,1.8355381305695488,-1.958561461497245E-5,-9.991118009069393E-4,-6.70803318881867E-5,429247.54907339986,1.4836045638662456E-12,939.3729071240496,2.649320969043706,-8.033529625045881,-1.5688575627824748
4620.0,5557222.936302277,3598962.63996883,1585761.2505739618,-2345521.3873417974,6191021.0311571555,1587351.7583602595,-4072.1042391241267,-2983.84648998294,5712.981677817258,2.962811341114122,-7.820362424823838,-2.005108040109242,6759053.075824377,1.360215178095356,-3.0852292489789686,1.494792400409654,-2.99082513705282,-0.7744621988417458,-0.18440019771122645,1.875250311750779,-1.958561461497245E-5,-0.0010148426480149886,-6.702529638015785E-5,431104.0047190248,1.4335824532733163E-12,939.3183205085661,2.962811341114122,-7.820362424823838,-2.005108040109242
4680.0,5334729.46642715,3768685.9910522294,1924479.94599694,-2584332.4846572224,5998057.097198867,1926263.821274628,-3885.2658118776562,-3445.8076194578744,5579.8183638047085,3.2627765548084375,-7.572678897676189,-2.431950405663142,6759053.075824335,1.3645904473426438,-3.119383344864686,1.4894111249675874,-3.023197780972813,-0.7841269995131893,-0.23091854693486366,1.9164088302751425,-1.958561461497245E-5,-0.0010318577529323744,-6.751593831176618E-5,432833.3271547621,1.390053523201193E-12,939.4745827063888,3.2627765548084375,-7.572678897676189,-2.431950405663142
4740.0,5089519.5407818025,3923405.0957915606,2254455.0851008007,-2811402.0180058912,5777841.53910379,2256424.2230970273,-3680.866474099071,-3891.9000058544057,5421.371637047383,3.5479727398261636,-7.291601892750911,-2.847594040894264,6759053.075824031,1.3689657165913447,3.1330197433376212,1.4850355467200564,-3.0523270103484537,-0.7960937249502505,-0.27777372133888417,1.9592789235981405,-1.958561461497245E-5,-0.001049926968164711,-6.857196180626939E-5,434420.2347724323,1.3527076107024768E-12,939.8137194363649,3.5479727398261636,-7.291601892750911,-2.847594040894264
4800.0,4822578.7610390745,4062621.858181611,2574191.7110811775,-3025703.635893183,5531385.860133063,2576337.169017673,-3459.828155064218,-4320.156823623758,5238.365903684685,3.8172174764539974,-6.978377698276286,-3.2502982612535893,6759053.075823711,1.373340985838585,3.1045266241072365,1.4817249566654886,-3.079305322324913,-0.8105927896615679,-0.3249050960455306,2.0041506885286773,-1.958561461497245E-5,-0.0010688093526497176,-7.020333374582239E-5,435848.934354435,1.3212983074056225E-12,940.3080378875122,3.8172174764539974,-6.978377698276286,-3.2502982612535893
4860.0,4534983.677493368,4185897.922460773,2882241.3923148513,-3226268.392691782,5259817.257802206,2884553.4297027327,-3223.141809560281,-4728.6896107493385,5031.628392904216,4.069392827839336,-6.634371360154438,-3.6383770999777045,6759053.075823717,1.3777162550858253,3.0775295855443296,1.479521843795898,-3.1049331284662145,-0.8278942152970689,-0.37222031083947693,2.0513447951241637,-1.958561461497245E-5,-0.001088256144635852,-7.241015516125347E-5,437103.3466412339,1.2962131319778614E-12,941.0163137098554,4.069392827839336,-6.634371360154438,-3.6383770999777045
4920.0,4227897.705814317,4292855.590357682,3177208.2871297803,-3412188.772344077,4964373.711132697,3179676.4093858507,-2971.863461258836,-5115.695252739131,4802.085734264945,4.303448242057663,-6.261061959187819,-4.010203938653587,6759053.075823745,1.3820915243330338,3.0514035505407735,1.4784524897311309,-3.129840421065503,-0.8483114824045908,-0.4195904599435396,2.1012182624258746,-1.958561461497245E-5,-0.001108013693744855,-7.518268114637879E-5,438167.3492623132,1.2778702807938138E-12,941.9985528950315,4.303448242057663,-6.261061959187819,-4.010203938653587
4980.0,3902566.7368048853,4383178.5497153625,3457754.99513171,-3582622.4695113515,4646398.657391938,3460368.00034301,-2707.1100753090914,-5479.462681879689,4550.760261055755,4.51840334620978,-5.860037841008646,-4.364216013528121,6759053.075823761,1.3864667935802266,3.0256123365100276,1.4785272733103392,3.1286195979384277,-0.872205295740413,-0.46684472233330204,2.1541698891659045,-1.958561461497245E-5,-0.0011278263444911409,-7.850147955113101E-5,439025.0329392095,1.266657832591572E-12,943.3036693291082,4.51840334620978,-5.860037841008646,-4.364216013528121
5040.0,3560314.4502635296,4456612.417799721,3722608.178864769,-3736795.9181045787,4307335.275497552,3725354.207519632,-2430.055266027771,-5818.3792885691755,4278.7660463202,4.713350652113581,-5.432991786165305,-4.698918824625872,6759053.075823823,1.3908420628273876,2.999650225321253,1.4797408527384817,3.103570927532856,-0.899986513025722,-0.5137643535945641,2.2106446031383835,-1.958561461497245E-5,-0.0011474392738117687,-8.233772004529061E-5,439660.9666882543,1.2630018304156246E-12,944.9761869275336,4.713350652113581,-5.432991786165305,-4.698918824625872
5100.0,3202537.344190011,4512965.102385875,3970563.9399343394,-3874007.5574521055,3948720.393479745,3973430.5274299686,-2141.924844480247,-6130.937040608336,3987.3046766305233,4.887458190018576,-4.98171610173596,-5.012890472141914,6759053.075823873,1.3952173320745327,2.9729903721564956,1.4820722947004303,3.0776750439883447,-0.9321169766540547,-0.5600760296475608,2.2711354832877784,-1.958561461497245E-5,-0.0011666012913736747,-8.665358715667827E-5,440060.4676436875,1.2674058823567515E-12,947.0588969426392,4.887458190018576,-4.98171610173596,-5.012890472141914
5160.0,2830699.490744091,4552106.983515415,4200492.93398261,-3993630.826618186,3572178.0376786157,4203467.065711113,-1843.9922098669836,-6415.738305044964,3677.66076732062,5.039972083220158,-4.508097610373749,-5.304785941333278,6759053.0758239655,1.399592601321678,2.945028870036857,1.4854851583064614,3.0503337139815363,-0.9691062356998877,-0.6054446770963936,2.3361814576450364,-1.958561461497245E-5,-0.0011850676130265914,-9.140281305703896E-5,440209.87108067865,1.2804856920585646E-12,949.5945281922766,5.039972083220158,-4.508097610373749,-5.304785941333278
5220.0,2446327.0306398254,4573970.918571473,4411345.2090941565,-4095116.8776023234,3179412.6417247737,4414413.377901063,-1537.5735879716535,-6671.501365571935,3351.197221725405,5.1702190725306405,-4.014112507898675,-5.573341353280629,6759053.075823921,1.4039678705687753,2.915011647697515,1.4899274843234587,3.020801128584488,-1.0115011136565284,-0.6494661918545497,2.4063576496203414,-1.958561461497245E-5,-0.0012026026147194445,-9.653132769122794E-5,440096.7962431928,1.3030032903829818E-12,952.6268961839809,5.1702190725306405,-4.014112507898675,-5.573341353280629
5280.0,2051002.418038936,4578552.0730428435,4602154.752332559,-4177996.99832832,2772201.933825935,4605303.018134087,-1224.0231195164063,-6897.065626624114,3009.3502360623693,5.277608995331234,-3.501821056522616,-5.817378194492559,6759053.0758239385,1.4083431398158728,2.8819245414412484,1.4953315573835406,2.9880738554098203,-1.0598638188355394,-0.6916608987900367,2.4822540877840082,-1.958561461497245E-5,-0.0012189825669314666,-1.0197802488185757E-4,439710.403660272,1.3359021022173511E-12,956.2014923587317,5.277608995331234,-3.501821056522616,-5.817378194492559
5340.0,1646358.4284996113,4565907.579067607,4772043.729186892,-4241884.736499492,2352389.521474603,4775257.7805245,-904.7278011189034,-7091.396493240054,2653.624050956941,5.361637219436839,-2.973362077574914,-6.035807533420603,6759053.075823977,1.4127184090629386,2.844310554321338,1.5016131517883118,2.9507079302573476,-1.1147330914555718,-0.7314693021573114,2.5644372921338547,-1.958561461497245E-5,-0.001233998339066356,-1.0767564297166799E-4,439041.6397668362,1.3803419322256002E-12,960.3652219770004,5.361637219436839,-2.973362077574914,-6.035807533420603
5400.0,1234071.94316708,4536156.02355601,4920226.400754741,-4286477.715559265,1921877.193414351,4923491.618057978,-581.1022816729883,-7253.589913516024,2285.5854502874445,5.421887027311103,-2.430947205262397,-6.227634226611303,6759053.07582411,1.4170936783099726,2.79994093565544,1.5086696274572313,2.9064897232011697,-1.1765624668730146,-0.7682526362156065,2.653388835628094,-1.958561461497245E-5,-0.001247458050563158,-1.1355175721632078E-4,438083.4648196864,1.4377308401977422E-12,965.1648209023499,5.421887027311103,-2.430947205262397,-6.227634226611303
5460.0,815857.5231460765,4489476.767420781,5046012.703529271,-4311559.134176325,1482616.9595638532,5049314.223850415,-254.58351738596878,-7382.8765681209325,1906.8580080318986,5.45803194132957,-1.8768548616003984,-6.391961111499447,6759053.075824082,1.4214689475570224,2.7451774578503088,1.5163754096821134,2.85179795915145,-1.2456315270952039,-0.8013018217977206,2.749416772412865,-1.958561461497245E-5,-0.0012591896321853145,-1.195298785111532E-4,436831.0603158459,1.509748496541113E-12,970.6434095100997,5.45803194132957,-1.8768548616003984,-6.391961111499447
5520.0,393460.788888811,4426109.097192137,5148811.476704961,-4316998.940888385,1036602.8506001291,5152134.2596816085,73.37471058820859,-7478.625688936005,1519.1160841579972,5.469837975882135,-1.3134239122498903,-6.527993176817986,6759053.075823966,1.4258442168040246,2.6736356345718217,1.5245711640257464,2.7802666410617327,-1.321932073914307,-0.8298592447940296,2.8525418849937174,-1.958561461497245E-5,-0.00126904324867108,-1.2553064929936674E-4,435282.01236834336,1.5983535721060016E-12,976.8348001184836,5.469837975882135,-1.3134239122498903,-6.527993176817986
5580.0,-31348.37953252361,4346351.210077986,5228133.32200106,-4302754.67580189,585862.5000524935,5231462.216795676,401.30741098121814,-7540.348486477498,1124.0785713265407,5.457165797184638,-0.7430469636393365,-6.635041695339166,6759053.075823863,1.430219486051027,2.573140139266057,1.53303638485249,2.679740139934437,-1.4050432293636648,-0.8531574399095592,2.962372774348347,-1.958561461497245E-5,-0.0012768935242278572,-1.3147312299907886E-4,433436.46777662256,1.7057674998284516E-12,983.755716555004,5.457165797184638,-0.7430469636393365,-6.635041695339166
5640.0,-456782.80424114247,4250559.033364126,5283593.081138438,-4268871.971580253,132448.53304871393,5286912.8940968495,727.7441234750643,-7567.701163431789,723.5023952862987,5.4199727668243,-0.16816326348248803,-6.712528297251715,6759053.075823911,1.4345947552979816,2.418285562984851,1.5414133943946815,2.5248335966269106,-1.494026433894998,-0.8704761152456286,3.0780007809313363,-1.958561461497245E-5,-0.0012826415065801753,-1.372761084568418E-4,431297.25983900815,1.834430520559847E-12,991.3970565136956,5.4199727668243,-0.16816326348248803,-6.712528297251715
5700.0,-881045.1151291657,4139144.8789352686,5314911.916319986,-4215484.7063719025,-321570.2127178557,5318207.47908413,1051.2147781862097,-7560.487489439035,319.17577333511116,5.358314840370334,0.40874883033560155,-6.759988956019934,6759053.075823619,1.4389700245449362,2.1531843396189125,1.5489772755788185,2.2596804703879148,-1.5873857818193358,-0.8812132342646265,-3.0852251142820615,-1.958561461497245E-5,-0.001286216304403467,-1.4285955631395064E-4,428870.00129143795,1.9869343113705753E-12,999.7164603614334,5.358314840370334,0.40874883033560155,-6.759988956019934
5760.0,-1302334.979451911,4012575.933655251,5321918.9793836465,-4142814.8018537182,-774117.6066789457,5325175.217187563,1370.255663900781,-7518.660910274175,-87.08876289656537,5.272348287920311,0.9851798435200291,-6.777077852153014,6759053.075823663,1.443345293791875,1.683188740557776,1.5540228476236935,1.7896541435853173,-1.6831372532770632,-0.8849581195128388,-2.9628879902741083,-1.958561461497245E-5,-0.0012875763374592744,-1.4814596029252033E-4,426163.1421253585,2.1659464977361465E-12,1008.6350673771642,5.272348287920311,0.9851798435200291,-6.777077852153014
5820.0,-1718856.4341770832,3871372.5863747224,5304552.655734943,-4051171.660206411,-1223119.256954465,5307754.65560701,1683.4154932789497,-7442.326162861045,-493.4615718204201,5.162331199333071,1.5585976676089335,-6.7635710740653625,6759053.07582397,1.447720563038782,1.065197680054009,1.5538727848772742,1.1716743317945864,-1.7790006721431204,-0.8815485302854628,-2.8404230507150605,-1.958561461497245E-5,-0.001286710148462744,-1.5306174374427254E-4,423187.9904298289,2.3741496572352443E-12,1018.0406696114359,5.162331199333071,1.5585976676089335,-6.7635710740653625
5880.0,-2128825.298212107,3716106.592450821,5262861.36975665,-3940951.2346156193,-1666511.6232460623,5265994.448345778,1989.2615508986385,-7331.740366193433,-898.1033222737921,5.028624733194506,2.1264565501858192,-6.719370109231849,6759053.075824025,1.4520958322856732,0.6106353322258317,1.5487077154375768,0.7171853083308436,-1.87267721969887,-0.8710943946710591,-2.7200990642833527,-1.958561461497245E-5,-0.0012836367399337487,-1.57538600702573E-4,419958.6948318678,2.6142139042760208E-12,1027.7973692844441,5.028624733194506,2.1264565501858192,-6.719370109231849
5940.0,-2530476.639944499,3547399.0768687017,5197003.939147551,-3812634.7288157432,-2102251.17869281,5200053.709886242,2286.3859074530715,-7187.313557284393,-1299.1726157855464,4.871694065394885,2.6862066050550615,-6.64450507328203,6759053.075824185,1.4564711015325642,0.3554613547620127,1.5412640723332238,0.4621657464979941,-1.9621326930001446,-0.8539602997474754,-2.6039205841715307,-1.958561461497245E-5,-0.0012784054167487406,-1.615147613059034E-4,416492.18756628735,2.888806522479752E-12,1037.75927666204,4.871694065394885,2.6862066050550615,-6.64450507328203
6000.0,-2922072.2737923493,3365918.377356511,5107249.466586786,-3666786.9222757164,-2528323.586451405,5110201.905900055,2573.41168068991,-7009.608640796324,-1694.8337933029609,4.6921089906549875,3.2353038457743457,-6.539137619661486,6759053.075824359,1.4608463707794237,0.20557914102595207,1.5331689349955147,0.31253660932402666,-2.0458036602266274,-0.830712719872061,-2.4934219360637986,-1.958561461497245E-5,-0.001271095134168863,-1.649361537844752E-4,412808.08769944636,3.2006222774254756E-12,1047.7843030534355,4.6921089906549875,3.2353038457743457,-6.539137619661486
6060.0,-3301908.2576999986,3172377.7292871373,4993976.758269389,-3504054.118875234,-2942752.854881906,4996818.270535477,2848.9993208220376,-6799.340721091211,-2083.2649053825776,4.490544128532366,3.771220736297743,-6.403563468163228,6759053.075824614,1.4652216400262512,0.10781366659362025,1.5251105359482364,0.21513866054118153,-2.122682608190716,-0.802048411916499,-2.389582170799452,-1.958561461497245E-5,-0.0012618133699286176,-1.6775743897975385E-4,408928.5645584275,3.5524056255948868E-12,1057.7445646075325,4.490544128532366,3.771220736297743,-6.403563468163228
6120.0,-3668322.361755202,2967532.7946695117,4857673.260234296,-3325161.718345247,-3343610.433361745,4860390.741201099,3111.8528951978874,-6557.375786120238,-2462.665821036161,4.267778684458813,4.291457241886165,-6.238214487132291,6759053.075824806,1.4695969092745076,0.03800312074631166,1.517431029818258,0.1458237945142387,-2.1922901173269564,-0.76872238326662,-2.2928529299800635,-1.958561461497245E-5,-0.001250694555720167,-1.6994289818441367E-4,404878.16198423994,3.946936842130149E-12,1067.5317890646616,4.267778684458813,4.291457241886165,-6.238214487132291
6180.0,-4019701.4764146167,2752179.0381028214,4698933.505007747,-3130911.411348177,-3729024.2089533005,4701514.403368003,3360.726344046144,-6284.728713928644,-2831.266446431144,4.024695716322997,4.793552352021529,-6.043660261635493,6759053.075824831,1.4739721785212876,-0.015496972858848138,1.5103417780096753,0.09295889578314036,-2.2545754652798715,-0.73148852304012,-2.2032578061993093,-1.958561461497245E-5,-0.0012378981165655112,-1.7146716041261027E-4,400683.58462132886,4.386964594536814E-12,1077.0581114213562,4.024695716322997,4.793552352021529,-6.043660261635493
