time,gePosition_m_X,gePosition_m_Y,gePosition_m_Z,eiPosition_m_X,eiPosition_m_Y,eiPosition_m_Z,eiVelocity_m_s_X,eiVelocity_m_s_Y,eiVelocity_m_s_Z,eiAccel_m_s2_X,eiAccel_m_s2_Y,eiAccel_m_s2_Z,semiMajorAxis_m,gast_rad,eulerAngle_rad_Roll,eulerAngle_rad_Pitch,eulerAngle_rad_Yaw,eulerAngleWrtEi_rad_Roll,eulerAngleWrtEi_rad_Pitch,eulerAngleWrtEi_rad_Yaw,bodyAngularRateWrtEi_rad_s_Roll,bodyAngularRateWrtEi_rad_s_Pitch,bodyAngularRateWrtEi_rad_s_Yaw,altitudeMsl_m,airDensity_kg_m3,ambientTemperature_dgK,eiGravitation_m_s2_X,eiGravitation_m_s2_Y,eiGravitation_m_s2_Z
0.0,-1428622.3120664244,4163200.465251461,5136049.672040268,-4292653.410000001,955168.4699999995,5139356.569999999,109.64966299999837,-7527.726490000003,1484.521489,5.528986569357204,-1.230267887409868,-6.619549899945847,6758662.11722885,1.0233194459853856,1.1333718620180008E-16,-0.20245819323134245,-1.0625361206418758E-16,-2.4715939053549034,-0.03718896447613391,-1.4289931348885438,-2.541098841762901E-21,8.131516293641283E-20,1.3552527156068805E-20,398252.76383814117,3.1125051777514152E-12,976.2183377126014,5.528986569357204,-1.230267887409868,-6.619549899945847
60.0,-1789712.6496693231,3920255.313014938,5213136.603979294,-4276130.763605977,501640.15063717,5216447.947710037,440.89950442692015,-7584.043045623148,1084.1893967259218,5.508416690933063,-0.6462017022795102,-6.719712406156255,6758662.117263558,1.027694715234372,1.0587065769677664E-14,-0.1343880466851088,-4.621338232795806E-16,-2.4715939053549034,-0.03718896447613391,-1.4289931348885438,-2.541098841762901E-21,8.131516293641283E-20,1.3552527156068805E-20,398335.16146815225,3.2027933494634593E-12,983.3970713722676,5.508416690933063,-0.6462017022795102,-6.719712406156255
120.0,-2144732.034179484,3662345.312100285,5266057.2408811925,-4239785.46485045,45786.44926321737,5269357.680101298,770.1498563623215,-7605.207758913191,678.7772427016229,5.462360218417053,-0.05898932412298177,-6.788817501974943,6758662.117263754,1.0320699844833425,2.0194932759223425E-14,-0.06631179809461224,-2.7538544671668305E-15,-2.4715939053549034,-0.03718896447613391,-1.4289931348885438,-2.541098841762901E-21,8.131516293641283E-20,1.3552527156068805E-20,398280.4831682919,3.312437785884772E-12,991.3056589075245,5.462360218417053,-0.05898932412298177,-6.788817501974943
180.0,-2492166.1237640986,3390599.002331461,5294562.856727812,-4183783.2576410873,-410279.48079395323,5297837.089568896,1095.876880431999,-7591.112907333936,270.1592543331094,5.3910150982249325,0.5286657408489094,-6.826529477988574,6758662.117263805,1.0364452537322815,2.2704096459168766E-14,0.0017710140296914147,-2.4459639369978574E-15,-2.4715939053549034,-0.03718896447613391,-1.4289931348885438,-2.541098841762901E-21,8.131516293641283E-20,1.3552527156068805E-20,398085.37867539906,3.4421149831319345E-12,999.8931987452185,5.3910150982249325,0.5286657408489094,-6.826529477988574
240.0,-2830524.933552639,3106195.8515889547,5298517.62697371,-4108380.890263944,-864442.8940837071,5301750.470799711,1416.5720940053022,-7541.813194315001,-139.7744838473685,5.2946950956695495,1.1140548245265907,-6.832655726427426,6758662.117263699,1.0408205229812044,2.2203108825848793E-14,0.06986082100409019,-2.4554189898260098E-15,-2.4715939053549034,-0.03718896447613391,-1.4289931348885438,-2.541098841762901E-21,8.131516293641283E-20,1.3552527156068805E-20,397748.76810527267,3.592037165894134E-12,1009.0715707172562,5.2946950956695495,1.1140548245265907,-6.832655726427426
300.0,-3158349.2713430426,2810361.1253333627,5277899.32207716,-4013924.986168083,-1314597.2005823464,5281075.783796071,1730.7492879029699,-7457.525693790667,-549.1266557877701,5.173828662823245,1.694476279421763,-6.8071479549074185,6758662.117263534,1.0451957922300796,2.3089975033589237E-14,0.13795802196469803,-2.5885151016114146E-15,-2.4715939053549034,-0.03718896447613391,-1.4289931348885438,-2.541098841762901E-21,8.131516293641283E-20,1.3552527156068805E-20,397271.88371581887,3.7619269577527545E-12,1018.720424929598,5.173828662823245,1.694476279421763,-6.8071479549074185
360.0,-3474217.088184347,2504360.5974030187,5232799.482005453,-3900850.502029811,-1758653.6879591248,5235904.827551302,2036.9513609482026,-7338.629062575655,-956.0013936463747,5.028957298814672,2.2672476926627403,-6.750102774949119,6758662.117263451,1.049571061478955,2.3478322996866124E-14,0.2060629820041743,-1.7686719769680246E-15,-2.4715939053549034,-0.03718896447613391,-1.4289931348885438,-2.541098841762901E-21,8.131516293641283E-20,1.3552527156068805E-20,396658.2718183805,3.951071213678441E-12,1028.698598390408,5.028957298814672,2.2672476926627403,-6.750102774949119
420.0,-3776749.7162207305,2189495.12426598,5163423.069596519,-3769678.778999817,-2194551.1746032713,5166442.892262069,2333.757040934114,-7185.66202021345,-1358.512973837627,4.860733403783158,2.829718081055151,-6.6617616559412225,6758662.117263528,1.0539463307277828,1.4992905054609744E-14,0.27417603046086897,-7.139650219514879E-15,-2.4715939053549034,-0.03718896447613391,-1.4289931348885438,-2.541098841762901E-21,8.131516293641283E-20,1.3552527156068805E-20,395913.75463680236,4.1584323751530145E-12,1038.858809178122,4.860733403783158,2.829718081055151,-6.6617616559412225
480.0,-4064617.966290806,1867095.105377847,5070087.602939864,-3621015.1948572937,-2620265.549525399,5073007.890244936,2619.787461713582,-6999.321098976094,-1754.7944910956342,4.669917629703795,3.379280015619046,-6.54251023744045,6758662.117263541,1.0583215999766105,8.309117419371862E-15,0.34229745936862943,-1.5203916980127236E-14,-2.4715939053549034,-0.03718896447613391,-1.4289931348885438,-2.541098841762901E-21,8.131516293641283E-20,1.3552527156068805E-20,395046.35253835376,4.382772734383866E-12,1049.0613796841412,4.669917629703795,3.379280015619046,-6.54251023744045
540.0,-4336548.058010609,1538514.8526825637,4953221.769248266,-3455546.4266073867,-3033819.1555005293,4956028.968034219,2893.7125663718657,-6780.45766982112,-2143.0064719012585,4.457375733389263,3.913381622974215,-6.3928769950802,6758662.117263681,1.0626968692254064,1.047322728843031E-14,0.4104275220747709,-1.469581459113559E-14,-2.4715939053549034,-0.03718896447613391,-1.4289931348885438,-2.541098841762901E-21,8.131516293641283E-20,1.3552527156068805E-20,394066.1676898198,4.622747463448048E-12,1059.183722962798,4.457375733389263,3.913381622974215,-6.3928769950802
600.0,-4591327.355415764,1205126.8926016837,4813363.52501586,-3274037.334847693,-3433289.972264222,4816044.604464059,3154.2573068264433,-6530.074253295372,-2521.3453884110613,4.22407493916957,4.4295384100799025,-6.213531257909683,6758662.117263821,1.0670721384741706,6.8165093956635765E-15,0.4785664320332291,-1.0998656788645236E-14,-2.4715939053549034,-0.03718896447613391,-1.4289931348885438,-2.541098841762901E-21,8.131516293641283E-20,1.3552527156068805E-20,392985.23081535555,4.876942339722863E-12,1069.1244959579026,4.22407493916957,4.4295384100799025,-6.213531257909683
660.0,-4827809.881716004,868316.2240770397,4651157.689593077,-3077327.4829964424,-3816820.5572081567,4653700.201873655,3400.207610716839,-6249.320127606398,-2888.052033975427,3.971079821038902,4.925344858161557,-6.00528057768836,6758662.117263929,1.0714474077229348,-1.9494987856253668E-15,0.5467143617788199,-1.2712356664598745E-14,-2.4715939053549034,-0.03718896447613391,-1.4289931348885438,-2.541098841762901E-21,8.131516293641283E-20,1.3552527156068805E-20,391817.3133511939,5.143856633126539E-12,1078.8032686845766,3.971079821038902,4.925344858161557,-6.00528057768836
720.0,-5044921.587314979,529474.5563698203,4467353.041636093,-2866327.3062018766,-4182626.7018546243,4469745.179903342,3630.4160871057197,-5939.486249347102,-3241.419721450652,3.699547716436417,5.398485731225292,-5.769067453526695,6758662.117263813,1.075822676973096,5.232749142157496E-15,0.6148714420882856,-9.471615736210403E-15,-2.4715939053549034,-0.03718896447613391,-1.4289931348885438,-2.541098841762901E-21,8.131516293641283E-20,1.3552527156068805E-20,390577.7078899342,5.4218479104338886E-12,1088.1574714559642,3.699547716436417,5.398485731225292,-5.769067453526695
780.0,-5241665.345982761,189994.55031634023,4262798.930210197,-2642013.9464403368,-4529005.7634147275,4265029.583672148,3843.8074433145907,-5601.9995056416565,-3579.802265801665,3.4107236862724006,5.846747044373206,-5.505965418268323,6758662.117263894,1.0801979462217968,5.79688134463787E-15,0.6830377613324283,-6.964308837655217E-15,-2.4715939053549034,-0.03718896447613391,-1.4289931348885438,-2.541098841762901E-21,8.131516293641283E-20,1.3552527156068805E-20,389282.9803872165,5.709060323504258E-12,1097.138323469861,3.4107236862724006,5.846747044373206,-5.505965418268323
840.0,-5417125.654908279,-148735.9131661044,4038441.4146198016,-2405426.7719394886,-4854344.631961328,4040500.2204222456,4039.383586169939,-5238.416319765404,-3901.6217129707566,3.1059350383148954,6.268026637247306,-5.217174496153905,6758662.117263808,1.0845732154704657,7.747212478307332E-15,0.7512133650233648,-1.822873524307608E-15,-2.4715939053549034,-0.03718896447613391,-1.4289931348885438,-2.541098841762901E-21,8.131516293641283E-20,1.3552527156068805E-20,387950.6981453875,6.003354973306814E-12,1105.7069030484847,3.1059350383148954,6.268026637247306,-5.217174496153905
900.0,-5570473.015381515,-485339.4139137816,3795318.949300653,-2157662.600639416,-5157127.295167793,3797196.340979706,4216.228382038663,-4850.415635563619,-4205.3757776557295,2.786585433596691,6.660344298343842,-4.90401604455905,6758662.11726375,1.0889484847191346,7.237109080087473E-15,0.8193982555594341,-2.393734815113202E-15,-2.4715939053549034,-0.03718896447613391,-1.4289931348885438,-2.541098841762901E-21,8.131516293641283E-20,1.3552527156068805E-20,386599.13809212495,6.3022552359459865E-12,1113.8309307707082,2.786585433596691,6.660344298343842,-4.90401604455905
960.0,-5700967.971936009,-818454.599282424,3534557.6323229396,-1899870.6488993056,-5435941.964182729,3536244.8845954095,4373.512051287682,-4439.791309223358,-4489.644953510082,2.454148598060777,7.02185138670767,-4.5679269959548625,6758662.117263839,1.0933237539677718,1.4421196871556568E-14,0.887592392170185,9.167132767437638E-15,-2.4715939053549034,-0.03718896447613391,-1.4289931348885438,-2.541098841762901E-21,8.131516293641283E-20,1.3552527156068805E-20,385246.9803148925,6.6029147119878E-12,1121.4824120403077,2.454148598060777,7.02185138670767,-4.5679269959548625
1020.0,-5807964.789049274,-1146741.6939093375,3257366.038212906,-1633247.2280823467,-5689487.726016075,3258855.307889999,4510.495174212038,-4008.4439401363825,-4753.099260347982,2.1101616642250702,7.350839898632217,-4.210453519667108,6758662.11726384,1.0976990232163775,8.178133134206209E-15,0.9557956910620852,3.012679926645082E-15,-2.4715939053549034,-0.03718896447613391,-1.4289931348885438,-2.541098841762901E-21,8.131516293641283E-20,1.3552527156068805E-20,383912.9921885502,6.9021117559641735E-12,1128.636054005597,2.1101616642250702,7.350839898632217,-4.210453519667108
1080.0,-5890914.745862619,-1468887.8899295256,2965029.657886113,-1359030.212979097,-5916580.689813687,2966314.0207134667,4626.532287040762,-3558.3721756852374,-4994.504594216517,1.7562181701713797,7.645750928493694,-3.833244126480092,6758662.11726385,1.1020742924649671,5.444923257284815E-15,1.0240080257654014,-2.135264022464633E-15,-2.4715939053549034,-0.03718896447613391,-1.4289931348885438,-2.541098841762901E-21,8.131516293641283E-20,1.3552527156068805E-20,382615.7087277111,7.1962721391371354E-12,1135.2682817483478,1.7562181701713797,7.645750928493694,-3.833244126480092
1140.0,-5949369.030874317,-1783612.5956353887,2658904.9704889953,-1078493.3072652544,-6116159.596575227,2659978.45373445,4721.075048339307,-3091.6635277856,-5212.728647683577,1.3939607456439347,7.905182474741516,-3.4380422426233155,6758662.117263791,1.1064495617135248,1.928693851064377E-15,1.0922292276812902,-6.411400262717911E-15,-2.4715939053549034,-0.03718896447613391,-1.4289931348885438,-2.541098841762901E-21,8.131516293641283E-20,1.3552527156068805E-20,381373.1149924541,7.481519686664953E-12,1141.3566677724714,1.3939607456439347,7.905182474741516,-3.4380422426233155
1200.0,-5982981.220169905,-2089672.5211993416,2340413.173854372,-792940.1323134243,-6287290.864227551,2341270.7844843576,4793.6749579905945,-2610.4847418874824,-5406.746369389095,1.02507351743316,8.127896544365615,-3.0266782831547165,6758662.117263785,1.110824830962067,-4.105045443867018E-15,1.160459086827309,-1.3750162810918978E-14,-2.4715939053549034,-0.03718896447613391,-1.4289931348885438,-2.541098841762901E-21,8.131516293641283E-20,1.3552527156068805E-20,380202.33646586345,7.753753155184097E-12,1146.8796097072827,1.02507351743316,8.127896544365615,-3.0266782831547165
1260.0,-5991509.324476491,-2385866.5808051154,2011033.6020761319,-503698.16668942914,-6429173.042491344,2011671.350381829,4843.985612933164,-2117.071761860956,-5575.644933807703,0.6512742685042469,8.312825511865528,-2.6010612581774453,6758662.1172636105,1.115200100210593,-4.4678291552507805E-15,1.228697352778655,-2.9164995874553702E-15,-2.4715939053549034,-0.03718896447613391,-1.4289931348885438,-2.541098841762901E-21,8.131516293641283E-20,1.3552527156068805E-20,379119.3432942327,8.008745735882938E-12,1151.8161109323678,0.6512742685042469,8.312825511865528,-2.6010612581774453
1320.0,-5974817.392155417,-2671040.5913507002,1672296.8603886291,-212112.56454944555,-6541140.654660569,1672711.7789441713,4871.764485969544,-1613.7193367389573,-5718.628194281823,0.2743063874746843,8.459077691861458,-2.163169948669263,6758662.117263746,1.1195753694590873,-1.2828780333169185E-14,1.296943735801355,-6.363075045251914E-15,-2.4715939053549034,-0.03718896447613391,-1.4289931348885438,-2.541098841762901E-21,8.131516293641283E-20,1.3552527156068805E-20,378138.674125167,8.242260602959972E-12,1156.1454952602837,0.2743063874746843,8.459077691861458,-2.163169948669263
1380.0,-5932876.657173606,-2944091.748800418,1325777.7090841157,80460.11809198098,-6622667.406244351,1325967.8669409165,4876.874216213462,-1102.7703176367183,-5835.020594683582,-0.10406935298003454,8.565942088003155,-1.7150436919208156,6758662.117263585,1.123950638707566,-1.6858391394292708E-14,1.3651979081727037,-1.8370888202853237E-14,-2.4715939053549034,-0.03718896447613391,-1.4289931348885438,-2.541098841762901E-21,8.131516293641283E-20,1.3552527156068805E-20,377273.1849932885,8.450190257354586E-12,1159.8476063837018,-0.10406935298003454,8.565942088003155,-1.7150436919208156
1440.0,-5865766.223110978,-3203972.864268052,973087.7296051825,372658.259637231,-6673368.743386666,973052.2416488329,4859.28340211447,-586.604695294425,-5924.2705175611845,-0.48208314843275024,8.632892284733733,-1.2587728196344252,6758662.117263558,1.1283259079560126,-4.389218910702331E-14,1.4334595056833783,-4.541270374121583E-14,-2.4715939053549034,-0.03718896447613391,-1.4289931348885438,-2.541098841762901E-21,8.131516293641283E-20,1.3552527156068805E-20,376533.8282883516,8.628721067740914E-12,1162.9037832394765,-0.48208314843275024,8.632892284733733,-1.2587728196344252
1500.0,-5773673.276353833,-3449696.3429993847,615867.8071983999,663121.5416685751,-6693003.747059431,615606.8386174911,4819.066890466814,-67.62843056848301,-5985.9530492924,-0.8579646038072505,8.659589452752693,-0.7964887945978794,6758662.11726378,1.1327011772044275,-1.1924554511604248E-13,1.5017281293145075,-1.2482575401481193E-13,-2.4715939053549034,-0.03718896447613391,-1.4289931348885438,-2.541098841762901E-21,8.131516293641283E-20,1.3552527156068805E-20,375929.46629277884,8.774492640908653E-12,1165.2976259458096,-0.8579646038072505,8.659589452752693,-0.7964887945978794
1560.0,-5656892.823793788,-3680337.890599989,255780.46559941187,950497.3198237787,-6681476.35221964,255295.23143884452,4756.405557366029,451.7378681902874,-6019.772145601614,-1.2299512200547251,8.64588444363309,-0.3303540944655963,6758662.117263655,1.1370764464528427,-9.874833450578494E-12,1.5700033470827914,-9.704200528749534E-12,-2.4715939053549034,-0.03718896447613391,-1.4289931348885438,-2.541098841762901E-21,8.131516293641283E-20,1.3552527156068805E-20,375466.72312018776,8.88474183959905E-12,1167.0155520130434,-1.2299512200547251,8.64588444363309,-0.3303540944655963
1620.0,-5515826.952570919,-3895039.9321026434,-105497.90987091008,1233446.966245609,-6638835.884394636,-106205.1500760372,4671.585579702366,969.0703656074319,-6025.56218378537,-1.5962968821468666,8.591818954000864,0.13744810646407613,6758662.11726393,1.1414517157012258,-3.141592653589645,1.5033079575478083,-3.141592653589648,-2.4715939053549034,-0.03718896447613391,-1.4289931348885438,-2.541098841762901E-21,8.131516293641283E-20,1.3552527156068805E-20,375149.8781169661,8.957423584719302E-12,1168.0472239999676,-1.5962968821468666,8.591818954000864,0.13744810646407613
1680.0,-5350983.611670241,-4093014.730789748,-466284.9236931968,1510652.1530619964,-6565276.909507628,-467210.8761834153,4564.997198458113,1481.9534613206697,-6003.288891101447,-1.9552803033901422,8.497625744909358,0.6047244045423817,6758662.117263856,1.1458269849495775,-3.141592653589754,1.4350209691486808,-3.1415926535897483,-2.4715939053549034,-0.03718896447613391,-1.4289931348885438,-2.541098841762901E-21,8.131516293641283E-20,1.3552527156068805E-20,374980.80293831864,8.991300971293399E-12,1168.3858885935279,-1.9552803033901422,8.497625744909358,0.6047244045423817
1740.0,-5162974.917483282,-4273547.195079813,-824900.0583770187,1780821.046510724,-6461138.3961588135,-826040.4102906894,4437.132977792048,1987.9912365973864,-5953.049642012473,-2.3052133806361637,8.363727907501284,1.069281728492205,6758662.11726409,1.1502022541979289,-3.1415926535897656,1.36672885957642,-3.1415926535897647,-2.4715939053549034,-0.03718896447613391,-1.4289931348885438,-2.541098841762901E-21,8.131516293641283E-20,1.3552527156068805E-20,374958.9435991883,8.985999005041797E-12,1168.0286536478518,-2.3052133806361637,8.363727907501284,1.069281728492205
1800.0,-4952514.987763043,-4435997.363232317,-1179672.5615470815,2042694.3816441353,-6326902.193003992,-1181022.0008321023,4288.585566622522,2484.8188281851058,-5875.073120288278,-2.6444494148668087,8.190737171726221,1.5289379395715081,6758662.117264087,1.154577523446217,-3.1415926535897767,1.2984321711887874,-3.141592653589765,-2.4715939053549034,-0.03718896447613391,-1.4289931348885438,-2.541098841762901E-21,8.131516293641283E-20,1.3552527156068805E-20,375081.3478429781,8.942018786052282E-12,1166.9767222191758,-2.6444494148668087,8.190737171726221,1.5289379395715081
1860.0,-4720417.310734258,-4579802.557123463,-1528949.2937678988,2295051.388032573,-6163190.827321126,-1530501.5337927872,4120.044972147189,2970.1136720262034,-5769.718345368773,-2.9713911518662646,7.97945126068149,1.9815324132363568,6758662.117263873,1.1589527926945367,-3.141592653589793,1.2301314678949895,-3.141592653589775,-2.4715939053549034,-0.03718896447613391,-1.4289931348885438,-2.541098841762901E-21,8.131516293641283E-20,1.3552527156068805E-20,375342.7372116598,8.860711867487423E-12,1165.235597365465,-2.9713911518662646,7.97945126068149,1.9815324132363568
1920.0,-4467591.658426252,-4704479.19789572,-1871102.4990533716,2536715.537534104,-5970764.634284799,-1872850.3078046867,3932.2953574398325,3441.60655979927,-5637.47306581731,-3.2844985982810435,7.730850299059515,2.4249365448182485,6758662.117263731,1.163328061942793,-3.141592653589785,1.1618273325103168,-3.1415926535897616,-2.4715939053549034,-0.03718896447613391,-1.4289931348885438,-2.541098841762901E-21,8.131516293641283E-20,1.3552527156068805E-20,375735.6222485491,8.744217452363273E-12,1162.815267470586,-3.2844985982810435,7.730850299059515,2.4249365448182485
1980.0,-4195040.555600841,-4809624.277851506,-2204537.46028001,2766560.0860057487,-5750518.22987436,-2206472.694010684,3726.211377918664,3897.092451935809,-5478.951526154048,-3.582296569299122,7.44609229012356,2.8570641216104926,6758662.117263876,1.1677033311910492,-3.1415926535897825,1.0935203640182438,-3.1415926535897607,-2.4715939053549034,-0.03718896447613391,-1.4289931348885438,-2.541098841762901E-21,8.131516293641283E-20,1.3552527156068805E-20,376250.45836172736,8.59536772151168E-12,1159.7303787914143,-3.582296569299122,7.44609229012356,2.8570641216104926
2040.0,-3903855.317896619,-4894916.48457286,-2527700.002203928,2983513.3817969738,-5503476.343692698,-2529813.6433753003,3502.7540740714867,4334.44099180548,-5294.891616805075,-3.8633819254584276,7.126507681559069,3.2758815040767795,6758662.117263866,1.1720786004407024,-3.1415926535897762,1.0252111747532169,-3.1415926535897456,-2.4715939053549034,-0.03718896447613391,-1.4289931348885438,-2.541098841762901E-21,8.131516293641283E-20,1.3552527156068805E-20,376875.8390378057,8.417568630078068E-12,1156.0003996206397,-3.8633819254584276,7.126507681559069,3.2758815040767795
2100.0,-3595211.6749731065,-4960116.974899759,-2839083.8054666896,3186563.9149858803,-5230789.031251164,-2841366.0048060073,3262.9663403245354,4751.606667159103,-5086.151420322009,-4.12643045771534,6.773593046393911,3.6794175596507417,6758662.1172639225,1.176453869688895,-3.1415926535897776,0.9569003875179342,-3.141592653589743,-2.4715939053549034,-0.03718896447613391,-1.4289931348885438,-2.541098841762901E-21,8.131516293641283E-20,1.3552527156068805E-20,377598.7223476028,8.214664774368149E-12,1151.649778589752,-4.12643045771534,6.773593046393911,3.6794175596507417
2160.0,-3270364.996709366,-5005069.797913495,-3137237.4958652956,3374765.0825825976,-4933726.288458371,-3139677.618340282,3007.96799233813,5146.638566662713,-4853.705170382026,-4.3702033818556245,6.389003910894605,4.065773293798234,6758662.11726375,1.180829138937088,-3.1415926535897807,0.8885886326491388,-3.1415926535897496,-2.4715939053549034,-0.03718896447613391,-1.4289931348885438,-2.541098841762901E-21,8.131516293641283E-20,1.3552527156068805E-20,378404.6860418796,7.99079733074347E-12,1146.7080976223094,-4.3702033818556245,6.389003910894605,4.065773293798234
2220.0,-2930645.1423243717,-5029701.96789978,-3420771.474249989,3547239.6463320926,-4613672.094123311,-3423358.1487428937,2738.9504572796536,5517.689681436374,-4598.638643353695,-4.593553405591957,5.974546766852588,4.433131124642007,6758662.117263678,1.1852044081852489,-3.141592653589779,0.8202765450463981,-3.141592653589748,-2.4715939053549034,-0.03718896447613391,-1.4289931348885438,-2.541098841762901E-21,8.131516293641283E-20,1.3552527156068805E-20,379278.2060185061,7.750263624187087E-12,1141.2102168894203,-4.593553405591957,5.974546766852588,4.433131124642007
2280.0,-2577450.9544826583,-5034023.189671533,-3688364.453694319,3703183.8612840762,-4272117.909213144,-3691085.6261397647,2457.1711137490524,5863.025703916537,-4322.14400537565,-4.7954303342598115,5.532170310947399,4.779763749511321,6758662.117263681,1.1895796774333782,-3.141592653589785,0.7519647611783652,-3.1415926535897554,-2.4715939053549034,-0.03718896447613391,-1.4289931348885438,-2.541098841762901E-21,8.131516293641283E-20,1.3552527156068805E-20,380202.9525460732,7.497385709869326E-12,1135.1964033390461,-4.7954303342598115,5.532170310947399,4.779763749511321
2340.0,-2212244.4221518645,-5018125.240351955,-3938769.6720502656,3841871.2549594273,-3910655.6643919265,-3941612.6617842806,2163.947309993982,6181.03327907144,-4025.5141409202497,-4.974886183851121,5.063955958822982,5.10404255423451,6758662.117263604,1.1939549466814758,-3.1415926535897905,0.6836539160813456,-3.1415926535897594,-2.4715939053549034,-0.03718896447613391,-1.4289931348885438,-2.541098841762901E-21,8.131516293641283E-20,1.3552527156068805E-20,381162.0983757469,7.236393614880611E-12,1128.712423943344,-4.974886183851121,5.063955958822982,5.10404255423451
2400.0,-1836544.5377538058,-4982181.013232793,-4170820.7496438855,3962656.038714689,-3530970.26997282,-4173772.308695904,1860.650090834848,6470.227665997847,-3710.136491683841,-5.131079773211731,4.572107686123091,5.404445518841243,6758662.117263362,1.1983302159295892,3.141592653589793,0.6153446403649152,-3.141592653589759,-2.4715939053549034,-0.03718896447613391,-1.4289931348885438,-2.541098841762901E-21,8.131516293641283E-20,1.3552527156068805E-20,382138.6327438614,6.971326792613138E-12,1121.8095674222495,-5.131079773211731,4.572107686123091,5.404445518841243
2460.0,-1451920.8757384024,-4926443.2308488125,-4383437.163678459,4064976.1347799455,-3134831.684839459,-4386483.53872377,1548.6976653138179,6729.259771189937,-3377.486437329335,-5.263280770523253,4.0589412529320334,5.679564576541213,6758662.1172631215,1.2027054851776549,-3.1415926535897922,0.547037557239339,-3.1415926535897634,-2.4715939053549034,-0.03718896447613391,-1.4289931348885438,-2.541098841762901E-21,8.131516293641283E-20,1.3552527156068805E-20,383115.6752710509,6.7059550961795175E-12,1114.544531982435,-5.263280770523253,4.0589412529320334,5.679564576541213
2520.0,-1059986.9211670426,-4851242.835875751,-4575629.31287742,4148355.804409284,-2724086.5831100848,-4578756.309554758,1229.548648470303,6956.922518273319,-3029.120252091007,-5.37087317267256,3.5268728718284543,5.928112386371035,6758662.117262893,1.207080754425705,-3.141592653589792,0.47873327957936856,-3.141592653589763,-2.4715939053549034,-0.03718896447613391,-1.4289931348885438,-2.541098841762901E-21,8.131516293641283E-20,1.3552527156068805E-20,384076.783884825,6.443718399035634E-12,1106.9790819166121,-5.37087317267256,3.5268728718284543,5.928112386371035
2580.0,-662393.1781890404,-4756987.069870708,-4746503.148007749,4212407.864623403,-2300649.659320739,-4749696.19729538,904.695111820913,7152.156522710727,-2666.667673515775,-5.453358199741056,2.9784073830442996,6.14892848371304,6758662.117263034,1.211456023673723,-3.1415926535897905,0.4104324070388461,-3.1415926535897585,-2.4715939053549034,-0.03718896447613391,-1.4289931348885438,-2.541098841762901E-21,8.131516293641283E-20,1.3552527156068805E-20,385006.25112379633,6.187682135342129E-12,1099.1793385541841,-5.453358199741056,2.9784073830442996,6.14892848371304
2640.0,-260820.0894451569,-4644157.251212832,-4895264.346160918,4256835.483128506,-1866494.6146767875,-4898508.57249488,575.6554780767643,7314.05504388035,-2291.8241216407437,-5.510356590589521,2.416126003000995,6.340984776951874,6758662.117263057,1.2158312929217412,3.141592653589789,0.34213552323021695,-3.141592653589762,-2.4715939053549034,-0.03718896447613391,-1.4289931348885438,-2.541098841762901E-21,8.131516293641283E-20,1.3552527156068805E-20,385889.38350883476,5.94050483814534E-12,1091.214546834112,-5.510356590589521,2.416126003000995,6.340984776951874
2700.0,143029.20159355775,-4513306.264870618,-5021222.0090203695,4281433.543150293,-1423644.8684579192,-5024502.299830336,243.9672963575031,7441.868190977303,-1906.3426086846384,-5.541610289329864,1.842673714746745,6.503390362802124,6758662.117263078,1.2202065621697118,3.1415926535897896,0.27384319298272924,-3.1415926535897603,-2.4715939053549034,-0.03718896447613391,-1.4289931348885438,-2.541098841762901E-21,8.131516293641283E-20,1.3552527156068805E-20,386712.75907845434,5.704413656481348E-12,1083.1551765771155,-5.541610289329864,1.842673714746745,6.503390362802124
2760.0,547436.2125313662,-4365055.777806099,-5123791.867792876,4286089.5721141035,-974164.0399493165,-5127092.944124756,-88.82006534097776,7535.00636334963,-1512.025380847203,-5.546983516331773,1.260746370528293,6.635395637271537,6758662.117263368,1.2245818314176822,3.1415926535897842,0.20555595969257331,-3.1415926535897603,-2.4715939053549034,-0.03718896447613391,-1.4289931348885438,-2.541098841762901E-21,8.131516293641283E-20,1.3552527156068805E-20,387464.45866635384,5.481185261560592E-12,1075.0703149440953,-5.546983516331773,1.260746370528293,6.635395637271537
2820.0,950674.5747476036,-4200093.194922557,-5202498.980015199,4270784.230315265,-520146.2473089114,-5205805.4679046925,-421.15277340327447,7593.042910135683,-1110.7153350548285,-5.5264632212622065,0.6730775778897305,6.736395683772866,6758662.117263267,1.228957100665621,3.141592653589776,0.1372743427778103,-3.1415926535897625,-2.4715939053549034,-0.03718896447613391,-1.4289931348885438,-2.541098841762901E-21,8.131516293641283E-20,1.3552527156068805E-20,388134.26703827677,5.272132588102086E-12,1067.024508669574,-5.5264632212622065,0.6730775778897305,6.736395683772866
2880.0,1351017.5429795403,-4019168.3714670045,-5256979.9060464455,4235591.357949742,-63706.27055876762,-5260276.408304817,-751.4798905178648,7615.715998373312,-704.2872544637585,-5.48015891946966,0.0824254412960591,6.805932924511725,6758662.117263236,1.2333323699135281,3.1415926535897807,0.06899883525021458,-3.141592653589762,-2.4715939053549034,-0.03718896447613391,-1.4289931348885438,-2.541098841762901E-21,8.131516293641283E-20,1.3552527156068805E-20,388713.8405904402,5.07810171436274E-12,1059.0744947570563,-5.48015891946966,0.0824254412960591,6.805932924511725
2940.0,1746745.527601981,-3823090.098701872,-5286984.355703999,4180677.58109168,393030.37359064433,-5290255.523775883,-1078.2607094010714,7602.92968307322,-294.6389072238443,-5.4083019167682265,-0.5084407686572564,6.843699025926721,6758662.117263334,1.2377076391614352,3.1415926535897865,7.299014156796938E-4,-3.141592653589763,-2.4715939053549034,-0.03718896447613391,-1.4289931348885438,-2.541098841762901E-21,8.131516293641283E-20,1.3552527156068805E-20,389196.83892703435,4.899485935630288E-12,1051.266504449275,-5.4083019167682265,-0.5084407686572564,6.843699025926721
3000.0,2136153.615315564,-3612722.380463227,-5292376.2981856875,4106301.479405693,847937.3971140743,-5295606.903739108,-1399.9720218681816,7554.754177065109,116.31794657906309,-5.311243931302545,-1.096753946862765,6.849536053577569,6758662.117263367,1.2420829084093103,-3.1415926535897882,-0.06753202528605441,-3.141592653589764,-2.4715939053549034,-0.03718896447613391,-1.4289931348885438,-2.541098841762901E-21,8.131516293641283E-20,1.3552527156068805E-20,389579.0182786995,4.736263349874406E-12,1043.6348654372987,-5.311243931302545,-1.096753946862765,6.849536053577569
3060.0,2517559.044031379,-3388980.518923177,-5273134.531118165,4012812.3205528506,1298897.698270263,-5276309.537029006,-1715.1152874249187,7471.425322689641,526.6665947450982,-5.189455124667876,-1.679762415546827,6.823436876434034,6758662.117263284,1.246458177657154,-3.141592653589788,-0.13578654429220127,-3.141592653589762,-2.4715939053549034,-0.03718896447613391,-1.4289931348885438,-2.541098841762901E-21,8.131516293641283E-20,1.3552527156068805E-20,389858.28538146877,4.588059056302318E-12,1036.202345052307,-5.189455124667876,-1.679762415546827,6.823436876434034
3120.0,2889308.597991526,-3152827.028461662,-5229352.707271163,3900648.3683721907,1743813.2637041027,-5232457.337667972,-2022.2236663830404,7353.343271605545,934.4944146209841,-5.0435215577802115,-2.254743047219354,6.765544824976541,6758662.117263216,1.2508334469049975,-3.141592653589793,-0.20403328976901863,-3.1415926535897607,-2.4715939053549034,-0.03718896447613391,-1.4289931348885438,-2.541098841762901E-21,8.131516293641283E-20,1.3552527156068805E-20,390034.71110055165,4.454225369838289E-12,1028.98214667681,-5.0435215577802115,-2.254743047219354,6.765544824976541
3180.0,3249785.889584775,-2905267.397038559,-5161238.820159993,3770334.77399206,2180614.9678294174,-5164258.629200378,-2319.8688835286193,7201.070383071637,1337.9018720684892,-4.87414209011759,-2.8190141815402,6.676152611824159,6758662.117262988,1.2552087161527934,3.141592653589786,-0.27227193229669727,-3.1415926535897576,-2.4715939053549034,-0.03718896447613391,-1.4289931348885438,-2.541098841762901E-21,8.131516293641283E-20,1.3552527156068805E-20,390110.5037524621,4.333927528951025E-12,1021.9809570669006,-4.87414209011759,-2.8190141815402,6.676152611824159
3240.0,3597418.494901438,-2647345.714831581,-5069114.152412006,3622481.061027237,2607272.223011667,-5072035.091468759,-2606.667889577431,7015.328355026832,1735.0114338574238,-4.682124743859266,-3.3699482712763023,6.555700527735572,6758662.117262921,1.2595839854005895,3.1415926535897754,-0.3405021803795886,-3.14159265358976,-2.4715939053549034,-0.03718896447613391,-1.4289931348885438,-2.541098841762901E-21,8.131516293641283E-20,1.3552527156068805E-20,390089.9427433536,4.226221560342898E-12,1015.2022112234538,-4.682124743859266,-3.3699482712763023,6.555700527735572
3300.0,3930684.9108182797,-2380140.1901701107,-4953411.693377107,3457778.2179432143,3021802.4350430337,-4956220.176320662,-2881.2892890239486,6796.99460609933,2123.9763504897674,-4.468382557123466,-3.9049841952706914,6.404773929748415,6758662.11726291,1.2639592546483536,3.14159265358977,-0.4087237817750648,-3.141592653589754,-2.4715939053549034,-0.03718896447613391,-1.4289931348885438,-2.541098841762901E-21,8.131516293641283E-20,1.3552527156068805E-20,389979.2737943917,4.130115130118706E-12,1008.6488624039231,-4.468382557123466,-3.9049841952706914,6.404773929748415
3360.0,4248121.302299165,-2104758.5729606412,-4814674.035009838,3276995.4125089846,3422280.219601583,-4817357.001283583,-3142.4595045180486,6547.097930309988,2502.9892675782344,-4.233928952920389,-4.421639179434818,6.224100041895434,6758662.117262981,1.268334523896086,3.1415926535897647,-0.47693652463536235,-3.141592653589752,-2.4715939053549034,-0.03718896447613391,-1.4289931348885438,-2.541098841762901E-21,8.131516293641283E-20,1.3552527156068805E-20,389786.5676665841,4.04460838121923E-12,1002.3252728542768,-4.233928952920389,-4.421639179434818,6.224100041895434
3420.0,4548328.009637467,-1822333.5058585578,-4653550.757521472,3080976.345000548,3806846.336795074,-4656095.732717823,-3388.9686495639517,6266.813449674489,2870.2906252337834,-3.979872652596563,-4.917520270167938,6.014544092357166,6758662.117263095,1.2727097931452471,3.1415926535897616,-0.5451402384576269,-3.141592653589749,-2.4715939053549034,-0.03718896447613391,-1.4289931348885438,-2.541098841762901E-21,8.131516293641283E-20,1.3552527156068805E-20,389521.54491253605,3.968716823409112E-12,996.2381717796494,-3.979872652596563,-4.917520270167938,6.014544092357166
3480.0,4829975.786562574,-1534017.8233537453,-4470795.318687477,2870635.258457967,4173716.302501126,-4473190.4723451985,-3619.676083123337,5957.4568931356625,3224.1768064424546,-3.707412164431905,-5.390335308252466,5.777104814041045,6758662.1172630545,1.2770850623929477,3.141592653589761,-0.6133347948384493,-3.1415926535897447,-2.4715939053549034,-0.03718896447613391,-1.4289931348885438,-2.541098841762901E-21,8.131516293641283E-20,1.3552527156068805E-20,389195.3697731918,3.901480932564905E-12,990.396839012284,-3.707412164431905,-5.390335308252466,5.777104814041045
3540.0,5091811.741378991,-1240979.8189314432,-4267261.462985542,2646952.6258273143,4521188.63701171,-4269495.663342878,-3833.515621592206,5620.478233260637,3563.007997119206,-3.4178298796643487,-5.837903355126264,5.512909338416943,6758662.117263052,1.2814603316406326,3.1415926535897505,-0.6815201080300203,-3.1415926535897354,-2.4715939053549034,-0.03718896447613391,-1.4289931348885438,-2.541098841762901E-21,8.131516293641283E-20,1.3552527156068805E-20,388820.41689005424,3.841967525608917E-12,984.8127514613292,-3.4178298796643487,-5.837903355126264,5.512909338416943
3600.0,5332664.954828716,-944398.5000100484,-4043899.16892181,2410970.535231425,4847652.71346126,-4045962.0343749737,-4029.500385598956,5257.454714901851,3885.215722392476,-3.112485809556145,-6.25816452744671,5.223207514971242,6758662.117263069,1.2858356008883016,3.1415926535897487,-0.7496961352961609,-3.1415926535897274,-2.4715939053549034,-0.03718896447613391,-1.4289931348885438,-2.541098841762901E-21,8.131516293641283E-20,1.3552527156068805E-20,388410.0150118659,3.789267161934362E-12,979.4989180729531,-3.112485809556145,-6.25816452744671,5.223207514971242
3660.0,5551451.749796103,-645458.8502573873,-3801750.154967928,2163787.795906305,5151596.170645038,-3803632.1020007683,-4206.727261123344,4870.083312545528,4189.310025684324,-2.7928109981903386,-6.649189199991076,4.90936569086628,6758662.117263076,1.2902108701359387,3.141592653589743,-0.8178628770672546,-3.1415926535897314,-2.4715939053549034,-0.03718896447613391,-1.4289931348885438,-2.541098841762901E-21,8.131516293641283E-20,1.3552527156068805E-20,387978.172326674,3.742490619933959E-12,974.4690775455053,-2.7928109981903386,-6.649189199991076,4.90936569086628
3720.0,5747180.589665412,-345347.1183470653,-3541942.9664749736,1906554.7885056024,5431611.85710905,-3543635.2538428344,-4364.380956539979,4460.172655340323,4473.886259284553,-2.4603006464906354,-7.009186541135864,4.572859987302125,6758662.117263191,1.29458613938356,3.1415926535897394,-0.8860203768942758,-3.141592653589729,-2.4715939053549034,-0.03718896447613391,-1.4289931348885438,-2.541098841762901E-21,8.131516293641283E-20,1.3552527156068805E-20,387539.2884399565,3.700766378875802E-12,969.7368750673437,-2.4603006464906354,-7.009186541135864,4.572859987302125
3780.0,5918956.583835012,-45246.15177601162,-3265687.667738841,1640468.084516439,5686404.275792187,-3267182.43670769,-4501.7376393410705,4029.634460818404,4737.631457356335,-2.1165069835201806,-7.336512349388879,4.215269110684736,6758662.117263036,1.2989614086311496,3.1415926535897327,-0.9541687212028833,-3.141592653589722,-2.4715939053549034,-0.03718896447613391,-1.4289931348885438,-2.541098841762901E-21,8.131516293641283E-20,1.3552527156068805E-20,387107.85832929594,3.663240170108913E-12,965.3150858683078,-2.1165069835201806,-7.336512349388879,4.215269110684736
3840.0,6065985.580690317,253669.20619726356,-2974270.1650672564,1366764.8604389846,5914795.501018519,-2975560.4755281075,-4618.168138463692,3580.474520086583,4979.330264638819,-1.763031921429149,-7.629676163661287,3.838266738006428,6758662.11726291,1.3033366778787392,3.141592653589731,-1.0223080388495347,-3.141592653589724,-2.4715939053549034,-0.03718896447613391,-1.4289931348885438,-2.541098841762901E-21,8.131516293641283E-20,1.3552527156068805E-20,386698.1738335093,3.6290770481134317E-12,961.2149187920353,-1.763031921429149,-7.629676163661287,3.838266738006428
3900.0,6187577.830196454,550236.639059577,-2669046.1882279036,1086717.1331605462,6115730.542248671,-2670126.050526126,-4713.1407003350105,3114.7832787775797,5197.870396507228,-1.4015195305186097,-7.887347624144249,3.443613516863572,6758662.117263019,1.307711947126297,3.141592653589721,-1.0904385004825425,-3.1415926535897105,-2.4715939053549034,-0.03718896447613391,-1.4289931348885438,-2.541098841762901E-21,8.131516293641283E-20,1.3552527156068805E-20,386324.0283584589,3.597466010911168E-12,957.4454111110767,-1.4015195305186097,-7.887347624144249,3.443613516863572
3960.0,6283151.200191062,843310.7822380423,-2351434.9590465324,801625.8436037175,6288282.131696834,-2352299.3613858838,-4786.2232889347315,2634.726059316512,5392.2476085007265,-1.03364837077342,-8.108362064740568,3.033148721275331,6758662.117263119,1.312087216373823,3.1415926535897,-1.1585603177116113,-3.1415926535896865,-2.4715939053549034,-0.03718896447613391,-1.4289931348885438,-2.541098841762901E-21,8.131516293641283E-20,1.3552527156068805E-20,385998.4305051037,3.5676269039236864E-12,954.0129132571733,-1.03364837077342,-8.108362064740568,3.033148721275331
4020.0,6352233.932424264,1131767.5349668427,-2022912.577159788,512814.81624367204,6431654.915685969,-2023557.5084617333,-4837.0854223456,2142.5329710818146,5561.570155914129,-0.6611237159146082,-8.29172532198894,2.6087816049477,6758662.117263011,1.3164624856213492,3.1415926535896834,-1.2266737420905929,-3.141592653589666,-2.4715939053549034,-0.03718896447613391,-1.4289931348885438,-2.541098841762901E-21,8.131516293641283E-20,1.3552527156068805E-20,385733.33223167754,3.5388191225846402E-12,950.9206557779345,-0.6611237159146082,-8.29172532198894,2.6087816049477
4080.0,6394466.926396479,1414508.2435890741,-1685005.154017682,221624.6224777085,6545189.032432371,-1685427.6221376755,-4865.499540413602,1640.4885558249848,5705.062726555414,-0.28566970555092513,-8.436617749267281,2.1724824938704295,6758662.117263132,1.3208377548688435,3.1415926535896435,-1.2947790639187378,-3.1415926535896257,-2.4715939053549034,-0.03718896447613391,-1.4289931348885438,-2.541098841762901E-21,8.131516293641283E-20,1.3552527156068805E-20,385539.3769510964,3.5103514592414657E-12,948.1683880892643,-0.28566970555092513,-8.436617749267281,2.1724824938704295
4140.0,6409605.5410772255,1690463.7418785025,-1339281.7271685072,-70593.62391145773,6628363.061809146,-1339479.7723923686,-4871.341900255842,1130.9212162769134,5822.069832287135,0.09097853961305222,-8.542397428765764,1.7262736601584459,6758662.1172632165,1.325213024116306,3.1415926535895924,-1.362876610866504,-3.141592653589573,-2.4715939053549034,-0.03718896447613391,-1.4289931348885438,-2.541098841762901E-21,8.131516293641283E-20,1.3552527156068805E-20,385425.67263191316,3.4815923097438395E-12,945.7520776192919,0.09097853961305222,-8.542397428765764,1.7262736601584459
4200.0,6397520.90664564,1958598.2348279422,-987346.9876457712,-362484.51082342473,6680796.335528993,-987319.6914109593,-4854.592998429994,616.1924762108263,5912.0586474797865,0.4670828053072346,-8.608602577242909,1.2722200188684638,6758662.117263175,1.3295882933637686,3.1415926535894885,-1.4309667464328746,-3.1415926535894676,-2.4715939053549034,-0.03718896447613391,-1.4289931348885438,-2.541098841762901E-21,8.131516293641283E-20,1.3552527156068805E-20,385399.59452629124,3.4519793659691357E-12,943.6636574834226,0.4670828053072346,-8.608602577242909,1.2722200188684638
4260.0,6358200.740456448,2217913.0132352486,-630833.8539149523,-652694.5830539279,6702250.599084291,-630581.3427232961,-4815.3375206054825,98.68612037003756,5974.621284998999,0.8409096406205349,-8.634953144936812,0.8124196891758934,6758662.117263043,1.3339635626111994,3.1415926535891967,-1.4990498682416498,-3.1415926535891754,-2.4715939053549034,-0.03718896447613391,-1.4289931348885438,-2.541098841762901E-21,8.131516293641283E-20,1.3552527156068805E-20,385466.6215858073,3.4210278791387457E-12,941.8908100080704,0.8409096406205349,-8.634953144936812,0.8124196891758934
4320.0,6291749.6635083,2467449.987325696,-271395.92632519995,-939878.5803794756,6692631.01968772,-270919.3708354663,-4753.763821549935,-419.2027373891812,6009.4765028177335,1.2107381519284917,-8.621351610166938,0.3489944607893153,6758662.117262834,1.3383388318585985,3.1415926535786993,-1.567126406184941,-3.141592653578666,-2.4715939053549034,-0.03718896447613391,-1.4289931348885438,-2.541098841762901E-21,8.131516293641283E-20,1.3552527156068805E-20,385630.2099665544,3.3883365888449397E-12,940.416771571299,1.2107381519284917,-8.621351610166938,0.3489944607893153
4380.0,6198389.015759557,2706295.0285805957,89300.14364649962,-1222705.6304640612,6651986.53735205,89998.53433609735,-4670.162940156099,-935.0786096322797,6016.470836778238,1.574867702457086,-8.567882975135296,-0.11591979415405246,6758662.117262713,1.3427141011059978,6.493219336158063E-13,-1.5063958331672789,-6.423944672643888E-13,-2.4715939053549034,-0.03718896447613391,-1.4289931348885438,-2.541098841762901E-21,8.131516293641283E-20,1.3552527156068805E-20,385891.70627944643,3.3536605303022875E-12,939.2248987103214,1.574867702457086,-8.567882975135296,-0.11591979415405246
4440.0,6078456.170693119,2933581.109879089,449582.33487512945,-1499865.368878636,6580509.559120198,450499.32372278674,-4564.927156086794,-1446.5565668660474,5995.579157421846,1.9316254871965066,-8.474813971230084,-0.580182724212321,6758662.117262778,1.347089370353365,3.3181894092886694E-13,-1.4383310543430485,-3.2795752671761407E-13,-2.4715939053549034,-0.03718896447613391,-1.4289931348885438,-2.541098841762901E-21,8.131516293641283E-20,1.3552527156068805E-20,386250.30242405675,3.3170925281264194E-12,938.3111440366106,1.9316254871965066,-8.474813971230084,-0.580182724212321
4500.0,5932403.3515785625,3148491.2350062756,807780.9542531014,-1770073.9589724694,6478534.9993052,808912.2914946051,-4438.548096395467,-1951.273097927686,5946.904651149048,2.279373953995907,-8.342591484730635,-1.0416590781157438,6758662.117262827,1.3514646396007006,2.068599868748897E-13,-1.3702713967674118,-1.997881483205612E-13,-2.4715939053549034,-0.03718896447613391,-1.4289931348885438,-2.541098841762901E-21,8.131516293641283E-20,1.3552527156068805E-20,386703.03298497124,3.2788539007683903E-12,937.6705444157876,2.279373953995907,-8.342591484730635,-1.0416590781157438
4560.0,5760795.953895271,3350261.149533464,1162236.3160875735,-2032079.984888541,6346538.671401883,1163576.7591087676,-4291.614402199984,-2446.8968528559853,5870.678228267568,2.616518042815529,-8.171840216250319,-1.4982282228304613,6758662.11726291,1.3558399088480522,1.5218557501347872E-13,-1.302216322777718,-1.421575392716112E-13,-2.4715939053549034,-0.03718896447613391,-1.4289931348885438,-2.541098841762901E-21,8.131516293641283E-20,1.3552527156068805E-20,387244.8152785086,3.239229076265605E-12,937.2934437184899,2.616518042815529,-8.171840216250319,-1.4982282228304613
4620.0,5564310.380374659,3538181.826025869,1511306.368996298,-2284670.191670314,6185135.040092213,1512849.7067621583,-4124.808967130653,-2931.13922272542,5767.257362721289,2.9415122162695115,-7.963359589511055,-1.9477935633970904,6758662.117262824,1.360215178095356,1.2335470964590603E-13,-1.2341652736916626,-1.1881713858263703E-13,-2.4715939053549034,-0.03718896447613391,-1.4289931348885438,-2.541098841762901E-21,8.131516293641283E-20,1.3552527156068805E-20,387868.5312518832,3.1985547628473216E-12,937.1655819510736,2.9415122162695115,-7.963359589511055,-1.9477935633970904
4680.0,5343731.39708105,3711601.717472989,1853374.2364212968,-2526675.047157038,5995074.344467688,1855113.3183468212,-3938.9057608527114,-3401.7647119244857,5637.1243704743065,3.2528672557506804,-7.718119927155745,-2.3882918287205888,6758662.117263067,1.3645904473426438,1.0003256790240146E-13,-1.1661176723781368,-8.614503028663466E-14,-2.4715939053549034,-0.03718896447613391,-1.4289931348885438,-2.541098841762901E-21,8.131516293641283E-20,1.3552527156068805E-20,388565.14957116544,3.1571990106475122E-12,937.267635867393,3.2528672557506804,-7.718119927155745,-2.3882918287205888
4740.0,5099949.020871968,3869928.7737744977,2186855.637361985,-2756974.1012092642,5777239.1062289905,2188782.406490527,-3734.766252470635,-3856.6010594811223,5480.884135640621,3.5491567985851264,-7.437257913279225,-2.8177021885015248,6758662.117263249,1.3689657165913447,8.479448435981643E-14,-1.0980729259091073,-6.748202313897682E-14,-2.4715939053549034,-0.03718896447613391,-1.4289931348885438,-2.541098841762901E-21,8.131516293641283E-20,1.3552527156068805E-20,389323.88541481865,3.1155080545355997E-12,937.572519354384,3.5491567985851264,-7.437257913279225,-2.8177021885015248
4800.0,4833954.95042441,4012632.217084933,2510206.154535109,-2974501.118737628,5532640.039192559,2512311.6848708303,-3513.3354500602845,-4293.549067275209,5299.261295512616,3.8290235928042304,-7.122071364206559,-3.234055167520238,6758662.11726328,1.373340985838585,7.284054025720151E-14,-1.0300304282808743,-5.0101459684681326E-14,-2.4715939053549034,-0.03718896447613391,-1.4289931348885438,-2.541098841762901E-21,8.131516293641283E-20,1.3552527156068805E-20,390132.3947392017,3.0737924005241265E-12,938.0454034725185,3.8290235928042304,-7.122071364206559,-3.234055167520238
4860.0,4546838.554956153,4139244.0725813718,2821928.317898982,-3178248.9640246555,5262411.378921709,2824202.855721853,-3275.63757394609,-4710.592094323124,5093.096897631979,4.091185447251245,-6.77401333079671,-3.6354413245157655,6758662.11726303,1.3777162550858253,6.882000692272866E-14,-0.9619895631925802,-4.903668158995203E-14,-2.4715939053549034,-0.03718896447613391,-1.4289931348885438,-2.541098841762901E-21,8.131516293641283E-20,1.3552527156068805E-20,390976.99911416066,3.033538338353978E-12,938.7340762637923,4.091185447251245,-6.77401333079671,-3.6354413245157655
4920.0,4239782.436359969,4249360.452376176,3120578.472324584,-3367274.214925412,4967805.6537061315,3123011.4812988765,-3022.771382643993,-5105.805177765522,4863.344543987227,4.334440855850167,-6.3946855572094465,-4.02001966392596,6758662.117263007,1.3820915243330338,7.134563524281554E-14,-0.8939497068697698,-4.989209135341921E-14,-2.4715939053549034,-0.03718896447613391,-1.4289931348885438,-2.541098841762901E-21,8.131516293641283E-20,1.3552527156068805E-20,391842.93665885396,2.9964408197653504E-12,939.7032075797852,4.334440855850167,-6.3946855572094465,-4.02001966392596
4980.0,3914057.5823851028,4342642.590911405,3404773.3991570477,-3540701.486705538,4650187.920430673,3407353.6090275864,-2755.905171627786,-5477.363742734384,4611.066039290026,4.5576742759582825,-5.985831322662255,-4.386025749775434,6758662.117263014,1.3864667935802266,5.396443738850552E-14,-0.8259102309206413,-3.494586290674466E-14,-2.4715939053549034,-0.03718896447613391,-1.4289931348885438,-2.541098841762901E-21,8.131516293641283E-20,1.3552527156068805E-20,392714.63415011624,2.9639712999295603E-12,941.0037201639752,4.5576742759582825,-5.985831322662255,-4.386025749775434
5040.0,3571018.13004842,4418817.6311945105,3673196.662482857,-3697727.446520251,4311029.491094929,3675912.1211375273,-2476.2714662498133,-5823.5518649128935,4337.426562099838,4.759861041803716,-5.5493276942409375,-4.731779492012581,6758662.117262954,1.3908420628273876,5.006159015520966E-14,-0.7578705052124726,-3.244927308438351E-14,-2.4715939053549034,-0.03718896447613391,-1.4289931348885438,-2.541098841762901E-21,8.131516293641283E-20,1.3552527156068805E-20,393575.9950330886,2.937496147726002E-12,942.681425922956,4.759861041803716,-5.5493276942409375,-4.731779492012581
5100.0,3212095.760097548,4477679.162019458,3924604.6520943684,-3837624.5008520624,3951901.1778641357,3927442.7807565425,-2185.161431253348,-6142.770051331294,4043.6893793142362,4.940071895083151,-5.087177220329405,-5.055692576606918,6758662.117262983,1.3952173320745327,4.188411333690001E-14,-0.6898299007556499,-2.73200283943654E-14,-2.4715939053549034,-0.03718896447613391,-1.4289931348885438,-2.541098841762901E-21,8.131516293641283E-20,1.3552527156068805E-20,394410.6978379703,2.91832111249887E-12,944.7800727512013,4.940071895083151,-5.087177220329405,-5.055692576606918
5160.0,2838793.744874493,4519087.507144919,4157832.2964265626,-3959744.1396008516,3574466.0865459456,4160779.9477272574,-1883.9190203586675,-6433.54250675904,3731.2101262349556,5.097477115858941,-4.601499095701294,-5.356275511731015,6758662.117263122,1.399592601321678,4.1385542583890484E-14,-0.6217877925827017,-2.9963542588584065E-14,-2.4715939053549034,-0.03718896447613391,-1.4289931348885438,-2.541098841762901E-21,8.131516293641283E-20,1.3552527156068805E-20,395202.49939847126,2.9077238059473852E-12,947.3431873833001,5.097477115858941,-4.601499095701294,-5.356275511731015
5220.0,2452680.6733893426,4542969.768199312,4371798.420119637,-4063519.9219610374,3180471.990288898,4374841.938786427,-1573.934890383549,-6694.52385496161,3401.4306760496465,5.231350237969274,-4.09451983078329,-5.632144263366497,6758662.117263144,1.4039678705687753,3.4589971887994745E-14,-0.5537435626097519,-2.6884729329454408E-14,-2.4715939053549034,-0.03718896447613391,-1.4289931348885438,-2.541098841762901E-21,8.131516293641283E-20,1.3552527156068805E-20,395935.5372702068,2.9069830698468602E-12,950.4153347669512,5.231350237969274,-4.09451983078329,-5.632144263366497
5280.0,2055383.8788000573,4549319.623854437,4565510.722339259,-4148470.090713712,2771743.3170832796,4568636.008227284,-1256.6401052742174,-6924.505286084424,3055.8726241377353,5.3410713342465606,-3.568563459069331,-5.882026454709551,6758662.117262971,1.4083431398158728,3.050649667488507E-14,-0.48569660246790597,-2.543777320472669E-14,-2.4715939053549034,-0.03718896447613391,-1.4289931348885438,-2.541098841762901E-21,8.131516293641283E-20,1.3552527156068805E-20,396594.6258534721,2.9174053205183168E-12,954.0427845134661,5.3410713342465606,-3.568563459069331,-5.882026454709551
5340.0,1648582.5947939537,4538196.888565287,4738070.353554421,-4214199.803112187,2350172.786306843,4741262.926734231,-933.4996562716749,-7122.420103508094,2696.130414114961,5.426129857946758,-3.026041318139657,-6.104767104808238,6758662.117262871,1.4127184090629386,2.811856166930276E-14,-0.4176463162921041,-2.1115491167161346E-14,-2.4715939053549034,-0.03718896447613391,-1.4289931348885438,-2.541098841762901E-21,8.131516293641283E-20,1.3552527156068805E-20,397165.540926627,2.940343964044598E-12,958.273286611819,5.426129857946758,-3.026041318139657,-6.104767104808238
5400.0,1234000.8685917004,4509726.834895752,4888676.070129673,-4260402.968134202,1917712.7310924607,4891921.13773736,-606.005825220287,-7287.348645693394,2323.8641339720243,5.486127027931586,-2.469441441231162,-6.29933388296461,6758662.1172627555,1.4170936783099726,3.314671813003788E-14,-0.34959212345522656,-2.1163529590379576E-14,-2.4715939053549034,-0.03718896447613391,-1.4289931348885438,-2.541098841762901E-21,8.131516293641283E-20,1.3552527156068805E-20,397635.28757975367,2.9772048889189628E-12,963.1544618229357,5.486127027931586,-2.469441441231162,-6.29933388296461
5460.0,813400.259420286,4464099.28416004,5016627.947831518,-4286863.68151891,1476366.1446970443,5019910.472378363,-275.6714187378309,-7418.52256079413,1940.792012037483,5.520777746324656,-1.9013175978067582,-6.464821856576759,6758662.117262707,1.4214689475570224,2.5194766599018952E-14,-0.28153346123536,-1.741891618507288E-14,-2.4715939053549034,-0.03718896447613391,-1.4289931348885438,-2.541098841762901E-21,8.131516293641283E-20,1.3552527156068805E-20,397992.34689918766,3.029428741038594E-12,968.7302326623067,5.520777746324656,-1.9013175978067582,-6.464821856576759
5520.0,388572.35233812296,4401567.470785696,5121330.637169711,-4293457.25168659,1028177.4903132047,5124635.406001735,55.977098393795636,-7515.328414169669,1548.6826437976065,5.529912038601032,-1.3242780230938762,-6.60045771131361,6758662.1172626,1.4258442168040246,3.3625850595726236E-14,-0.21346978740438868,-1.6319471620413165E-14,-2.4715939053549034,-0.03718896447613391,-1.4289931348885438,-2.541098841762901E-21,8.131516293641283E-20,1.3552527156068805E-20,398226.89717084396,3.098440586799809E-12,975.0348918579884,5.529912038601032,-1.3242780230938762,-6.60045771131361
5580.0,-38668.88176487737,4322446.686463961,5202296.145391799,-4280150.811361306,575223.3148850428,5205607.840984028,387.406541694398,-7577.31061137253,1149.3469818346382,5.51347600736982,-0.7409738780885918,-6.705603423799285,6758662.1172625795,1.430219486051027,3.972103359047186E-14,-0.14540058272637196,-1.6736272362934508E-14,-2.4715939053549034,-0.03718896447613391,-1.4289931348885438,-2.541098841762901E-21,8.131516293641283E-20,1.3552527156068805E-20,398331.00584409083,3.185562066385544E-12,982.0849931396067,5.51347600736982,-0.7409738780885918,-6.705603423799285
5640.0,-466494.84834196354,4227112.710782762,5259146.131919898,-4247003.511463005,119602.70845917518,5262449.402685877,717.0839879012966,-7604.1736217219295,744.6301222934424,5.471532292483314,-0.15408748305400238,-6.779759368373228,6758662.11726277,1.4345947552979816,3.641309946341903E-14,-0.07732535335448491,-1.623695738688008E-14,-2.4715939053549034,-0.03718896447613391,-1.4289931348885438,-2.541098841762901E-21,8.131516293641283E-20,1.3552527156068805E-20,398298.7890101188,3.2918921562791915E-12,989.8702987132283,5.471532292483314,-0.15408748305400238,-6.779759368373228
5700.0,-893070.181158287,4116000.035647745,5291613.706052734,-4194166.2956157173,-336572.3485829418,5294893.237346903,1043.4837685300852,-7595.783490201842,336.40292234761307,5.404260031567595,0.43367963093857376,-6.822566840977069,6758662.117262583,1.4389700245449362,3.547314112287667E-14,-0.00924363311568316,-1.3784701651133512E-14,-2.4715939053549034,-0.03718896447613391,-1.4289931348885438,-2.541098841762901E-21,8.131516293641283E-20,1.3552527156068805E-20,398126.53569702676,3.418178770253021E-12,998.3462228821436,5.404260031567595,0.43367963093857376,-6.822566840977069
5760.0,-1316560.651070099,3989599.8913797177,5299544.71785349,-4121881.255415453,-791186.7074108571,5302785.302842566,1365.0944459669693,-7552.1686281411685,-73.44651589359049,5.3119543166195315,1.019618806379101,-6.833809984829862,6758662.117262586,1.443345293791875,3.614481020678442E-14,0.05884501432734774,-1.20007720811564E-14,-2.4715939053549034,-0.03718896447613391,-1.4289931348885438,-2.541098841762901E-21,8.131516293641283E-20,1.3552527156068805E-20,397812.79485756974,3.5647172656452232E-12,1007.4308230473814,5.3119543166195315,1.019618806379101,-6.833809984829862
5820.0,-1735141.0981344322,3848458.08293371,5282898.535294882,-4030480.5684137316,-1242131.7982596203,5286085.145374166,1680.4257417670315,-7473.519875937113,-483.02145872810456,5.195025143967935,1.6010264320962826,-6.8134171042988285,6758662.117262869,1.447720563038782,5.1652397825172523E-14,0.1269409934469271,-1.0177984674380556E-14,-2.4715939053549034,-0.03718896447613391,-1.4289931348885438,-2.541098841762901E-21,8.131516293641283E-20,1.3552527156068805E-20,397358.42351795005,3.7313121278403866E-12,1017.0085830997946,5.195025143967935,1.6010264320962826,-6.8134171042988285
5880.0,-2147003.3532071193,3693172.645220004,5241748.302933479,-3920385.022598235,-1687315.359765521,5244866.157365384,1988.0153867228728,-7360.189833979657,-890.4252143842649,5.053995856650304,2.1752161555462832,-6.761461355252854,6758662.117262902,1.4520958322856732,4.922811527127313E-14,0.19504467496324465,-1.1118763966442723E-14,-2.4715939053549034,-0.03718896447613391,-1.4289931348885438,-2.541098841762901E-21,8.131516293641283E-20,1.3552527156068805E-20,396766.59516628424,3.917318134269098E-12,1026.940914865362,5.053995856650304,2.1752161555462832,-6.761461355252854
5940.0,-2550364.1149494243,3524391.3270123545,5176280.679630267,-3792102.132977143,-2124671.1061739977,5179315.314084943,2286.4358622661957,-7212.6914609051,-1293.7698290124683,4.889501080115299,2.7395310844045113,-6.6781608022234895,6758662.117262943,1.4564711015325642,5.2718632179226915E-14,0.2631563941082683,-9.776949165735852E-15,-2.4715939053549034,-0.03718896447613391,-1.4289931348885438,-2.541098841762901E-21,8.131516293641283E-20,1.3552527156068805E-20,396042.76807957416,4.121744696775071E-12,1037.0805927906877,4.889501080115299,2.7395310844045113,-6.6781608022234895
6000.0,-2943472.7480608956,3342808.913409591,5086795.055106179,-3646223.85769805,-2552168.288509455,5089732.388788305,2574.3010028785607,-7031.69594135767,-1691.1847669181066,4.702284154140609,3.291355926055155,-6.563877834896617,6758662.117263034,1.4608463707794237,4.901696417769008E-14,0.33127644904903736,-5.624476503323271E-15,-2.4715939053549034,-0.03718896447613391,-1.4289931348885438,-2.541098841762901E-21,8.131516293641283E-20,1.3552527156068805E-20,395194.61390989437,4.34338115825471E-12,1047.2859081931979,4.702284154140609,3.291355926055155,-6.563877834896617
6060.0,-3324618.968591836,3149164.3972692606,4973702.24743277,-3483423.9229448647,-2967821.1060202494,4976528.648484084,2850.2724294219324,-6818.029828553679,-2080.825536429597,4.493194065920224,3.8281290125060816,-6.419117938808679,6758662.117263043,1.4652216400262512,5.211932802465706E-14,0.39940509947793984,-1.0205446455695132E-15,-2.4715939053549034,-0.03718896447613391,-1.4289931348885438,-2.541098841762901E-21,8.131516293641283E-20,1.3552527156068805E-20,394231.9074836981,4.580897202184947E-12,1057.4309962032476,4.493194065920224,3.8281290125060816,-6.419117938808679
6120.0,-3692140.3823661935,2944238.0104605104,4837522.685875121,-3304454.767651755,-3369697.9246257064,4840225.034749197,3113.0657836628407,-6572.671470120753,-2460.882222562639,4.263181891463905,4.347354157362688,-6.244527817645603,6758662.1172629455,1.4695969092745076,6.013282635387995E-14,0.4675425653770665,6.758724471910367E-15,-2.4715939053549034,-0.03718896447613391,-1.4289931348885438,-2.541098841762901E-21,8.131516293641283E-20,1.3552527156068805E-20,393166.37938972365,4.8328902580833985E-12,1067.4108608128417,4.263181891463905,4.347354157362688,-6.244527817645603
