time,gePosition_m_X,gePosition_m_Y,gePosition_m_Z,eiPosition_m_X,eiPosition_m_Y,eiPosition_m_Z,eiVelocity_m_s_X,eiVelocity_m_s_Y,eiVelocity_m_s_Z,eiAccel_m_s2_X,eiAccel_m_s2_Y,eiAccel_m_s2_Z,semiMajorAxis_m,gast_rad,eulerAngle_rad_Roll,eulerAngle_rad_Pitch,eulerAngle_rad_Yaw,eulerAngleWrtEi_rad_Roll,eulerAngleWrtEi_rad_Pitch,eulerAngleWrtEi_rad_Yaw,bodyAngularRateWrtEi_rad_s_Roll,bodyAngularRateWrtEi_rad_s_Pitch,bodyAngularRateWrtEi_rad_s_Yaw,altitudeMsl_m,airDensity_kg_m3,ambientTemperature_dgK,eiGravitation_m_s2_X,eiGravitation_m_s2_Y,eiGravitation_m_s2_Z
0.0,-1428622.31101,4163200.46562,5136049.67203,-4292653.41,955168.47,5139356.57,109.649663,-7527.72649,1484.521489,5.52898656936,-1.23026788741,-6.61954989995,6758662.11723,1.02334780893,5.666859310097427E-17,-0.2024581932313422,-1.0271182499535224E-16,-2.471593905353287,-0.03718896447605677,-1.4289931348888525,0.0,0.0,0.0,398252.763838,3.11591362917E-12,976.47737094,5.52898656936,-1.23026788741,-6.61954989995
60.0,-1789712.64868,3920255.31305,5213136.6043,-4276130.76361,501640.150639,5216447.94771,440.899504426,-7584.0430456,1084.18939672,5.50841669093,-0.646201702282,-6.71971240616,6758662.11723,1.02772307802,-5.04145989032309E-16,-0.1343880466853914,1.3653953869627944E-16,-2.471593905353287,-0.03718896447605677,-1.4289931348888525,0.0,0.0,0.0,398335.16147,3.20687244874E-12,983.702829946,5.50841669093,-0.646201702282,-6.71971240616
120.0,-2144732.03326,3662345.31178,5266057.24147,-4239785.46485,45786.4492663,5269357.6801,770.149856361,-7605.20775889,678.7772427,5.46236021842,-0.058989324127,-6.78881750198,6758662.11723,1.03209834711,-1.2795687423200214E-15,-0.0663117980950497,-3.3380054147501584E-16,-2.471593905353287,-0.03718896447605677,-1.4289931348888525,0.0,0.0,0.0,398280.483171,3.31726588913E-12,991.661468685,5.46236021842,-0.058989324127,-6.78881750198
180.0,-2492166.12293,3390599.00166,5294562.85755,-4183783.25764,-410279.480789,5297837.08957,1095.87688043,-7591.11290731,270.159254332,5.39101509823,0.528665740843,-6.82652947799,6758662.11723,1.0364736162,-7.216460977245137E-16,0.0017710140289972146,7.910351455826064E-16,-2.471593905353287,-0.03718896447605677,-1.4289931348888525,0.0,0.0,0.0,398085.378679,3.44775481373E-12,1000.300609,5.39101509823,0.528665740843,-6.82652947799
240.0,-2830524.93281,3106195.85057,5298517.62797,-4108380.89026,-864442.894078,5301750.4708,1416.572094,-7541.8131943,-139.774483848,5.29469509567,1.11405482452,-6.83265572643,6758662.11723,1.04084888529,-6.677626714540835E-16,0.06986082100316059,3.547489192106908E-16,-2.471593905353287,-0.03718896447605677,-1.4289931348888525,0.0,0.0,0.0,397748.768109,3.59852917815E-12,1009.53002767,5.29469509567,1.11405482452,-6.83265572643
300.0,-3158349.2707,2810361.12396,5277899.32319,-4013924.98617,-1314597.20057,5281075.7838,1730.7492879,-7457.52569377,-549.126655788,5.17382866283,1.69447627941,-6.80714795491,6758662.11723,1.04522415437,8.966980595572332E-16,0.13795802196364546,8.441571576289743E-16,-2.471593905353287,-0.03718896447605677,-1.4289931348888525,0.0,0.0,0.0,397271.88372,3.76928395326E-12,1019.22714303,5.17382866283,1.69447627941,-6.80714795491
360.0,-3474217.08765,2504360.5957,5232799.48317,-3900850.50203,-1758653.68795,5235904.82755,2036.95136094,-7338.62906256,-956.001393646,5.02895729882,2.26724769265,-6.75010277495,6758662.11723,1.04959942346,1.4177731278296375E-15,0.20606298200208997,2.2259038106965624E-15,-2.471593905353287,-0.03718896447605677,-1.4289931348888525,0.0,0.0,0.0,396658.271822,3.95927497991E-12,1029.24864764,5.02895729882,2.26724769265,-6.75010277495
420.0,-3776749.71579,2189495.12225,5163423.07076,-3769678.779,-2194551.17459,5166442.89226,2333.75704093,-7185.6620202,-1358.51297384,4.86073340379,2.82971808105,-6.66176165595,6758662.11723,1.05397469255,1.1533003888150634E-15,0.27417603045985506,1.387564530294023E-15,-2.471593905353287,-0.03718896447605677,-1.4289931348888525,0.0,0.0,0.0,395913.75464,4.16743259548E-12,1039.44538411,4.86073340379,2.82971808105,-6.66176165595
480.0,-4064617.96598,1867095.10307,5070087.60404,-3621015.19486,-2620265.54951,5073007.89024,2619.78746171,-6999.32109896,-1754.79449109,4.66991762971,3.37928001561,-6.54251023745,6758662.11723,1.05834996164,0.0,0.34229745936735095,1.6758193376822174E-15,-2.471593905353287,-0.03718896447605677,-1.4289931348888525,0.0,0.0,0.0,395046.35254,4.39248786983E-12,1049.67618037,4.66991762971,3.37928001561,-6.54251023745
540.0,-4336548.05782,1538514.85011,4953221.77021,-3455546.42661,-3033819.15549,4956028.96803,2893.71256637,-6780.45766981,-2143.0064719,4.4573757334,3.91338162297,-6.39287699509,6758662.11723,1.06272523073,-4.843110884819026E-16,0.41042752207308136,1.161589876280568E-15,-2.471593905353287,-0.03718896447605677,-1.4289931348888525,0.0,0.0,0.0,394066.16769,4.63306699777E-12,1059.81737392,4.4573757334,3.91338162297,-6.39287699509
600.0,-4591327.35534,1205126.8898,4813363.52578,-3274037.33485,-3433289.97225,4816044.60446,3154.25730682,-6530.07425328,-2521.34538841,4.22407493918,4.42953841007,-6.21353125793,6758662.11723,1.06710049981,8.129781848026756E-16,0.47856643203081367,1.5477853902982743E-15,-2.471593905353287,-0.03718896447605677,-1.4289931348888525,0.0,0.0,0.0,392985.230813,4.88772979641E-12,1069.76694871,4.22407493918,4.42953841007,-6.21353125793
660.0,-4827809.88176,868316.221086,4651157.69009,-3077327.483,-3816820.55719,4653700.20187,3400.20761071,-6249.32012759,-2888.05203397,3.97107982106,4.92534485816,-6.00528057771,6758662.11723,1.0714757689,2.599331714162204E-15,0.5467143617768164,2.944555457448281E-15,-2.471593905353287,-0.03718896447605677,-1.4289931348888525,0.0,0.0,0.0,391817.313346,5.15495300749E-12,1079.44416186,3.97107982106,4.92534485816,-6.00528057771
720.0,-5044921.58748,529474.553225,4467353.04181,-2866327.30621,-4182626.70184,4469745.1799,3630.4160871,-5939.48624934,-3241.41972145,3.69954771645,5.39848573122,-5.76906745355,6758662.11723,1.07585103799,3.2619734912119623E-15,0.6148714420868653,3.0198738961653018E-15,-2.471593905353287,-0.03718896447605677,-1.4289931348888525,0.0,0.0,0.0,390577.707882,5.43307543139E-12,1088.78644481,3.69954771645,5.39848573122,-5.76906745355
780.0,-5241665.34627,189994.547074,4262798.92999,-2642013.94644,-4529005.7634,4265029.58367,3843.80744331,-5601.99950563,-3579.8022658,3.41072368629,5.84674704438,-5.50596541829,6758662.11723,1.08022630708,4.0077204357882885E-15,0.6830377613304707,2.9923716200222532E-15,-2.471593905353287,-0.03718896447605677,-1.4289931348888525,0.0,0.0,0.0,389282.980377,5.72022664279E-12,1097.7452932,3.41072368629,5.84674704438,-5.50596541829
840.0,-5417125.65531,-148735.916456,4038441.41394,-2405426.77194,-4854344.63194,4040500.22042,4039.38358617,-5238.41631976,-3901.62171297,3.10593503834,6.26802663725,-5.21717449618,6758662.11723,1.08460157617,3.1900286675263224E-15,0.7512133650205838,3.3656701269064537E-15,-2.471593905353287,-0.03718896447605677,-1.4289931348888525,0.0,0.0,0.0,387950.698132,6.01425775883E-12,1106.28229852,3.10593503834,6.26802663725,-5.21717449618
900.0,-5570473.01589,-485339.417195,3795318.94811,-2157662.60064,-5157127.29515,3797196.34098,4216.22838204,-4850.41563555,-4205.37577766,2.78658543362,6.66034429836,-4.90401604459,6758662.11723,1.08897684525,3.577896623855039E-15,0.8193982555570322,3.826926360464908E-15,-2.471593905353287,-0.03718896447605677,-1.4289931348888525,0.0,0.0,0.0,386599.138075,6.3126881824E-12,1114.36594672,2.78658543362,6.66034429836,-4.90401604459
960.0,-5700967.97255,-818454.602498,3534557.63056,-1899870.6489,-5435941.96416,3536244.8846,4373.51205129,-4439.79130921,-4489.64495351,2.45414859808,7.02185138673,-4.56792699599,6758662.11723,1.09335211434,2.3742214361694763E-15,0.8875923921671792,2.198353181637758E-15,-2.471593905353287,-0.03718896447605677,-1.4289931348888525,0.0,0.0,0.0,385246.980295,6.61267311836E-12,1121.96917921,2.45414859808,7.02185138673,-4.56792699599
1020.0,-5807964.78976,-1146741.697,3257366.03583,-1633247.22809,-5689487.726,3258855.30789,4510.49517421,-4008.44394013,-4753.09926035,2.11016166425,7.35083989866,-4.2104535197,6758662.11723,1.09772738343,3.175039922678128E-15,0.9557956910595128,5.484159866456733E-15,-2.471593905353287,-0.03718896447605677,-1.4289931348888525,0.0,0.0,0.0,383912.992166,6.91099941407E-12,1129.0678263,2.11016166425,7.35083989866,-4.2104535197
1080.0,-5890914.74666,-1468887.89283,2965029.65483,-1359030.21298,-5916580.68979,2966314.02071,4626.53228704,-3558.37217567,-4994.50459422,1.75621817019,7.64575092852,-3.83324412651,6758662.11723,1.10210265252,3.736712039306754E-15,1.0240080257639848,4.937798051938574E-15,-2.471593905353287,-0.03718896447605677,-1.4289931348888525,0.0,0.0,0.0,382615.708702,7.20410831208E-12,1135.63958297,1.75621817019,7.64575092852,-3.83324412651
1140.0,-5949369.03175,-1783612.59828,2658904.96671,-1078493.30727,-6116159.59655,2659978.45374,4721.07504834,-3091.66352777,-5212.72864769,1.39396074566,7.90518247478,-3.43804224265,6758662.11723,1.10647792161,7.292873624305822E-15,1.092229227680044,7.59423203853348E-15,-2.471593905353287,-0.03718896447605677,-1.4289931348888525,0.0,0.0,0.0,381373.114964,7.48814599554E-12,1141.66340206,1.39396074566,7.90518247478,-3.43804224265
1200.0,-5982981.22111,-2089672.52353,2340413.16932,-792940.132318,-6287290.8642,2341270.78449,4793.67495799,-2610.48474187,-5406.7463694,1.02507351745,8.12789654441,-3.02667828318,6758662.11723,1.11085319069,1.1132326627397803E-14,1.1604590868253828,1.0627893077080177E-14,-2.471593905353287,-0.03718896447605677,-1.4289931348888525,0.0,0.0,0.0,380202.336435,7.7590399177E-12,1147.11912903,1.02507351745,8.12789654441,-3.02667828318
1260.0,-5991509.32546,-2385866.58275,2011033.59675,-503698.166694,-6429173.04247,2011671.35038,4843.98561294,-2117.07176185,-5575.64493382,0.651274268517,8.31282551192,-2.6010612582,6758662.11723,1.11522845978,1.5306451735520168E-14,1.2286973527766698,1.3858544138904645E-14,-2.471593905353287,-0.03718896447605677,-1.4289931348888525,0.0,0.0,0.0,379119.343262,8.01259721908E-12,1151.98723184,0.651274268517,8.31282551192,-2.6010612582
1320.0,-5974817.39318,-2671040.59285,1672296.85424,-212112.564554,-6541140.65464,1672711.77894,4871.76448598,-1613.71933672,-5718.62819429,0.274306387484,8.45907769192,-2.16316994869,6758662.11723,1.11960372887,1.3649822274421252E-14,1.296943735800522,1.3560020812101933E-14,-2.471593905353287,-0.03718896447605677,-1.4289931348888525,0.0,0.0,0.0,378138.674091,8.24461890324E-12,1156.24846939,0.274306387484,8.45907769192,-2.16316994869
1380.0,-5932876.65821,-2944091.74979,1325777.7021,80460.1180873,-6622667.40622,1325967.86694,4876.87421622,-1102.77031762,-5835.0205947,-0.104069352975,8.56594208807,-1.71504369194,6758662.11723,1.12397899796,1.3595476930811972E-14,1.3651979081712298,1.2592810507172814E-14,-2.471593905353287,-0.03718896447605677,-1.4289931348888525,0.0,0.0,0.0,377273.184958,8.4510389103E-12,1159.884107,-0.104069352975,8.56594208807,-1.71504369194
1440.0,-5865766.22415,-3203972.86468,973087.721764,372658.259633,-6673368.74336,973052.241649,4859.28340212,-586.604695271,-5924.27051757,-0.482083148433,8.6328922848,-1.25877281965,6758662.11723,1.12835426705,1.104907300841334E-14,1.433459505682212,8.236120935159845E-15,-2.471593905353287,-0.03718896447605677,-1.4289931348888525,0.0,0.0,0.0,376533.828253,8.6280865492E-12,1162.87683742,-0.482083148433,8.6328922848,-1.25877281965
1500.0,-5773673.27738,-3449696.34278,615867.798494,663121.541664,-6693003.74703,615606.838617,4819.06689047,-67.6284305421,-5985.95304931,-0.857964603813,8.65958945283,-0.796488794607,6758662.11723,1.13272953613,6.63592409579115E-15,1.501728129314549,4.725582310651317E-15,-2.471593905353287,-0.03718896447605677,-1.4289931348888525,0.0,0.0,0.0,375929.466258,8.77244310478E-12,1165.21147632,-0.857964603813,8.65958945283,-0.796488794607
1560.0,-5656892.82478,-3680337.88969,255780.45603,950497.319819,-6681476.35219,255295.231438,4756.40555737,451.73786822,-6019.77214562,-1.22995122007,8.64588444371,-0.330354094469,6758662.11723,1.13710480522,2.6863747181213578E-12,1.5700033470817987,2.4676145619193095E-12,-2.471593905353287,-0.03718896447605677,-1.4289931348888525,0.0,0.0,0.0,375466.723086,8.88138327436E-12,1166.8754629,-1.22995122007,8.64588444371,-0.330354094469
1620.0,-5515826.9535,-3895039.93044,-105497.920298,1233446.96624,-6638835.88436,-106205.150078,4671.58557971,969.070365641,-6025.5621838,-1.59629688217,8.59181895409,0.137448106468,6758662.11723,1.14148007431,3.1415926535897927,1.5033079575474357,3.1415926535897927,-2.471593905353287,-0.03718896447605677,-1.4289931348888525,0.0,0.0,0.0,375149.878085,8.95289368481E-12,1167.85924417,-1.59629688217,8.59181895409,0.137448106468
1680.0,-5350983.61252,-4093014.72833,-466284.934963,1510652.15306,-6565276.90947,-467210.876186,4564.99719846,1481.95346136,-6003.28889111,-1.95528030342,8.497625745,0.604724404555,6758662.11723,1.1458553434,3.1415926535897927,1.4350209691470657,3.1415926535897927,-2.471593905353287,-0.03718896447605677,-1.4289931348888525,0.0,0.0,0.0,374980.802908,8.98576118951E-12,1168.15658401,-1.95528030342,8.497625745,0.604724404555
1740.0,-5162974.91824,-4273547.19177,-824900.070469,1780821.04651,-6461138.39612,-826040.410293,4437.13297779,1987.99123664,-5953.04964202,-2.30521338067,8.36372790759,1.06928172851,6758662.11723,1.15023061249,3.1415926535897927,1.3667288595754248,3.1415926535897927,-2.471593905353287,-0.03718896447605677,-1.4289931348888525,0.0,0.0,0.0,374958.943572,8.97962539548E-12,1167.76482406,-2.30521338067,8.36372790759,1.06928172851
1800.0,-4952514.9884,-4435997.35904,-1179672.57443,2042694.38164,-6326902.19296,-1181022.00084,4288.58556662,2484.81882823,-5875.0731203,-2.64444941491,8.19073717181,1.5289379396,6758662.11723,1.15460588158,3.1415926535897927,1.2984321711865963,3.1415926535897927,-2.471593905353287,-0.03718896447605677,-1.4289931348888525,0.0,0.0,0.0,375081.347819,8.93499233768E-12,1166.68511611,-2.64444941491,8.19073717181,1.5289379396
1860.0,-4720417.31123,-4579802.552,-1528949.30741,2295051.38803,-6163190.82728,-1530501.5338,4120.04497215,2970.11367208,-5769.71834538,-2.97139115191,7.97945126077,1.98153241328,6758662.11723,1.15898115066,3.1415926535897927,1.2301314678929713,3.1415926535897927,-2.471593905353287,-0.03718896447605677,-1.4289931348888525,0.0,0.0,0.0,375342.737191,8.85320905418E-12,1164.92263944,-2.97139115191,7.97945126077,1.98153241328
1920.0,-4467591.65876,-4704479.19181,-1871102.5134,2536715.53753,-5970764.63424,-1872850.30781,3932.29535744,3441.60655985,-5637.47306582,-3.28449859834,7.73085029914,2.42493654487,6758662.11723,1.16335641975,3.1415926535897927,1.1618273325071107,3.1415926535897927,-2.471593905353287,-0.03718896447605677,-1.4289931348888525,0.0,0.0,0.0,375735.622232,8.7364016828E-12,1162.48681226,-3.28449859834,7.73085029914,2.42493654487
1980.0,-4195040.55576,-4809624.27078,-2204537.47528,2766560.086,-5750518.22983,-2206472.69401,3726.21137791,3897.09245199,-5478.95152616,-3.58229656936,7.4460922902,2.85706412167,6758662.11723,1.16773168884,3.1415926535897927,1.0935203640137963,3.1415926535897927,-2.471593905353287,-0.03718896447605677,-1.4289931348888525,0.0,0.0,0.0,376250.45835,8.58738226833E-12,1159.39150229,-3.58229656936,7.4460922902,2.85706412167
2040.0,-3903855.31784,-4894916.4765,-2527700.0178,2983513.38179,-5503476.34364,-2529813.64338,3502.75407406,4334.44099187,-5294.89161681,-3.86338192553,7.12650768163,3.27588150415,6758662.11723,1.17210695793,3.1415926535897927,1.0252111747495791,3.1415926535897927,-2.471593905353287,-0.03718896447605677,-1.4289931348888525,0.0,0.0,0.0,376875.83903,8.40953146521E-12,1155.65523919,-3.86338192553,7.12650768163,3.27588150415
2100.0,-3595211.6747,-4960116.9658,-2839083.82159,3186563.91498,-5230789.03119,-2841366.00481,3262.96634031,4751.60666722,-5086.15142032,-4.12643045779,6.77359304646,3.67941755973,6758662.11723,1.17648222702,3.1415926535897927,0.9569003875125133,3.1415926535897927,-2.471593905353287,-0.03718896447605677,-1.4289931348888525,0.0,0.0,0.0,377598.722345,8.20666555465E-12,1151.30142861,-4.12643045779,6.77359304646,3.67941755973
2160.0,-3270364.9962,-5005069.78779,-3137237.51245,3374765.08257,-4933726.2884,-3139677.61834,3007.96799232,5146.63856673,-4853.70517037,-4.37020338194,6.38900391095,4.06577329389,6758662.11723,1.1808574961,3.1415926535897927,0.8885886326439663,3.1415926535897927,-2.471593905353287,-0.03718896447605677,-1.4289931348888525,0.0,0.0,0.0,378404.686044,7.98289658484E-12,1146.35856574,-4.37020338194,6.38900391095,4.06577329389
2220.0,-2930645.14156,-5029701.95675,-3420771.4912,3547239.64632,-4613672.09406,-3423358.14874,2738.95045726,5517.68968151,-4598.63864334,-4.59355340568,5.9745467669,4.43313112474,6758662.11723,1.18523276519,3.1415926535897927,0.8202765450406145,3.1415926535897927,-2.471593905353287,-0.03718896447605677,-1.4289931348888525,0.0,0.0,0.0,379278.206025,7.74249400907E-12,1140.86044225,-4.59355340568,5.9745467669,4.43313112474
2280.0,-2577450.95345,-5034023.1775,-3688364.47094,3703183.86127,-4272117.90915,-3691085.62614,2457.17111372,5863.02570399,-4322.14400536,-4.79543033435,5.53217031098,4.77976374962,6758662.11723,1.18960803428,3.1415926535897927,0.7519647611716767,3.1415926535897927,-2.471593905353287,-0.03718896447605677,-1.4289931348888525,0.0,0.0,0.0,380202.952557,7.48975504853E-12,1134.84633516,-4.79543033435,5.53217031098,4.77976374962
2340.0,-2212244.42083,-5018125.22718,-3938769.68948,3841871.25495,-3910655.66432,-3941612.66178,2163.94730996,6181.03327914,-4025.5141409,-4.97488618394,5.06395595884,5.10404255435,6758662.11723,1.19398330337,3.1415926535897927,0.6836539160734556,3.1415926535897927,-2.471593905353287,-0.03718896447605677,-1.4289931348888525,0.0,0.0,0.0,381162.098391,7.22888930943E-12,1128.36115504,-4.97488618394,5.06395595884,5.10404255435
2400.0,-1836544.53614,-4982180.99909,-4170820.76717,3962656.0387,-3530970.2699,-4173772.30869,1860.6500908,6470.22766607,-3710.13649165,-5.13107977331,4.57210768613,5.40444551896,6758662.11723,1.19835857246,3.1415926535897927,0.6153446403560991,3.1415926535897927,-2.471593905353287,-0.03718896447605677,-1.4289931348888525,0.0,0.0,0.0,382138.632762,6.96392113452E-12,1121.45551427,-5.13107977331,4.57210768613,5.40444551896
2460.0,-1451920.87382,-4926443.21575,-4383437.1812,4064976.13476,-3134831.68476,-4386483.53872,1548.69766527,6729.25977126,-3377.48643729,-5.26328077062,4.05894125292,5.67956457666,6758662.11723,1.20273384154,3.1415926535897927,0.5470375572295595,3.1415926535897927,-2.471593905353287,-0.03718896447605677,-1.4289931348888525,0.0,0.0,0.0,383115.675292,6.69861096956E-12,1114.18564961,-5.26328077062,4.05894125292,5.67956457666
2520.0,-1059986.91893,-4851242.81987,-4575629.33029,4148355.80439,-2724086.58303,-4578756.30955,1229.54864842,6956.92251834,-3029.12025205,-5.37087317277,3.5268728718,5.9281123865,6758662.11723,1.20710911063,3.1415926535897927,0.4787332795696942,3.1415926535897927,-2.471593905353287,-0.03718896447605677,-1.4289931348888525,0.0,0.0,0.0,384076.783908,6.43639489124E-12,1106.6130995,-5.37087317277,3.5268728718,5.9281123865
2580.0,-662393.175639,-4756987.05301,-4746503.16519,4212407.8646,-2300649.65923,-4749696.19729,904.695111769,7152.15652278,-2666.66767347,-5.45335819984,2.978407383,6.14892848384,6758662.11723,1.21148437972,3.1415926535897927,0.4104324070280009,3.1415926535897927,-2.471593905353287,-0.03718896447605677,-1.4289931348888525,0.0,0.0,0.0,385006.251149,6.18033962638E-12,1098.80399948,-5.45335819984,2.978407383,6.14892848384
2640.0,-260820.086577,-4644157.23354,-4895264.36301,4256835.4831,-1866494.61459,-4898508.57248,575.65547802,7314.05504394,-2291.82412158,-5.51035659068,2.41612600294,6.34098477708,6758662.11723,1.21585964881,3.1415926535897927,0.3421355232181468,3.1415926535897927,-2.471593905353287,-0.03718896447605677,-1.4289931348888525,0.0,0.0,0.0,385889.383534,5.93310923105E-12,1090.82783651,-5.51035659068,2.41612600294,6.34098477708
2700.0,143029.20478,-4513306.24645,-5021222.02541,4281433.54312,-1423644.86836,-5024502.29981,243.967296296,7441.86819104,-1906.34260862,-5.54161028942,1.84267371467,6.50339036293,6758662.11723,1.2202349179,3.1415926535897927,0.2738431929705659,3.1415926535897927,-2.471593905353287,-0.03718896447605677,-1.4289931348888525,0.0,0.0,0.0,386712.759104,5.69693952857E-12,1082.75552186,-5.54161028942,1.84267371467,6.50339036293
2760.0,547436.216033,-4365055.75871,-5123791.88362,4286089.57208,-974164.039852,-5127092.9441,-88.8200654075,7535.0063634,-1512.02538078,-5.54698351642,1.26074637043,6.6353956374,6758662.11723,1.22461018698,3.1415926535897927,0.20555595967955806,3.1415926535897927,-2.471593905353287,-0.03718896447605677,-1.4289931348888525,0.0,0.0,0.0,387464.45869,5.47361785341E-12,1074.65674208,-5.54698351642,1.26074637043,6.6353956374
2820.0,950674.578557,-4200093.17523,-5202498.99515,4270784.23028,-520146.247209,-5205805.46788,-421.152773474,7593.04291018,-1110.71533498,-5.52646322134,0.673077577775,6.73639568389,6758662.11723,1.22898545607,3.1415926535897927,0.13727434276331177,3.1415926535897927,-2.471593905353287,-0.03718896447605677,-1.4289931348888525,0.0,0.0,0.0,388134.26706,5.26446868907E-12,1066.59675154,-5.52646322134,0.673077577775,6.73639568389
2880.0,1351017.54709,-4019168.35126,-5256979.92038,4235591.35791,-63706.2704561,-5260276.40827,-751.479890592,7615.71599841,-704.28725438,-5.48015891954,0.0824254411652,6.80593292463,6758662.11723,1.23336072516,3.1415926535897927,0.06899883523492921,-3.1415926535897927,-2.471593905353287,-0.03718896447605677,-1.4289931348888525,0.0,0.0,0.0,388713.840609,5.0703496281E-12,1058.6330516,-5.48015891954,0.0824254411652,6.80593292463
2940.0,1746745.532,-3823090.07806,-5286984.36911,4180677.58104,393030.373695,-5290255.52374,-1078.26070948,7602.92968311,-294.638907134,-5.40830191683,-0.508440768804,6.84369902604,6758662.11723,1.23773599425,3.1415926535897927,7.299013996074736E-4,-3.1415926535897927,-2.471593905353287,-0.03718896447605677,-1.4289931348888525,0.0,0.0,0.0,389196.838942,4.89166478687E-12,1050.81264739,-5.40830191683,-0.508440768804,6.84369902604
3000.0,2136153.61998,-3612722.35949,-5292376.31056,4106301.47935,847937.39722,-5295606.9037,-1399.97202195,7554.75417709,116.317946674,-5.31124393136,-1.09675394702,6.84953605368,6758662.11723,1.24211126334,3.1415926535897927,-0.06753202530295488,-3.1415926535897927,-2.471593905353287,-0.03718896447605677,-1.4289931348888525,0.0,0.0,0.0,389579.018289,4.72840200403E-12,1043.17061153,-5.31124393136,-1.09675394702,6.84953605368
3060.0,2517559.04894,-3388980.49772,-5273134.54234,4012812.3205,1298897.69838,-5276309.53698,-1715.11528751,7471.4253227,526.666594845,-5.18945512471,-1.67976241572,6.82343687653,6758662.11723,1.24648653242,3.1415926535897927,-0.1357865443098404,3.1415926535897927,-2.471593905353287,-0.03718896447605677,-1.4289931348888525,0.0,0.0,0.0,389858.285387,4.5801948662E-12,1035.73039825,-5.18945512471,-1.67976241572,6.82343687653
3120.0,2889308.60313,-3152827.00713,-5229352.71723,3900648.36831,1743813.26381,-5232457.33761,-2022.22366647,7353.34327161,934.494414725,-5.04352155781,-2.25474304741,6.76554482506,6758662.11723,1.25086180151,3.1415926535897927,-0.20403328978761462,-3.1415926535897927,-2.471593905353287,-0.03718896447605677,-1.4289931348888525,0.0,0.0,0.0,390034.7111,4.44640287045E-12,1028.50581833,-5.04352155781,-2.25474304741,6.76554482506
3180.0,3249785.89493,-2905267.37568,-5161238.82875,3770334.77393,2180614.96794,-5164258.62914,-2319.86888361,7201.07038306,1337.90187218,-4.87414209014,-2.81901418174,6.67615261189,6758662.11723,1.2552370706,3.1415926535897927,-0.2722719323163768,3.1415926535897927,-2.471593905353287,-0.03718896447605677,-1.4289931348888525,0.0,0.0,0.0,390110.503745,4.32619711232E-12,1021.50406958,-4.87414209014,-2.81901418174,6.67615261189
3240.0,3597418.50042,-2647345.69357,-5069114.15954,3622481.06096,2607272.22312,-5072035.0914,-2606.66788966,7015.32835501,1735.01143397,-4.68212474387,-3.36994827148,6.55570052779,6758662.11723,1.25961233969,3.1415926535897927,-0.34050218039961283,3.1415926535897927,-2.471593905353287,-0.03718896447605677,-1.4289931348888525,0.0,0.0,0.0,390089.94273,4.21863810765E-12,1014.72898684,-4.68212474387,-3.36994827148,6.55570052779
3300.0,3930684.91648,-2380140.16912,-4953411.69894,3457778.21787,3021802.43515,-4956220.17625,-2881.28928911,6796.99460607,2123.9763506,-4.46838255712,-3.90498419548,6.40477392979,6758662.11723,1.26398760878,3.1415926535897927,-0.4087237817953579,-3.1415926535897927,-2.471593905353287,-0.03718896447605677,-1.4289931348888525,0.0,0.0,0.0,389979.273774,4.12273655827E-12,1008.18379823,-4.46838255712,-3.90498419548,6.40477392979
3360.0,4248121.30806,-2104758.55224,-4814674.03892,3276995.41243,3422280.2197,-4817357.0012,-3142.4595046,6547.09793026,2502.98926769,-4.2339289529,-4.42163917965,6.22410004192,6758662.11723,1.26836287786,3.1415926535897927,-0.47693652465729275,-3.1415926535897927,-2.471593905353287,-0.03718896447605677,-1.4289931348888525,0.0,0.0,0.0,389786.567639,4.0374940666E-12,1001.87300306,-4.2339289529,-4.42163917965,6.22410004192
3420.0,4548328.01547,-1822333.48559,-4653550.75969,3080976.34491,3806846.33689,-4656095.73263,-3388.96864965,6266.81344962,2870.29062535,-3.97987265256,-4.91752027039,6.01454409236,6758662.11723,1.27273814695,3.1415926535897927,-0.5451402384789668,-3.1415926535897927,-2.471593905353287,-0.03718896447605677,-1.4289931348888525,0.0,0.0,0.0,389521.544878,3.96192588275E-12,995.80331902,-3.97987265256,-4.91752027039,6.01454409236
3480.0,4829975.79243,-1534017.80365,-4470795.31905,2870635.25837,4173716.30259,-4473190.47225,-3619.6760832,5957.45689307,3224.17680656,-3.70741216439,-5.39033530847,5.77710481403,6758662.11723,1.27711341604,3.1415926535897927,-0.6133347948617429,-3.1415926535897927,-2.471593905353287,-0.03718896447605677,-1.4289931348888525,0.0,0.0,0.0,389195.369732,3.89507036472E-12,989.983858481,-3.70741216439,-5.39033530847,5.77710481403
3540.0,5091811.74723,-1240979.79992,-4267261.46147,2646952.62573,4521188.6371,-4269495.66324,-3833.51562167,5620.47823318,3563.00799723,-3.4178298796,-5.83790335535,5.51290933839,6758662.11723,1.28148868513,3.1415926535897927,-0.6815201080541042,-3.1415926535897927,-2.471593905353287,-0.03718896447605677,-1.4289931348888525,0.0,0.0,0.0,388820.416842,3.83599024602E-12,984.425772496,-3.4178298796,-5.83790335535,5.51290933839
3600.0,5332664.96062,-944398.48182,-4043899.16547,2410970.53513,4847652.71354,-4045962.03427,-4029.50038567,5257.45471481,3885.2157225,-3.11248580948,-6.25816452766,5.22320751493,6758662.11723,1.28586395422,3.1415926535897927,-0.7496961353199187,-3.1415926535897927,-2.471593905353287,-0.03718896447605677,-1.4289931348888525,0.0,0.0,0.0,388410.014959,3.78376998763E-12,979.141589629,-3.11248580948,-6.25816452766,5.22320751493
3660.0,5551451.75548,-645458.833004,-3801750.14953,2163787.7958,5151596.17072,-3803632.10189,-4206.72726119,4870.08331244,4189.31002579,-2.7928109981,-6.6491892002,4.90936569081,6758662.11723,1.2902392233,3.1415926535897927,-0.8178628770920282,-3.1415926535897927,-2.471593905353287,-0.03718896447605677,-1.4289931348888525,0.0,0.0,0.0,387978.172269,3.73751229014E-12,974.144424896,-2.7928109981,-6.6491892002,4.90936569081
3720.0,5747180.5952,-345347.10215,-3541942.95901,1906554.7884,5431611.85718,-3543635.25372,-4364.3809566,4460.17265522,4473.88625938,-2.46030064639,-7.00918654134,4.57285998723,6758662.11723,1.29461449239,3.1415926535897927,-0.886020376919888,-3.1415926535897927,-2.471593905353287,-0.03718896447605677,-1.4289931348888525,0.0,0.0,0.0,387539.288378,3.69633571359E-12,969.447175251,-2.46030064639,-7.00918654134,4.57285998723
3780.0,5918956.58916,-45246.1367517,-3265687.65822,1640468.08441,5686404.27585,-3267182.43658,-4501.73763939,4029.63446069,4737.63145745,-2.11650698341,-7.33651234958,4.21526911059,6758662.11723,1.29898976148,3.1415926535897927,-0.954168721228712,-3.1415926535897927,-2.471593905353287,-0.03718896447605677,-1.4289931348888525,0.0,0.0,0.0,387107.858265,3.65937448086E-12,965.061769014,-2.11650698341,-7.33651234958,4.21526911059
3840.00000001,6065985.58576,253669.219936,-2974270.15348,1366764.86033,5914795.50107,-2975560.4754,-4618.16813851,3580.47451995,4979.33026473,-1.76303192131,-7.62967616384,3.8382667379,6758662.11723,1.30336503057,3.1415926535897927,-1.022308038876159,-3.1415926535897927,-2.471593905353287,-0.03718896447605677,-1.4289931348888525,0.0,0.0,0.0,386698.173768,3.62578091709E-12,960.998501349,-1.76303192131,-7.62967616384,3.8382667379
3900.00000001,6187577.83496,550236.651405,-2669046.17456,1086717.13305,6115730.54229,-2670126.05039,-4713.14070037,3114.78327863,5197.87039659,-1.40151953039,-7.88734762431,3.44361351674,6758662.11723,1.30774029966,3.1415926535897927,-1.0904385005083057,-3.1415926535897927,-2.471593905353287,-0.03718896447605677,-1.4289931348888525,0.0,0.0,0.0,386324.028292,3.59473054627E-12,957.265465419,-1.40151953039,-7.88734762431,3.44361351674
3960.00000001,6283151.20459,843310.793085,-2351434.94331,801625.843487,6288282.13173,-2352299.36125,-4786.22328896,2634.72605916,5392.24760857,-1.03364837064,-8.10836206489,3.03314872114,6758662.11723,1.31211556874,3.1415926535897927,-1.1585603177375976,-3.1415926535897927,-2.471593905353287,-0.03718896447605677,-1.4289931348888525,0.0,0.0,0.0,385998.43044,3.5654295604E-12,953.86807594,-1.03364837064,-8.10836206489,3.03314872114
4020.00000001,6352233.93641,1131767.54422,-2022912.55937,512814.816126,6431654.91571,-2023557.50832,-4837.08542237,2142.53297092,5561.57015598,-0.661123715771,-8.29172532212,2.6087816048,6758662.11723,1.31649083783,3.1415926535897927,-1.2266737421183396,-3.1415926535897927,-2.471593905353287,-0.03718896447605677,-1.4289931348888525,0.0,0.0,0.0,385733.33217,3.53712414763E-12,950.808675334,-0.661123715771,-8.29172532212,2.6087816048
4080.00000001,6394466.92992,1414508.25115,-1685005.13421,221624.622359,6545189.03245,-1685427.62199,-4865.49954043,1640.48855565,5705.06272661,-0.285669705401,-8.43661774938,2.17248249371,6758662.11723,1.32086610692,3.1415926535897927,-1.2947790639459105,-3.1415926535897927,-2.471593905353287,-0.03718896447605677,-1.4289931348888525,0.0,0.0,0.0,385539.376893,3.50911098672E-12,948.086209909,-0.285669705401,-8.43661774938,2.17248249371
4140.00000001,6409605.54408,1690463.74767,-1339281.70537,-70593.6240306,6628363.06181,-1339479.77225,-4871.34190026,1130.9212161,5822.06983233,0.0909785397676,-8.54239742886,1.72627365999,6758662.11723,1.32524137601,3.1415926535897927,-1.3628766108936592,-3.1415926535897927,-2.471593905353287,-0.03718896447605677,-1.4289931348888525,0.0,0.0,0.0,385425.67258,3.4807480787E-12,945.695962642,0.0909785397676,-8.54239742886,1.72627365999
4200.00000001,6397520.90908,1958598.23877,-987346.963921,-362484.510942,6680796.33552,-987319.691262,-4854.59299842,616.192476029,5912.05864751,0.467082805465,-8.60860257732,1.27222001869,6758662.11723,1.3296166451,3.1415926535897927,-1.4309667464613098,-3.1415926535897927,-2.471593905353287,-0.03718896447605677,-1.4289931348888525,0.0,0.0,0.0,385399.594481,3.45146499499E-12,943.629328929,0.467082805465,-8.60860257732,1.27222001869
4260.00000001,6358200.74227,2217913.01525,-630833.828326,-652694.583172,6702250.59907,-630581.342573,-4815.33752059,98.6861201851,5974.62128502,0.84090964078,-8.63495314499,0.81241968899,6758662.11723,1.33399191418,3.1415926535897927,-1.4990498682697726,-3.1415926535897927,-2.471593905353287,-0.03718896447605677,-1.4289931348888525,0.0,0.0,0.0,385466.62155,3.42077158171E-12,941.873621222,0.84090964078,-8.63495314499,0.81241968899
4320.00000001,6291749.66465,2467449.98736,-271395.898949,-939878.580496,6692631.01966,-270919.370684,-4753.76382153,-419.202737576,6009.47650283,1.21073815209,-8.6213516102,0.348994460598,6758662.11723,1.33836718327,3.1415926535897927,-1.5671264062128405,-3.1415926535897927,-2.471593905353287,-0.03718896447605677,-1.4289931348888525,0.0,0.0,0.0,385630.209941,3.38826430033E-12,940.411895303,1.21073815209,-8.6213516102,0.348994460598
4380.00000001,6198389.01619,2706295.02659,89300.1727204,-1222705.63058,6651986.53731,89998.5344871,-4670.16294012,-935.078609819,6016.47083678,1.57486770262,-8.56788297515,-0.115919794349,6758662.11723,1.34274245236,5.196947517364902E-14,-1.5063958331379859,-4.781838638907817E-14,-2.471593905353287,-0.03718896447605677,-1.4289931348888525,0.0,0.0,0.0,385891.706265,3.35372002253E-12,939.228939146,1.57486770262,-8.56788297515,-0.115919794349
4440.00000001,6078456.17037,2933581.10581,449582.365546,-1499865.36899,6580509.55907,450499.323873,-4564.92715604,-1446.55656705,5995.57915741,1.93162548735,-8.47481397122,-0.58018272441,6758662.11723,1.34711772145,3.5882257220718616E-14,-1.4383310543141015,-3.270381423106667E-14,-2.471593905353287,-0.03718896447605677,-1.4289931348888525,0.0,0.0,0.0,386250.302421,3.31725062229E-12,938.321964238,1.93162548735,-8.47481397122,-0.58018272441
4500.00000001,5932403.35046,3148491.22884,807780.986408,-1770073.95908,6478534.99924,808912.291643,-4438.54809634,-1951.27309811,5946.90465112,2.27937395415,-8.3425914847,-1.04165907831,6758662.11723,1.35149299054,3.1422652094102645E-14,-1.3702713967382825,-2.7137744990361376E-14,-2.471593905353287,-0.03718896447605677,-1.4289931348888525,0.0,0.0,0.0,386703.032995,3.27908327458E-12,937.68637922,2.27937395415,-8.3425914847,-1.04165907831
4560.00000001,5760795.95194,3350261.14124,1162236.3496,-2032079.98499,6346538.67133,1163576.75926,-4291.61440214,-2446.89685304,5870.67822823,2.61651804297,-8.1718402162,-1.49822822303,6758662.11723,1.35586825962,2.32200671130799E-14,-1.302216322749636,-1.9389279013934054E-14,-2.471593905353287,-0.03718896447605677,-1.4289931348888525,0.0,0.0,0.0,387244.815303,3.23951095728E-12,937.31308861,2.61651804297,-8.1718402162,-1.49822822303
4620.00000001,5564310.37755,3538181.8156,1511306.40374,-2284670.19177,6185135.04001,1512849.70691,-4124.80896706,-2931.1392229,5767.25736267,2.94151221641,-7.96335958944,-1.94779356359,6758662.11723,1.36024352871,2.0251011595453895E-14,-1.234165273663032,-1.6217615095171817E-14,-2.471593905353287,-0.03718896447605677,-1.4289931348888525,0.0,0.0,0.0,387868.53129,3.19888148299E-12,937.188585775,2.94151221641,-7.96335958944,-1.94779356359
4680.00000001,5343731.39336,3711601.70492,1853374.27225,-2526675.04725,5995074.34437,1855113.31849,-3938.90576077,-3401.76471209,5637.12437041,3.25286725589,-7.71811992707,-2.38829182891,6758662.11723,1.3646187978,1.6918827551070535E-14,-1.1661176723487017,-1.2460011540221633E-14,-2.471593905353287,-0.03718896447605677,-1.4289931348888525,0.0,0.0,0.0,388565.149624,3.15757683016E-12,937.294528027,3.25286725589,-7.71811992707,-2.38829182891
4740.00000001,5099949.01623,3869928.75911,2186855.67412,-2756974.1013,5777239.10612,2188782.40663,-3734.76625239,-3856.60105964,5480.88413557,3.54915679872,-7.43725791317,-2.81770218869,6758662.11723,1.36899406689,1.1826117875545908E-14,-1.098072925879901,-7.787559580424603E-15,-2.471593905353287,-0.03718896447605677,-1.4289931348888525,0.0,0.0,0.0,389323.885482,3.11596283809E-12,937.605259995,3.54915679872,-7.43725791317,-2.81770218869
4800.00000001,4833954.94484,4012632.20032,2510206.19206,-2974501.11882,5532640.03908,2512311.685,-3513.33544997,-4293.54906743,5299.26129543,3.82902359293,-7.12207136408,-3.2340551677,6758662.11723,1.37336933598,8.734394908297457E-15,-1.0300304282521333,-5.96445948599008E-15,-2.471593905353287,-0.03718896447605677,-1.4289931348888525,0.0,0.0,0.0,390132.394821,3.07435217165E-12,938.086179365,3.82902359293,-7.12207136408,-3.2340551677
4860.00000001,4546838.54842,4139244.05376,2821928.35603,-3178248.9641,5262411.3788,2824202.85585,-3275.63757385,-4710.59209447,5093.09689754,4.09118544736,-6.77401333066,-3.63544132469,6758662.11723,1.37774460506,7.7653040248176E-15,-0.9619895631634602,-4.2830505011798945E-15,-2.471593905353287,-0.03718896447605677,-1.4289931348888525,0.0,0.0,0.0,390976.99921,3.03418000935E-12,938.781374305,4.09118544736,-6.77401333066,-3.63544132469
4920.00000001,4239782.42886,4249360.43154,3120578.51088,-3367274.215,4967805.65358,3123011.48142,-3022.77138254,-5105.8051779,4863.34454389,4.33444085595,-6.39468555705,-4.02001966409,6758662.11723,1.38211987415,6.735736991637942E-15,-0.8939497068419334,-3.113062655675605E-15,-2.471593905353287,-0.03718896447605677,-1.4289931348888525,0.0,0.0,0.0,391842.936768,2.99715450858E-12,939.756422715,4.33444085595,-6.39468555705,-4.02001966409
4980.00000001,3914057.57391,4342642.56813,3404773.43795,-3540701.48677,4650187.92029,3407353.60914,-2755.90517152,-5477.36374286,4611.06603918,4.55767427605,-5.98583132249,-4.38602574993,6758662.11723,1.38649514324,6.632958161363796E-15,-0.8259102308922277,-3.792455245039224E-15,-2.471593905353287,-0.03718896447605677,-1.4289931348888525,0.0,0.0,0.0,392714.634271,2.96475721796E-12,941.062957605,4.55767427605,-5.98583132249,-4.38602574993
5040.00000001,3571018.12061,4418817.60653,3673196.70132,-3697727.44658,4311029.49095,3675912.12124,-2476.27146614,-5823.55186503,4337.42656198,4.75986104189,-5.54932769406,-4.73177949215,6758662.11723,1.39087041233,5.197233786966945E-15,-0.7578705051841608,-3.425015280561683E-15,-2.471593905353287,-0.03718896447605677,-1.4289931348888525,0.0,0.0,0.0,393575.995165,2.9383651039E-12,942.74756366,4.75986104189,-5.54932769406,-4.73177949215
5100.00000001,3212095.7497,4477679.13556,3924604.69079,-3837624.50091,3951901.17771,3927442.78085,-2185.16143113,-6142.77005143,4043.68937919,4.94007189515,-5.08717722014,-5.05569257674,6758662.11723,1.39524568142,7.484446369301704E-15,-0.6898299007272503,-3.8681633879925725E-15,-2.471593905353287,-0.03718896447605677,-1.4289931348888525,0.0,0.0,0.0,394410.697979,2.91929535405E-12,944.854844169,4.94007189515,-5.08717722014,-5.05569257674
5160.00000001,2838793.73354,4519087.47898,4157832.33478,-3959744.13965,3574466.08639,4160779.94782,-1883.91902024,-6433.54250685,3731.2101261,5.09747711592,-4.6014990955,-5.35627551185,6758662.11723,1.39962095051,7.375641252433077E-15,-0.6217877925557425,-3.7987967098746405E-15,-2.471593905353287,-0.03718896447605677,-1.4289931348888525,0.0,0.0,0.0,395202.499547,2.90883760332E-12,947.429232731,5.09747711592,-4.6014990955,-5.35627551185
5220.00000001,2452680.66113,4542969.73843,4371798.45793,-4063519.922,3180471.99013,4374841.93887,-1573.93489026,-6694.52385504,3401.43067591,5.23135023802,-4.09451983058,-5.63214426347,6758662.11723,1.40399621959,7.179050769089918E-15,-0.5537435625822272,-3.760843641525104E-15,-2.471593905353287,-0.03718896447605677,-1.4289931348888525,0.0,0.0,0.0,395935.537425,2.90828290847E-12,950.516202765,5.23135023802,-4.09451983058,-5.63214426347
5280.00000001,2055383.86564,4549319.5926,4565510.7594,-4148470.09074,2771743.31692,4568636.0083,-1256.64010515,-6924.50528615,3055.87262399,5.34107133428,-3.56856345886,-5.8820264548,6758662.11723,1.40837148868,8.725109131168296E-15,-0.48569660244077767,-5.406115280014218E-15,-2.471593905353287,-0.03718896447605677,-1.4289931348888525,0.0,0.0,0.0,396594.626012,2.91894962574E-12,954.162871194,5.34107133428,-3.56856345886,-5.8820264548
5340.00000001,1648582.58078,4538196.85595,4738070.38967,-4214199.80313,2350172.78614,4741262.9268,-933.499656144,-7122.42010356,2696.13041397,5.42612985797,-3.02604131792,-6.10476710489,6758662.11723,1.41274675777,9.716997552985191E-15,-0.417646316265515,-5.374714271505569E-15,-2.471593905353287,-0.03718896447605677,-1.4289931348888525,0.0,0.0,0.0,397165.541087,2.94220226063E-12,958.41769949,5.42612985797,-3.02604131792,-6.10476710489
5400.00000001,1234000.85375,4509726.80105,4888676.1051,-4260402.96815,1917712.73092,4891921.13779,-606.005825092,-7287.34864573,2323.86413382,5.48612702795,-2.46944144101,-6.29933388303,6758662.11723,1.41712202686,1.228969228339449E-14,-0.3495921234290306,-5.908505905477784E-15,-2.471593905353287,-0.03718896447605677,-1.4289931348888525,0.0,0.0,0.0,397635.287741,2.97945624016E-12,963.328798147,5.48612702795,-2.46944144101,-6.29933388303
5460.00000001,813400.243808,4464099.24923,5016627.98145,-4286863.68153,1476366.14452,5019910.47242,-275.671418609,-7418.52256082,1940.79201188,5.52077774633,-1.90131759758,-6.46482185663,6758662.11723,1.42149729595,1.144166006093549E-14,-0.28153346120924816,-6.027819015694552E-15,-2.471593905353287,-0.03718896447605677,-1.4289931348888525,0.0,0.0,0.0,397992.347058,3.0321592582E-12,968.940263737,5.52077774633,-1.90131759758,-6.46482185663
5520.00000001,388572.336006,4401567.43492,5121330.66924,-4293457.25169,1028177.49014,5124635.40604,55.9770985216,-7515.32841418,1548.68264364,5.5299120386,-1.32427802287,-6.60045771136,6758662.11723,1.42587256503,1.2098490163603126E-14,-0.21346978737774774,-6.805400717027848E-15,-2.471593905353287,-0.03718896447605677,-1.4289931348888525,0.0,0.0,0.0,398226.897326,3.10173978898E-12,975.286154449,5.5299120386,-1.32427802287,-6.60045771136
5580.00000001,-38668.8987572,4322446.64981,5202296.17572,-4280150.81135,575223.314713,5205607.84101,387.406541821,-7577.31061137,1149.34698168,5.51347600736,-0.740973877866,-6.70560342383,6758662.11723,1.43024783412,1.2735416137001699E-14,-0.14540058270047312,-5.848753886706169E-15,-2.471593905353287,-0.03718896447605677,-1.4289931348888525,0.0,0.0,0.0,398331.005993,3.18951795849E-12,982.382306354,5.51347600736,-0.740973877866,-6.70560342383
5640.00000001,-466494.865928,4227112.67352,5259146.16031,-4247003.51145,119602.708288,5262449.4027,717.083988026,-7604.17362171,744.630122135,5.47153229246,-0.154087482833,-6.77975936839,6758662.11723,1.43462310321,1.3306927785543338E-14,-0.07732535332883296,-7.561703472278884E-15,-2.471593905353287,-0.03718896447605677,-1.4289931348888525,0.0,0.0,0.0,398298.78915,3.29658512187E-12,990.217249976,5.47153229246,-0.154087482833,-6.77975936839
5700.00000001,-893070.199265,4115999.99794,5291613.73233,-4194166.29559,-336572.348753,5294893.23735,1043.48376865,-7595.78349017,336.402922189,5.40426003154,0.433679631157,-6.82256684099,6758662.11723,1.4389983723,1.348978606081312E-14,-0.00924363309034083,-7.522082350788048E-15,-2.471593905353287,-0.03718896447605677,-1.4289931348888525,0.0,0.0,0.0,398126.535827,3.42367473266E-12,998.744692521,5.40426003154,0.433679631157,-6.82256684099
5760.00000001,-1316560.66962,3989599.8534,5299544.74184,-4121881.25539,-791186.707578,5302785.30284,1365.09444609,-7552.1686281,-73.4465160518,5.31195431658,1.01961880659,-6.83380998483,6758662.11723,1.44337364139,1.3790635278914153E-14,0.05884501435241264,-7.121222703250556E-15,-2.471593905353287,-0.03718896447605677,-1.4289931348888525,0.0,0.0,0.0,397812.794976,3.57106093847E-12,1007.88062989,5.31195431658,1.01961880659,-6.83380998483
5820.00000001,-1735141.11704,3848458.04486,5282898.55682,-4030480.56838,-1242131.79842,5286085.14536,1680.42574188,-7473.51987588,-483.021458885,5.19502514392,1.60102643231,-6.81341710429,6758662.11723,1.44774891047,1.3039012668802583E-14,0.12694099347176724,-7.28198078767276E-15,-2.471593905353287,-0.03718896447605677,-1.4289931348888525,0.0,0.0,0.0,397358.423623,3.7385213555E-12,1017.50731979,5.19502514392,1.60102643231,-6.81341710429
5880.00000001,-2147003.37238,3693172.60724,5241748.32183,-3920385.02255,-1687315.35993,5244866.15734,1988.01538684,-7360.18983391,-890.425214539,5.0539958566,2.17521615575,-6.76146135523,6758662.11723,1.45212417956,1.3749921851697977E-14,0.19504467498776873,-6.0898573633216815E-15,-2.471593905353287,-0.03718896447605677,-1.4289931348888525,0.0,0.0,0.0,396766.595257,3.92538015518E-12,1027.48400002,5.0539958566,2.17521615575,-6.76146135523
5940.00000001,-2550364.1343,3524391.28931,5176280.69576,-3792102.13293,-2124671.10633,5179315.31406,2286.43586238,-7212.69146083,-1293.76982917,4.88950108006,2.73953108461,-6.67816080219,6758662.11723,1.45649944865,1.2015478871891594E-14,0.2631563941329623,-6.564677003270698E-15,-2.471593905353287,-0.03718896447605677,-1.4289931348888525,0.0,0.0,0.0,396042.768155,4.13061467529E-12,1037.66151364,4.88950108006,2.73953108461,-6.67816080219
6000.00000001,-2943472.76749,3342808.87618,5086795.06833,-3646223.85764,-2552168.28866,5089732.38875,2574.30100298,-7031.69594127,-1691.18476707,4.70228415407,3.29135592625,-6.56387783486,6758662.11723,1.46087471774,1.197540202674673E-14,0.3312764490736378,-6.989320116721047E-15,-2.471593905353287,-0.03718896447605677,-1.4289931348888525,0.0,0.0,0.0,395194.613969,4.35298276682E-12,1047.89658813,4.70228415407,3.29135592625,-6.56387783486
6060.00000001,-3324618.98799,3149164.36069,4973702.25762,-3483423.92288,-2967821.10616,4976528.64844,2850.27242952,-6818.02982845,-2080.82553658,4.49319406585,3.8281290127,-6.41911793876,6758662.11723,1.46524998683,1.1990458123711134E-14,0.3994050995025707,-6.556340324547426E-15,-2.471593905353287,-0.03718896447605677,-1.4289931348888525,0.0,0.0,0.0,394231.907527,4.59112467507E-12,1058.06221171,4.49319406585,3.8281290127,-6.41911793876
6120.00000001,-3692140.40164,2944237.97472,4837522.69291,-3304454.76758,-3369697.92476,4840225.03469,3113.06578376,-6572.67147001,-2460.8822227,4.26318189139,4.34735415755,-6.24452781759,6758662.11723,1.46962525591,1.0198328357965392E-14,0.4675425654010598,-8.406625090806589E-15,-2.471593905353287,-0.03718896447605677,-1.4289931348888525,0.0,0.0,0.0,393166.379416,4.84361130426E-12,1068.05264919,4.26318189139,4.34735415755,-6.24452781759
6180.00000001,-4044429.86193,2728848.09142,4678884.08963,-3110144.12077,-3755930.25982,4681449.83629,3361.45673485,-6296.74672878,-2829.5878877,4.01329675464,4.84661229097,-6.04089286716,6758662.11723,1.474000525,9.618556523350326E-15,0.5356890259864941,-9.041604517113075E-15,-2.471593905353287,-0.03718896447605677,-1.4289931348888525,0.0,0.0,0.0,392011.533561,5.10893581089E-12,1077.78371233,4.01329675464,4.84661229097,-6.04089286716
6240.00000001,-4379942.61426,2503848.01022,4498518.62547,-2901391.22606,-4124721.48142,4500935.86271,3594.2867292,-5991.52401358,-3185.22680065,3.74468131612,5.32357281808,-5.80913400399,6758662.11723,1.47837579409,9.238835540113989E-15,0.603844618839688,-7.717293738119747E-15,-2.471593905353287,-0.03718896447605677,-1.4289931348888525,0.0,0.0,0.0,390782.432571,5.38546365075E-12,1087.18999397,3.74468131612,5.32357281808,-5.80913400399
6300.00000001,-4697203.19389,2270122.6363,4297259.62913,-2679162.72958,-4474355.20112,4299517.13002,3810.46845586,-5658.40863806,-3526.14245756,3.45856680525,5.77600464603,-5.55030385439,6758662.11723,1.48275106318,9.079580002698418E-15,0.6720094392294383,-8.569740305285274E-15,-2.471593905353287,-0.03718896447605677,-1.4289931348888525,0.0,0.0,0.0,389495.454263,5.67136269718E-12,1096.22083778,3.45856680525,5.77600464603,-5.55030385439
6360.00000001,-4994812.04601,2028585.06697,4076037.79533,-2444488.24916,-4803203.30081,4078125.0727,4008.99100062,-5298.93652931,-3850.74535382,3.15626761312,6.20178682501,-5.26558231304,6758662.11723,1.48712633227,8.345339317005427E-15,0.7401835396203428,-8.359436173961802E-15,-2.471593905353287,-0.03718896447605677,-1.4289931348888525,0.0,0.0,0.0,388168.023264,5.96453287662E-12,1104.83630794,3.15626761312,6.20178682501,-5.26558231304
6420.00000001,-5271451.83686,1780173.09724,3835876.94211,-2198455.6443,-5109733.56495,3837784.29759,4188.92466288,-4914.7673109,-4157.52047161,2.83917546489,6.59891874888,-4.95627148337,6758662.11723,1.49150160135,8.037169905365458E-15,0.8083669293970366,-1.031771686600442E-14,-2.471593905353287,-0.03718896447605677,-1.4289931348888525,0.0,0.0,0.0,386818.322156,6.26254913159E-12,1113.0038162,2.83917546489,6.59891874888,-4.95627148337
6480.00000001,-5525893.42659,1525845.65752,3577889.32859,-1942206.00776,-5392516.87992,3579607.89799,4349.42541091,-4507.67678852,-4445.03444548,2.50875319372,6.96552986174,-4.62379001531,6758662.11723,1.49587687044,7.027836844493224E-15,0.8765595747664547,-1.1474462008443175E-14,-2.471593905353287,-0.03718896447605677,-1.4289931348888525,0.0,0.0,0.0,385464.987041,6.56262603837E-12,1120.69560478,2.50875319372,6.96552986174,-4.62379001531
6540.00000002,-5757001.4749,1266579.19609,3303270.55352,-1676928.40143,-5650233.96527,3304792.3484,4489.73895208,-4079.5488692,-4711.94237066,2.16652814048,7.29988881794,-4.26966685946,6758662.11723,1.50025213953,6.442267905033391E-15,0.9447613988782597,-1.0764745451594249E-14,-2.471593905353287,-0.03718896447605677,-1.4289931348888525,0.0,0.0,0.0,384126.792817,6.86160842013E-12,1127.88702314,2.16652814048,7.29988881794,-4.26966685946
6600.00000002,-5963739.65288,1003364.01964,3013294.05716,-1403854.3599,-5881681.60392,3014612.00232,4609.2043966,-3632.36694881,-4956.9942196,1.81408520624,7.60041204429,-3.89553446009,6758662.11723,1.50462740862,6.501837348716773E-15,1.0129722821355098,-1.0231217844084865E-14,-2.471593905353287,-0.03718896447605677,-1.4289931348888525,0.0,0.0,0.0,382822.333747,7.15598971722E-12,1134.55542921,1.81408520624,7.60041204429,-3.89553446009
6660.00000002,-6145175.43517,737200.604859,2709305.25092,-1124252.18709,-6085778.34074,2710413.21771,4707.25749461,-3168.20480485,-5179.04083401,1.45305958683,7.86567165523,-3.50312141305,6758662.11723,1.50900267771,3.1280426364576802E-15,1.081192062707786,-1.3426975467823837E-14,-2.471593905353287,-0.03718896447605677,-1.4289931348888525,0.0,0.0,0.0,381569.705136,7.44195810878E-12,1140.67952686,1.45305958683,7.86567165523,-3.50312141305
6720.00000002,-6300484.4489,469095.894289,2392715.30112,-839421.071709,-6261569.62072,2393608.13634,4783.43342878,-2689.21703502,-5377.03946085,1.0851292214,8.0944026738,-3.09424461794,6758662.11723,1.51337794679,3.8001231040461805E-15,1.1494205372502682,-1.3843305593318568E-14,-2.471593905353287,-0.03718896447605677,-1.4289931348888525,0.0,0.0,0.0,380386.192012,7.71546883982E-12,1146.23897034,1.0851292214,8.0944026738,-3.09424461794
6780.00000002,-6428954.35731,200059.58982,2064994.59522,-550685.049096,-6408232.34096,2065668.14547,4837.36914588,-2197.62908436,-5550.05880334,0.71200698895,8.28550951414,-2.67080095753,6758662.11723,1.51775321588,-1.926106885652931E-15,1.2176574618078144,-2.135771645607145E-14,-2.471593905353287,-0.03718896447605677,-1.4289931348888525,0.0,0.0,0.0,379287.970735,7.97233944067E-12,1151.21408929,0.71200698895,8.28550951414,-2.67080095753
6840.00000002,-6529988.25818,-68899.5431589,1727665.9203,-259386.837224,-6525078.79305,1728117.05171,4868.80521362,-1695.72690678,-5697.28355922,0.335432689132,8.43807168389,-2.23475854054,6758662.11723,1.52212848497,-4.345210429437556E-15,1.2859025529197556,-2.4120855622436255E-14,-2.471593905353287,-0.03718896447605677,-1.4289931348888525,0.0,0.0,0.0,378289.829283,8.20836158832E-12,1155.58556369,0.335432689132,8.43807168389,-2.23475854054
6900.00000002,-6603107.57911,-336777.347722,1382297.38536,33118.42411,-6611559.97539,1382523.99857,4877.58719077,-1185.84630873,-5818.01842161,-0.0428351543324,8.55134866875,-1.78814754743,6758662.11723,1.52650375406,3.8737682844043005E-16,1.354155488916675,-1.949796703149699E-14,-2.471593905353287,-0.03718896447605677,-1.4289931348888525,0.0,0.0,0.0,377404.91173,8.41943450714E-12,1159.33446243,-0.0428351543324,8.55134866875,-1.78814754743
6960.00000002,-6647954.45414,-602577.910513,1030495.12036,325469.50147,-6667268.25785,1030496.16065,4863.66650119,-670.362025153,-5911.69151973,-0.421027627629,8.62478396499,-1.33305072162,6758662.11723,1.53087902315,-9.387251569588872E-17,1.4224159113777566,-1.9830568940781582E-14,-2.471593905353287,-0.03718896447605677,-1.4289931348888525,0.0,0.0,0.0,376644.492032,8.60172604119E-12,1162.44313616,-0.421027627629,8.62478396499,-1.33305072162
7020.00000002,-6664293.56828,-865317.147179,673895.786178,616305.433341,-6691939.38418,673671.248721,4827.10080469,-151.676579898,-5977.85727953,-0.797373856485,8.65800823011,-0.87159355173,6758662.11723,1.53525429223,-1.0838332306312533E-14,1.490683426795832,-3.117104371295289E-14,-2.471593905353287,-0.03718896447605677,-1.4289931348888525,0.0,0.0,0.0,376017.781688,8.75183116957E-12,1164.89595985,-0.797373856485,8.65800823011,-0.87159355173
7080.00000002,-6652013.45928,-1124026.32552,314158.930759,904271.902733,-6685453.80103,313709.861003,4768.05386036,367.791015859,-6016.19868723,-1.17010948845,8.65084152626,-0.40593419288,6758662.11723,1.53962956132,-1.8287329727153099E-13,1.5589576083907752,-2.180412390540478E-13,-2.471593905353287,-0.03718896447605677,-1.4289931348888525,0.0,0.0,0.0,375531.775242,8.86691647642E-12,1166.6798577,-1.17010948845,8.65084152626,-0.40593419288
7140.00000002,-6611127.26811,-1377755.514,-47040.7722015,1188027.5863,-6647837.30532,-47712.2831346,4686.79488046,885.616672054,-6026.52894159,-1.53748518371,8.60329463603,0.0617468224194,6758662.11723,1.54400483041,-3.1415926535897927,1.5143546555080678,-3.1415926535897927,-2.471593905353287,-0.03718896447605677,-1.4289931348888525,0.0,0.0,0.0,375191.136803,8.94484299954E-12,1167.78470353,-1.53748518371,8.60329463603,0.0617468224194
7200.00000002,-6541772.93253,-1625576.94368,-408021.365155,1466250.44943,-6579261.00527,-408912.189932,4583.69737574,1399.38267889,-6008.79248375,-1.89777506955,8.51556943547,0.529257031084,6758662.11723,1.5483800995,-3.1415926535897927,1.4460685449629331,-3.1415926535897927,-2.471593905353287,-0.03718896447605677,-1.4289931348888525,0.0,0.0,0.0,374998.12994,8.9842599549E-12,1168.20364042,-1.89777506955,8.51556943547,0.529257031084
7260.00000002,-6444212.82066,-1866588.27181,-767101.491529,1737643.95686,-6480040.59386,-768207.480951,4459.2374957,1906.68915984,-5963.065397,-2.24928511305,8.38805831438,0.994402589679,6758662.11723,1.55275536859,-3.1415926535897927,1.37777722770445,-3.1415926535897927,-2.471593905353287,-0.03718896447605677,-1.4289931348888525,0.0,0.0,0.0,374952.592411,8.98466344125E-12,1167.93334832,-2.24928511305,8.38805831438,0.994402589679
7320.00000002,-6318832.80419,-2099915.73594,-1122608.28559,2000943.16874,-6350634.93669,-1123924.28773,4313.9918701,2405.16546115,-5889.55517172,-2.59036136654,8.22134263981,1.4549988722,6758662.11723,1.55713063767,-3.1415926535897927,1.3094812423604243,-3.1415926535897927,-2.471593905353287,-0.03718896447605677,-1.4289931348888525,0.0,0.0,0.0,375051.956216,8.94641660286E-12,1166.97428052,-2.59036136654,8.22134263981,1.4549988722
7380.00000002,-6166140.77344,-2324717.18776,-1472885.22918,2254920.69242,-6191643.97977,-1474405.11325,4148.63496067,2892.48142049,-5788.59983449,-2.91939804043,8.01619026441,1.9088810586,6758662.11723,1.56150590676,-3.1415926535897927,1.2411811495306118,-3.1415926535897927,-2.471593905353287,-0.03718896447605677,-1.4289931348888525,0.0,0.0,0.0,375291.312517,8.87073052875E-12,1165.33088326,-2.91939804043,8.01619026441,1.9088810586
7440.00000002,-5986764.59956,-2540184.99634,-1816299.93734,2498392.46091,-6003805.98632,-1818016.62214,3963.93593479,3366.35845765,-5660.66644362,-3.2348453586,7.77355208704,2.35391465673,6758662.11723,1.56588117585,-3.1415926535897927,1.1728775291547615,-3.1415926535897927,-2.471593905353287,-0.03718896447605677,-1.4289931348888525,0.0,0.0,0.0,375663.520008,8.75960805215E-12,1163.01180818,-3.2348453586,7.77355208704,2.35391465673
7500.00000002,-5781449.55143,-2745548.81114,-2151251.83488,2730223.30984,-5787994.11483,-2153157.32175,3760.75507542,3824.58043067,-5506.34895676,-3.53521715241,7.49455767925,2.78800589983,6758662.11723,1.57025644494,-3.1415926535897927,1.1045709777899022,-3.1415926535897927,-2.471593905353287,-0.03718896447605677,-1.4289931348888525,0.0,0.0,0.0,376159.354405,8.61575525248E-12,1160.03012345,-3.53521715241,7.49455767925,2.78800589983
7560.00000002,-5551055.17802,-2940078.17556,-2476179.6865,2949332.32542,-5545212.35419,-2478265.09658,3540.03974434,4265.00420213,-5326.36547988,-3.81909815064,7.18050999688,3.20911196259,6758662.11723,1.57463171403,-3.1415926535897927,1.0362621058038537,-3.1415926535897927,-2.471593905353287,-0.03718896447605677,-1.4289931348888525,0.0,0.0,0.0,376767.695872,8.44246756668E-12,1156.40352644,-3.81909815064,7.18050999688,3.20911196259
7620.00000002,-5296551.66925,-3123084.98258,-2789568.94392,3154697.93739,-5276590.8349,-2791824.55953,3302.81991814,4685.5698612,-5121.55491008,-4.08515092412,6.83287920212,3.61525093867,6758662.11723,1.57900698311,-3.1415926535897927,0.9679515345059043,-3.1415926535897927,-2.471593905353287,-0.03718896447605677,-1.4289931348888525,0.0,0.0,0.0,377475.750444,8.24349878452E-12,1152.15455839,-4.08515092412,6.83287920212,3.61525093867
7680.00000002,-5019015.7111,-3293925.76456,-3089958.87379,3345362.73178,-4983380.53859,-3092374.18383,3050.20331887,5084.31054917,-4892.87298837,-4.33212244592,6.45329562704,4.00451152448,6758662.11723,1.5833822522,-3.1415926535897927,0.8996398932129132,-3.1415926535897927,-2.471593905353287,-0.03718896447605677,-1.4289931348888525,0.0,0.0,0.0,378269.300843,8.02292173083E-12,1147.31081917,-4.33212244592,6.45329562704,4.00451152448
7740.00000002,-4719625.85348,-3452003.81015,-3375949.43191,3520437.95992,-4666947.43123,-3378513.18089,2783.37016357,5459.36183787,-4641.38778154,-4.55885022995,6.04354191503,4.37506235501,6758662.11723,1.58775752129,-3.1415926535897927,0.8313278162874858,-3.1415926535897927,-2.471593905353287,-0.03718896447605677,-1.4289931348888525,0.0,0.0,0.0,379132.981532,7.78498913348E-12,1141.90517687,-4.55885022995,6.04354191503,4.37506235501
7800.00000002,-4399657.41152,-3596771.1017,-3646207.84991,3679107.72176,-4328766.04814,-3648908.09061,2503.56755894,5808.97061297,-4368.27461563,-4.76426801347,5.60554438213,4.7251609398,6758662.11723,1.59213279038,-3.1415926535897927,0.7630159401517169,3.1415926535897927,-2.471593905353287,-0.03718896447605677,-1.4289931348888525,0.0,0.0,0.0,380050.57246,7.53400213408E-12,1135.975962,-4.76426801347,5.60554438213,4.7251609398
7860.00000002,-4060476.92336,-3727730.06748,-3899474.90248,3820632.80279,-3970412.5621,-3902299.05174,2212.10356963,6131.50341676,-4074.81048654,-4.94741095186,5.14136364499,5.05316214945,6758662.11723,1.59650805947,-3.1415926535897927,0.6947049002747513,-3.1415926535897927,-2.471593905353287,-0.03718896447605677,-1.4289931348888525,0.0,0.0,0.0,381005.305657,7.27419227812E-12,1129.56712587,-4.94741095186,5.14136364499,5.05316214945
7920.00000002,-3703536.18993,-3844435.14389,-4134570.82438,3944354.14613,-3593557.36814,-4137505.72197,1910.34099012,6425.4542078,-3762.36797601,-5.10742029684,4.65318456708,5.35752620576,6758662.11723,1.60088332855,-3.1415926535897927,0.6263953281830347,-3.1415926535897927,-2.471593905353287,-0.03718896447605677,-1.4289931348888525,0.0,0.0,0.0,381980.17869,7.0096208156E-12,1122.72832714,-5.10742029684,4.65318456708,5.35752620576
7980.00000002,-3330365.92407,-3946494.14318,-4350400.84875,4049695.94274,-3199957.22125,-4353432.8189,1599.69085211,6689.45149835,-3432.40870428,-5.24354753276,4.14330557889,5.63682613196,6758662.11723,1.60525859764,-3.1415926535897927,0.558087848486273,-3.1415926535897927,-2.471593905353287,-0.03718896447605677,-1.4289931348888525,0.0,0.0,0.0,382958.268981,6.74409695319E-12,1115.51488586,-5.24354753276,4.14330557889,5.63682613196
8040.00000002,-2942569.03828,-4033569.42355,-4545960.33971,4136168.32504,-2791446.96538,-4549075.25507,1281.60570049,6922.26483367,-3086.47635288,-5.35515794903,3.61412743177,5.88975462277,6758662.11723,1.60963386673,-3.1415926535897927,0.48978307592782633,-3.1415926535897927,-2.471593905353287,-0.03718896447605677,-1.4289931348888525,0.0,0.0,0.0,383923.04309,6.48111453757E-12,1107.98751112,-5.35515794903,3.61412743177,5.88975462277
8100.00000002,-2541813.60244,-4105378.85873,-4720339.49473,4203369.65092,-2369930.89428,-4723522.84242,957.57267243,7122.81058115,-2726.1892936,-5.44173363029,3.06814144839,6.11513029776,6758662.11723,1.61400913582,-3.1415926535897927,0.42148161249444277,-3.1415926535897927,-2.471593905353287,-0.03718896447605677,-1.4289931348888525,0.0,0.0,0.0,384858.655264,6.22380475978E-12,1100.21167134,-5.44173363029,3.06814144839,6.11513029776
