time,gePosition_m_X,gePosition_m_Y,gePosition_m_Z,eiPosition_m_X,eiPosition_m_Y,eiPosition_m_Z,eiVelocity_m_s_X,eiVelocity_m_s_Y,eiVelocity_m_s_Z,eiAccel_m_s2_X,eiAccel_m_s2_Y,eiAccel_m_s2_Z,semiMajorAxis_m,gast_rad,eulerAngle_rad_Roll,eulerAngle_rad_Pitch,eulerAngle_rad_Yaw,eulerAngleWrtEi_rad_Roll,eulerAngleWrtEi_rad_Pitch,eulerAngleWrtEi_rad_Yaw,bodyAngularRateWrtEi_rad_s_Roll,bodyAngularRateWrtEi_rad_s_Pitch,bodyAngularRateWrtEi_rad_s_Yaw,altitudeMsl_m,airDensity_kg_m3,ambientTemperature_dgK,eiGravitation_m_s2_X,eiGravitation_m_s2_Y,eiGravitation_m_s2_Z
0.0,-1436381.4663574744,4185811.709981752,5163944.671561651,-4315967.74,960356.1999999998,5167269.529999999,129.09103699999832,-7491.513854999997,1452.5156539999987,5.454580584194748,-1.2138766085713926,-6.549173738947421,6759053.075789562,1.0233194459853856,5.666859310090004E-17,-0.20245819323134254,-4.604323189448128E-17,-2.471593905564226,-0.03718896475784017,-1.428993135204368,4.658681209898652E-20,-0.0011222300308759384,4.0657581468206416E-20,434989.54081172694,1.6159166507157113E-12,978.0522572877376,5.454580592443033,-1.2138769058678107,-6.549173678777671
60.0,-1794959.995546205,3943151.6850084225,5239238.395513119,-4298410.858255936,509021.5056751871,5242566.810447196,455.9639468942381,-7547.277247535808,1056.3809720812114,5.437139657301516,-0.6440457151618937,-6.650437094652173,6758732.944655053,1.027694715234372,-3.986452326889128E-5,-0.20373876944746122,-1.951298023925534E-4,-2.472088520746782,0.01656363236056946,-1.3863065766271119,-1.8801710908542748E-6,-0.0011656564875443495,-3.4699794537665997E-6,433110.3628256301,1.726363191200694E-12,985.1057249883752,5.437139679130082,-0.6440460353971501,-6.650437047887021
120.0,-2147590.36830146,3685729.2363505806,5290614.553922418,-4261287.549826909,55369.42927047986,5293931.374307636,781.0627540601167,-7568.7205196773675,655.0536308722764,5.395449667149467,-0.07027494649154738,-6.722182577658157,6758512.12297034,1.0320699844833425,-1.7583673477037027E-4,-0.20758980366439614,-6.019933425919533E-4,-2.470284121702522,0.0722040457346009,-1.341749475442649,-3.988582704920418E-6,-0.0012094582793067323,-7.212578424818696E-6,430971.6196248676,1.8573503974637582E-12,992.8757391060888,5.39544970455574,-0.07027529229182898,-6.722182546448117
180.0,-2492788.9535457944,3414636.3584754695,5317814.952551261,-4204747.874430579,-398535.18380278547,5321105.065384738,1102.9344825113244,-7555.680041859687,250.31799222748705,5.32959157407412,0.5050047841475319,-6.7639852820066455,6758393.587992744,1.0364452537322815,-4.330476114346543E-4,-0.21404066628382984,-0.0012260337607447552,-2.4658784740277904,0.1296313346638236,-1.294992531168528,-6.3567187697656384E-6,-0.0012539729131436875,-1.1248978844043104E-5,428579.63900987216,2.01120282855708E-12,1001.3137004520449,5.329591629498654,0.5050044100205192,-6.763985269086535
240.0,-2829091.783253512,3131015.004976689,5320689.090371024,-4129028.868883084,-850622.064860106,5323937.488227877,1420.1338073177064,-7508.1389670478175,-156.01938948065586,5.239739906417154,1.0793326734254696,-6.7755311717519735,6758378.614293918,1.0408205229812044,-8.375683183808613E-4,-0.22314126971846837,-0.002071013359112801,-2.458506059181994,0.1887281038341114,-1.2456198680270305,-9.02301646726995E-6,-0.0012995363573632239,-1.5603914603854033E-5,425943.2178119761,2.190231397007298E-12,1010.3346310213881,5.239739982783449,1.0793322681857502,-6.7755311805229725
300.0,-3155060.4978358387,2836052.729143077,5299195.288768041,-4034453.9180134637,-1298824.3787429174,5302387.137185885,1731.2287479989268,-7426.228822548307,-562.1365663446387,5.126165352940583,1.6502250017726345,-6.756621976365236,6758466.967082653,1.0451957922300796,-0.0014166727088075516,-0.23496199256121011,-0.0031386711010150934,-2.447717065380878,0.24935099423936916,-1.193110805052296,-1.2033359889216437E-5,-0.0013464813992494354,-2.030636835586016E-5,423073.6465224505,2.3966684877615887E-12,1019.8215636363032,5.126165453682049,1.6502245627503132,-6.75662201096596
360.0,-3469288.31113065,2530978.156771168,5253401.40433084,-3921431.7795468103,-1741087.6626793582,5256522.1087760925,2034.806504671532,-7310.230639142989,-966.2032850070319,4.989236873750018,2.2151835488727065,-6.707179849752702,6758657.071545642,1.049571061478955,-0.0021991457600302007,-0.2495934819611807,-0.00442835033230767,-2.4329509955206223,0.3113172614436357,-1.1368154806455273,-1.5441643718714942E-5,-0.0013951350533849874,-2.5390283682652997E-5,419984.69688279915,2.6326408723395546E-12,1029.636176477965,4.989237002821927,2.215183073674075,-6.707179915114062
420.0,-3770405.972737016,2217056.2984452136,5183485.108587643,-3790455.2554352977,-2175378.8170084693,5186520.380730241,2329.4793995552923,-7160.575539483152,-1366.38833597432,4.82942307189567,2.771705131460338,-6.627251358763985,6758946.1200773,1.0539463307277828,-0.0032156593235098617,-0.2671462661304962,-0.005936578274973134,-2.413503523255395,0.37438589260053245,-1.0759229956014604,-1.9310396087251674E-5,-0.0014458146305072694,-3.089529099836073E-5,416692.56900399947,2.9001804631900303E-12,1039.6328218586466,4.829423233772151,2.7717046181378975,-6.627251460645502
480.0,-4057087.702980417,1895583.7118473845,5089733.720416407,-3642099.5047236923,-2599695.113580204,5092669.643434425,2613.8908760636286,-6977.844732530303,-1760.867115164186,4.6472927435232485,3.317291776504725,-6.517010545083967,6759330.096550845,1.0583215999766105,-0.004499242767809394,-0.2877500838107098,-0.007656574125948391,-2.3884854967016924,0.43823107540636264,-1.0094210060757969,-2.3711441119483474E-5,-0.001498822014842139,-3.686743543969345E-5,413215.7962350986,3.2012535329808994E-12,1049.671935343611,4.647292943180212,3.3172912237310364,-6.517010690091332
540.0,-4328057.074833079,1567883.5273238532,4972543.580116854,-3477019.995937648,-3012073.18536097,4975366.672749524,2886.721508411052,-6762.768891340151,-2147.829340159739,4.443514709187373,3.849461026483475,-6.376761035699152,6759803.718604353,1.0626968692254064,-0.006085885379346276,-0.31155280839608746,-0.009577654977384411,-2.356774239579365,0.5024050155684471,-0.9360469396139383,-2.8726569919137663E-5,-0.0015544356300184298,-4.335988102739468E-5,409575.1079863446,3.5377792842745896E-12,1059.6296008345416,4.443514952071235,3.8494604337282556,-6.37676123128273
600.0,-4582092.817393755,1235300.351406586,4832418.957486465,-3295950.099527831,-3410597.9602576927,4835116.236553139,3146.6949853718293,-6516.226918280575,-2525.486868916336,4.218857168867616,4.365756010065952,-6.206937394453698,6760360.320549701,1.0670721384741706,-0.008015321171071114,-0.3387188111284721,-0.01168449678465693,-2.3169608484429545,0.5662862121753544,-0.854234541669637,-3.4448172990612963E-5,-0.0016128995107505184,-5.0433546314128155E-5,405793.2527040709,3.911612518926556E-12,1069.402046477601,4.218857460847425,4.365755377779738,-6.206937648885443
660.0,-4818034.516461126,899195.0631166816,4669970.488935271,-3099698.3226014604,-3793411.5029420974,4672529.53003818,3392.5840484840624,-6239.244116746339,-2892.0815849412384,3.9741868768796467,4.86375515881196,-6.008106047570803,6760991.7163395565,1.0714474077229348,-0.010332067433701159,-0.36942657109132354,-0.013956188765127041,-2.2673056887191225,0.6290087829670044,-0.7620679448215266,-4.097976658787229E-5,-0.0016744088578045909,-5.8157601367506443E-5,401894.7848996792,4.324477377412477E-12,1078.9057403830575,3.9741872241778458,4.8637544886201125,-6.008106369893863
720.0,-5034788.18851097,560939.5169493575,4485913.14019596,-2889145.188835926,-4158721.7296452704,4488322.136325579,3623.2163817960595,-5932.98978705654,-3245.8933342635723,3.7104683834840806,5.341081734055311,-5.780966138887824,6761688.0904132705,1.075822676973096,-0.013086819991026555,-0.40386530174555835,-0.01636498972425749,-2.2057324881422113,0.6893695578737671,-0.657273625143889,-4.843631990591302E-5,-0.0017390914662835815,-6.660972331224284E-5,397905.82130010513,4.777851552728097E-12,1088.074719292338,3.7104687925795923,5.3410810289632185,-5.780966538830295
780.0,-5231331.704274689,221911.16501331513,4281063.691473254,-2665239.7662720014,-4504810.9615041325,4283311.509235845,3837.480461245084,-5598.774246879397,-3585.247918400316,3.428763450493347,5.795413563029965,-5.526350569452065,6762437.962469115,1.0801979462217968,-0.016338357676748363,-0.442230328647286,-0.01887464668048711,-2.1299256661725416,0.7457154952055843,-0.537314821967346,-5.6944259933479826E-5,-0.0018069845248035558,-7.587596762621325E-5,393853.77170657774,5.2728082681712685E-12,1096.8568059710892,3.428763927990418,5.795412827635363,-5.5263510572947965
840.0,-5406720.036604317,-116512.39010146107,4056337.741270294,-2428995.845115188,-4830044.281252569,4058413.9744575177,4034.331372610086,-5238.04524839463,-3908.5251572808006,3.130230557675077,6.224493498878084,-5.245227280280884,6763228.2607763745,1.0845732154704657,-0.020156188416741893,-0.48471692784898657,-0.021438057143244857,-2.0376470977666306,0.7958305387457748,-0.39970452343027,-6.664099831741775E-5,-0.00187800654450486,-8.605006649741615E-5,389767.0500347351,5.809826506641538E-12,1105.2098866062315,3.1302311101322804,6.224492739580787,-5.245227866669235
900.0,-5560090.304416699,-452958.900388867,3812746.2243282725,-2181487.7674043686,-5132877.655457223,3814641.244548775,4212.796596203187,-4852.383733914755,-4214.1670326083995,2.8161242290828885,6.6261410796362865,-4.938700602453994,6764044.520182191,1.0889484847191346,-0.02462430203514957,-0.5315123301329759,-0.023993923583795658,-1.9274288359406169,0.8368761908093655,-0.24269340592126504,-7.767379445868445E-5,-0.0019519246655238763,-9.723191834376567E-5,385674.7704281421,6.3885806914365915E-12,1113.0988532130996,2.8161248627987274,6.626140304830235,-4.938701298145023
960.0,-5690666.580487157,-786067.0223187114,3551391.438934123,-1923845.9110955002,-5411865.780236272,3553096.4430273687,4371.981735861397,-4443.49884811209,-4500.685905071137,2.487793776462512,6.998265675749814,-4.608012291194265,6764871.199601515,1.0933237539677718,-0.029846623058639252,-0.5827856276399349,-0.02646181915324811,-1.7997200568142455,0.8654920591542463,-0.0664108057502625,-9.019774963836322E-5,-0.002028318383953403,-1.0952499328886527E-4,381606.4325258703,7.007721392565095E-12,1120.493389157648,2.487794497217053,6.998264895977781,-4.608013106733884
1020.0,-5797764.426575385,-1114491.8954907851,3273462.5800262513,-1657251.833218023,-5665669.603128084,3274969.633980705,4511.0761439218595,-4013.2221157558583,-4766.672771566191,2.1466810169976203,7.338881134593975,-4.254541736520415,6765692.094152518,1.0976990232163775,-0.035955163638030446,-0.6386754051871316,-0.02873467395417526,-1.6581861388885393,0.8781886364271027,0.12584361047691756,-1.0437273119175295E-4,-0.0021065419083689256,-1.2303236359402896E-4,377591.5992085949,7.664659759023724E-12,1127.3665315040375,2.1466818297534407,7.3388803626418495,-4.254542681849597
1080.0,-5880795.11558596,-1436910.7295898653,2980230.7774922173,-1382933.0804359948,-5893063.468477626,2981532.856594455,4629.358368670492,-3563.5007024809365,-5010.805497262882,1.7943165846217581,7.646121629805784,-3.879804832997745,6766490.803266345,1.1020742924649671,-0.04312263259130483,-0.6992750776500203,-0.03066693062631695,-1.5102163636052555,0.8720612556214732,0.32710130831845585,-1.2035907108185328E-4,-0.002185688900375221,-1.37851098786371E-4,373659.5696783522,8.355370344107717E-12,1133.693839910563,1.7943174931920542,7.646120880711492,-3.879805916992781
1140.0,-5939269.498029278,-1752028.374233605,2673043.6438452043,-1102157.6803646758,-6092941.829445364,2674134.668794746,4726.201331926455,-3096.3897013750784,-5231.85692881199,1.4323145989015702,7.918258180933301,-3.485451091969696,6767251.210631314,1.1064495617135248,-0.05158272817928739,-0.7646161594608382,-0.032055139987601775,-1.3655936634805714,0.8455741452502022,0.5280664618040896,-1.3831198961069383E-4,-0.002264565171588846,-1.5406487167018572E-4,369839.05069506884,9.074229260810164E-12,1139.4529796603326,1.4323156055983812,7.918257471885609,-3.485452321928648
1200.0,-5972801.469451499,-2058582.8415242143,2353319.34173491,-816228.3328488001,-6264325.4673681455,2354194.2104722927,4801.077135773753,-2614.043424715451,-5428.7027750828165,1.0623656420616754,8.153715181781415,-3.073258757402452,6767957.935204113,1.110824830962067,-0.06166436755474155,-0.8346500130090686,-0.03260473428415817,-1.2336206477407357,0.7989523076190397,0.7200039252799083,-1.583748793307465E-4,-0.0023416767053647605,-1.717348333090798E-4,366157.8292172146,9.813906322535871E-12,1144.6235398084978,1.062366747342372,8.1537145318867,-3.0732601384978606
1260.0,-5981110.996868373,-2355350.747210891,2022540.1888682556,-526476.3264464235,-6406367.1591685545,2023194.803881237,4853.561400007037,-2118.705720310066,-5600.329133556027,0.6862281732803734,8.35108628358456,-2.6451278883728984,6768596.723163785,1.115200100210593,-0.07385274123381365,-0.909228958837055,-0.03187007151843893,-1.1206123165477753,0.7339407180582544,0.8972638165204649,-1.8067185037749618E-4,-0.0024152416057314245,-1.908891507082225E-4,362642.4504727741,1.0565329931671309E-11,1149.1869243499457,0.686229375415319,8.351085713485435,-2.6451294230987976
1320.0,-5964026.665307099,-2641152.633804833,1682245.8251805485,-234255.21094819624,-6518356.735793636,1682677.1160751653,4883.337043762252,-1612.69936793898,-5745.839543709556,0.3057186368156045,8.509149100877805,-2.203071543347582,6769154.765378595,1.1195753694590873,-0.08890582392166976,-0.9880878069885364,-0.029139092833318947,-1.0292578122655829,0.6531726297703229,1.0579410997881886,-2.0530026390308166E-4,-0.0024832344752364266,-2.1151204837077035E-4,359317.9064208367,1.1317739900213434E-11,1153.1261220250844,0.3057199316032739,8.509148632216553,-2.2030732309957357
1380.0,-5921487.709819005,-2914858.137913169,1334025.9738940971,59065.73855087189,-6599725.478846105,1334231.9150429738,4890.197442168565,-1098.4146379552808,-5864.461460365437,-0.07729942702338358,8.626878391736568,-1.7492053054963181,6769620.9398334315,1.123950638707566,-0.10809615459215136,-1.0708264241868521,-0.023192746216619375,-0.959542597646276,0.5595685784408843,1.2029795822813834,-2.3232430360838844E-4,-0.0025434694312044983,-2.3353369067237976E-4,356207.34041417367,1.2058858069717307E-11,1156.4258238994835,-0.07729804646389742,8.626878046467544,-1.7492071417043207
1440.0,-5853545.50317874,-3175390.9643110363,979512.8340651119,352108.22691370756,-6650049.808008158,979492.4571740354,4874.04890708426,-578.2971093859961,-5955.552055428679,-0.4609269803601042,8.703457545995073,-1.2857354125997824,6769985.989930965,1.1283259079560126,-0.13376975450954925,-1.1568915203868102,-0.011747269416468776,-0.9100813772102105,0.4559836875356125,1.3348707465870857,-2.617708537258371E-4,-0.0025937228839952,-2.568226583514092E-4,353331.7744192282,1.2775203398172285E-11,1159.073307782319,-0.4609255236878086,8.70345734556522,-1.2857373890192458
1500.0,-5760364.474448888,-3421733.630486703,620373.1472521061,643491.7718680853,-6669054.217911461,620126.5487168075,4834.912456263647,-54.834850695382364,-6018.6032713223085,-0.8432415795008972,8.738288341113511,-0.8149457155485668,6770242.655314531,1.1327011772044275,-0.17084129275279883,-1.2455463069182853,0.010039817081767287,-0.8791338743588981,0.34508519573893026,1.4566756719769698,-2.936289396793879E-4,-0.002631889456311543,-2.8118293007443077E-4,350709.8652378287,1.3452523392587751E-11,1161.0590507425718,-0.8432400591186099,8.738288305548226,-0.8149478196759626
1560.0,-5642222.43840622,-3652931.9471636354,258299.98517664228,931840.6210667227,-6656613.429330793,257828.3281342267,4772.924845679297,469.4549329275709,-6053.2460608541705,-1.2223098293779322,8.730998968484903,-0.3391836212587103,6770385.771273141,1.1370764464528427,-0.23173689880320278,-1.3357740386986499,0.05451144380227441,-0.8651723055106889,0.22935974099033646,1.5715005352698268,-3.2785364253783454E-4,-0.0026561553224454747,-3.063570005369417E-4,348357.69575497735,1.4076324913839723E-11,1162.3770341665106,-1.222308260248853,8.730999115431203,-0.3391858364636469
1620.0,-5499510.320506082,-3868099.202288213,-104995.69108134773,1215790.7084835994,-6612753.725812219,-105690.18006805,4688.33884544775,992.0396813826093,-6059.253755757115,-1.5962001345401433,8.68145029973916,0.1391548807568405,6770412.34709441,1.1414517157012258,-0.3593760022249362,-1.425785502787972,0.16449186492700021,-0.8671281628834298,0.11116896638495259,1.6822950602899134,-3.643747035094327E-4,-0.0026651653033524783,-3.3203596015291215E-4,346288.60635647044,1.463247917632149E-11,1163.0248421380718,-1.5961985338498499,8.681450643529454,0.13915257498332914
1680.0,-5332731.266825974,-4066420.018027256,-467793.6465084423,1493996.6042559354,-6537653.453213597,-468707.68616046413,4581.522742907657,1510.3855822134917,-6036.544511391697,-1.9629957013259185,8.58974028757511,0.6176410240293664,6770321.625464936,1.1458269849495775,-0.8264927666043462,-1.508101189860137,0.6126072631882069,-0.8844628938384265,-0.007188726834820835,1.7918214754259927,-4.031091078115846E-4,-0.002658156347671131,-3.5787611544135035E-4,344513.0704679929,1.5107863945996274E-11,1163.0036181653445,-1.9629940879972827,8.589740838380997,0.6176386516004815
1740.0,-5142499.133518366,-4247153.852475834,-828373.1053737693,1765138.4111849512,-6431642.666362875,-829502.3737905498,4452.959059688563,2021.9718769910346,-5985.182780976578,-2.3208077199345842,8.456206326250912,1.0938297832864587,6770115.117123498,1.1502022541979289,-2.4790842524205794,-1.5072435156548711,2.244733243280862,-0.9171514178688907,-0.12342529673367073,1.9026880006537685,-4.439760247874656E-4,-0.002635032921200732,-3.835203378266395E-4,343038.6168049783,1.5490997795512365E-11,1162.3179386121592,-2.3208061140168055,8.456207089395825,1.0938273708324404
1800.0,-4929536.355943194,-4409638.12020092,-1185021.5428650165,2027928.560478015,-6295201.914399501,-1186360.6969583074,4303.242475506932,2524.305243129298,-5905.379781956796,-2.6677885979022977,8.281425374167119,1.5652769126692596,6769796.6000793055,1.154577523446217,-2.9340300975504623,-1.4266744760069292,2.6776140230572043,-0.9656128550990922,-0.23522176025971422,2.017379448442662,-4.86911877714362E-4,-0.0025963695899740113,-4.086212162467748E-4,341869.7995847097,1.577261771820401E-11,1160.9756576507057,-2.6677870198680074,8.28142634965834,1.5652744886702359
1860.0,-4694671.203822013,-4553290.90862446,-1536043.4739261991,2281118.4591498505,-6128960.164404602,-1537586.1741106936,4133.076961047682,3014.934111860197,-5797.492931125793,-3.0021450542394246,8.066211684653362,2.0295562310160222,6769372.072129035,1.1589527926945367,-3.0644155946934037,-1.3407556346504232,2.7841852259583297,-1.0305824679791127,-0.34019982480076577,2.13823340846922,-5.318832362754712E-4,-0.0025433403121871852,-4.3286264014970853E-4,341008.2167237391,1.5946153292455974E-11,1158.987773166349,-3.0021435242338916,8.06621286697853,2.0295538248054945
1920.0,-4438834.435256773,-4677613.2707088385,-1879769.1772065496,2523504.9420136665,-5933691.871503584,-1881508.1172276225,3943.272135130378,3491.4627766842095,-5662.024243367134,-3.322150842173485,7.811612092917334,2.484276825483029,6768849.649053011,1.163328061942793,-3.1319987480463323,-1.2565531719620324,2.8260408891570243,-1.1128901564202056,-0.4359146024005807,2.2673103000042865,-5.788956937751294E-4,-0.0024775883399946216,-4.559768180143205E-4,340452.5749783358,1.6008058053450038E-11,1156.3683545721158,-3.3221493792658774,7.811613471129344,2.4842744661858465
1980.0,-4163055.3689594325,-4782191.078403374,-2214563.2923254734,2753936.4825320803,-5710313.212386649,-2216490.234068153,3734.7388756244036,3951.5651473272187,-5499.617709119613,-3.6261588636327318,7.5188989361041765,2.927099836384808,6768239.407242647,1.1677033311910492,3.1045695028036797,-1.1756512093874336,2.8448392254372106,-1.2130986224187892,-0.519889477733426,2.4061061853715504,-6.279977326852725E-4,-0.0024010607945648666,-4.777548038759115E-4,340198.80006648536,1.5957971032308952E-11,1153.134562110848,-3.626157485120215,7.518900494193911,2.9270975518604327
2040.0,-3868457.4001105153,-4866696.425717048,-2538833.2301523867,2971319.1189775327,-5459877.50767506,-2540939.043240795,3508.4842269980372,4392.998012489351,-5311.05568485265,-3.912612470187983,7.189560799397295,3.3557545287428407,6767553.176317197,1.1720786004407024,3.0666764024299957,-1.0988516631280898,2.8526308391516513,-1.3309819073370701,-0.5897277742367169,2.555089957882165,-6.792795014652537E-4,-0.002315835351892385,-4.98049989064759E-4,340240.18896478164,1.5798697027733198E-11,1149.306773883547,-3.9126111909989802,7.1895625169288895,3.3557523446043627
2100.0,-3556252.9905866515,-4930888.574871754,-2851037.3383413325,3174622.0552645815,-5183569.866368741,-2853312.0443048943,3265.6056581551547,4813.613688639123,-5097.254346291142,-4.180055798727202,6.825291351418314,3.768053433547699,6766804.292274447,1.176453869688895,3.0326032934268206,-1.0266702126606213,2.8541156166884836,-1.4649292547874129,-0.64333521410109,2.7131524306684973,-7.328671461566693E-4,-0.002223963165803511,-5.167752902372742E-4,340567.6007511357,1.5536010981598343E-11,1144.908822776112,-4.180054630960967,6.8252932043797845,3.7680513723194777
2160.0,-3227738.1689212495,-4974614.443362916,-3149692.7676828555,3362882.8992744,-4882701.092481508,-3152125.588435113,3007.2847316431003,5211.371948558553,-4859.258264583876,-4.427143044227918,6.427976544724941,4.161906425627435,6766007.32338848,1.180829138937088,2.9999596246481284,-0.9594478132862605,2.851468917813217,-1.6115376984913257,-0.6792484265370031,2.877233532416351,-7.889137083874902E-4,-0.0021273444210833567,-5.338956180986072E-4,341169.68152150355,1.5178307552097058E-11,1139.9683317247045,-4.427141996854946,6.427978506530613,4.161904506090555
2220.0,-2884286.5787778115,-4997808.634216326,-3433382.9886398874,3535212.505307577,-4558700.899873172,-3435962.3989879875,2734.780249971795,5584.351139064225,-4598.234171589785,-4.652646607955673,5.999680424244273,4.535333666465288,6765177.779230584,1.1852044081852489,2.967402655970484,-0.897394277792783,2.8458091462141386,-1.7657701348988413,-0.696979985614601,3.0425068996492866,-8.47587614188705E-4,-0.0020276438299358795,-5.494175387691885E-4,342033.1180816378,1.4736129540293606E-11,1134.5171227791536,-4.652645686689066,5.999682466816209,4.535331903222162
2280.0,-2527343.1179022957,-5000493.015525365,-3700764.9115143577,3690799.391347099,-4213110.486306701,-3703478.6953925225,2449.420948051281,5930.758410445135,-4315.4639838722505,-4.855464069728012,5.542629738389592,4.886477362495799,6764331.808871706,1.1895796774333782,2.9340888050242193,-0.8406155503362005,2.8377489825025526,-1.9218573431416688,-0.6972128823436491,-3.0798828460080285,-9.0905954119474E-4,-0.001926245534458252,-5.633779190888082E-4,343142.9143600591,1.4221616740138729E-11,1128.5916626141593,-4.8554632770616,5.542631833243823,4.886475765765653
2340.0,-2158417.211788942,-4982775.859276714,-3950575.5679540625,3828913.706048985,-3847574.5220824685,-3953410.878052669,2152.597804038279,6248.938990806365,-4012.337158267069,-5.034623924250447,5.059197518770931,5.213612274365268,6763485.889567855,1.1939549466814758,2.8994369092848,-0.7891357017028925,2.8276353802115297,-2.07460909784066,-0.6817079112573482,-2.9287513803513274,-9.734881103214591E-4,-0.0018242416400213305,-5.758329529699545E-4,344482.68392973323,1.3647919358079616E-11,1122.233492719714,-5.03462325964683,5.059199638040092,5.213610850003323
2400.0,-1779075.768289147,-4944850.553111682,-4181638.3160145828,3948910.7248309595,-3463832.6123095555,-4184581.736458207,1845.7560448221789,6537.384448623802,-3690.342456709759,-5.189290011763384,4.551885807614278,5.515154880370825,6762656.504156175,1.1983302159295892,2.863015299561181,-0.7429159354814051,2.8156664855153384,-2.220454122194571,-0.6529450944058057,-2.7909329017578486,-0.0010410045296362917,-0.0017224461754155119,-5.868484803137772E-4,346034.95175813785,1.302861757769205E-11,1115.4895738006253,-5.189289471965431,4.551887924949744,5.51515363008782
2460.0,-1390935.8608061252,-4886993.902278517,-4392868.535838047,4050233.8591282293,-3063710.2949258196,-4395906.147550991,1530.386926419397,6794.739899060225,-3351.0592045598883,-5.318764582872663,4.023307767690079,5.789671076931236,6761859.805589774,1.2027054851776549,2.824484109305038,-0.7018707802492183,2.8019540959927958,-2.357763918087281,-0.6136688679087831,-2.668202850403463,-0.001111696107803223,-0.0016214260797286757,-5.964920665000265E-4,347781.4583943002,1.2377182091861403E-11,1108.4124483992923,-5.3187641623058965,4.023309859001862,5.789669998677897
2520.0,-995657.1884518468,-4809564.042465844,-4583278.7882692395,4132417.167787357,-2649109.6387764756,-4586396.23665606,1208.019372056393,7019.8101259214145,-2996.1481334077466,-5.422489979861105,3.4761694846300615,6.035882315968822,6761111.270873106,1.207080754425705,2.7835646780310506,-0.6658812302555108,2.78655981282978,-2.486545404601974,-0.5665149947096315,-2.56075867493951,-0.0011855884954214183,-0.0015215419928179953,-6.04826978012439E-4,349703.4602390277,1.1706501029440363E-11,1101.060093457649,-5.422489671092046,3.4761715286392985,6.035881404442643
2580.0,-594934.3613818198,-4712997.98729165,-4751983.414332895,4195087.364530108,-2221999.5071533644,-4755165.978894203,880.2115496877913,7211.564611623618,-2627.341903652108,-5.500048990974821,2.9132518284255027,6.2526701435373715,6760425.3531583585,1.211456023673723,2.7400233948966926,-0.6348046450974434,2.769517512468617,-2.607870536470047,-0.5137971604364793,-2.467777617503964,-0.0012626266200603847,-0.0014229933797764388,-6.119079836416615E-4,351782.0202571335,1.1028488526791772E-11,1093.4953021474935,-5.500048785191181,2.9132538070203973,6.252669390766417
2640.0,-190489.05838101954,-4597808.836662923,-4898202.559216685,4237965.320167306,-1784405.55198032,-4901435.224716987,548.5424646434843,7369.1414899667,-2246.435401372034,-5.551164023344996,2.337392743427431,6.43907920494922,6759815.147787507,1.2158312929217412,2.6936638631489105,-0.6084813665420024,2.7508481716921067,-2.7233451656931544,-0.4574358071250117,-2.387933653924638,-0.001342654555831825,-0.001325864279085939,-6.177788132043612E-4,353998.2843285706,1.0353781170145693E-11,1085.7844204516373,-5.551163910826992,2.3373946418277045,6.439078600908992
2700.0,215937.8982905884,-4464582.673789892,-5021265.60989025,4260867.062472761,-1338400.0023110232,-5024533.138694393,214.60363191866722,7491.850456920616,-1855.2758967992263,-5.5756953170467884,1.7514702655212693,6.594318889897635,6759292.093093227,1.2202065621697118,2.6443242407678493,-0.5867381562003738,2.730570029966649,-2.834737146511985,-0.39897441357648106,-2.3197528343606293,-0.0014253950038144512,-0.0012301674025526053,-6.224710849125078E-4,356333.73924945825,9.691522336557132E-12,1077.9953019581283,-5.575695287603873,1.7514720722677637,6.594318423121303
2760.0,622594.5084685672,-4313975.179199458,-5120614.040356897,4263704.280068549,-886091.3082273969,-5123901.045554391,-120.00912209478005,7579.174688748003,-1455.7531386849248,-5.573638459765051,1.158386429835212,6.717763870043029,6758865.727595315,1.2245818314176822,2.591878046098193,-0.5693886865331229,2.7087055474209363,-2.9437595449476985,-0.33963379411951644,-2.261810661870644,-0.0015104296367243932,-0.0011358852982374695,-6.260045345496031E-4,358770.44903740543,9.049232022068505E-12,1070.1944744398222,-5.573638503118408,1.1583881366304418,6.717763528191516
2820.0,1027725.5606170867,-4146707.989718662,-5195803.662517083,4246484.339195305,-429613.69807191886,-5199094.68145813,-453.70369391228894,7630.771821670147,-1049.7894427667134,-5.545121441861332,0.56105206739146,6.8089538013954165,6758543.52083809,1.228957100665621,2.536237431956524,-0.556231443568432,2.685285800247357,-3.0519618785284828,-0.28037352684052735,-2.2128184961526034,-0.0015971822370551686,-0.0010430078059841883,-6.283884145413392E-4,361291.26660576503,8.432760539133896E-12,1062.4437534564966,-5.545121547959053,0.5610536688237278,6.808953571761423
2880.0,1429580.5624342149,-3963564.829358751,-5246506.283639449,4209309.823919338,28883.29620955743,-5249785.851512784,-784.8995511610657,7646.474042619005,-639.329817362006,-5.4904014170491084,-0.037627655374742795,6.867592413919058,6758330.785977879,1.2333323699135281,2.4773582862982093,-0.5470455410968168,2.6603525012999336,3.1225016343012957,-0.22194549513455897,-2.171645233533433,-0.001684907248299649,-9.515651515098723E-4,-6.296239547456383E-4,363880.01805593196,7.846325979442316E-12,1054.796844515187,-5.490401576307824,-0.03762616218643767,6.867592283847512
2940.0,1826421.6005526586,-3765387.4377245284,-5272510.773676322,4152377.6114218826,487245.2934879286,-5275763.496765947,-1112.035379300815,7626.28732911943,-226.33215873274264,-5.409861225468655,-0.6347671772499347,6.893546105103265,6758230.670386976,1.2377076391614352,2.4152466766731266,-0.5415851131347539,2.6339575958002,3.012146267635181,-0.16493427866607632,-2.1373069446225186,-0.001772686922330579,-8.616558446300355E-4,-6.297077714390118E-4,366521.6569060677,7.292633662567746E-12,1047.296704791414,-5.409861428942271,-0.6347657930513064,6.893546062319874
3000.0,2216531.095491641,-3553071.320415746,-5273723.54748001,4075977.494902022,943323.4473847526,-5276934.1757457815,-1433.57651154693,7570.38986297939,187.24245433880068,-5.304005627890395,-1.2275141693116112,6.8868420277600455,6758244.20892553,1.2420829084093103,2.34996619668217,-0.5395731380791517,2.6061603052152087,2.899270636319737,-0.10978420792747791,-2.1089444665878627,-0.0018594404795650992,-7.734682072509911E-4,-6.286360656522962E-4,369202.38567131094,6.7730681181621414E-12,1039.9744020362418,-5.304005867372777,-1.2275128931123251,6.886842060608832
3060.0,2598219.418546107,-3327561.3451915993,-5250168.468832873,3980490.3676893525,1394984.7106310076,-5253321.967468615,-1748.022121185684,7479.129632857652,599.43933341912,-5.173457127650171,-1.813062949931588,6.847665559069753,6758370.416320449,1.246458177657154,2.281645730772152,-0.5406957266112273,2.577021563031029,2.78321208570412,-0.056815366691177274,-2.0858003583791267,-0.0019439483585355776,-6.872940239718918E-4,-6.264093649468224E-4,371909.74251762626,6.28793599379936E-12,1032.8498254056174,-5.1734573957232275,-1.8130617793788704,6.84766565666853
3120.0,2969832.337637824,-3089847.2075209697,-5201986.18543714,3866385.9836482364,1840121.9315732222,-5205067.805069882,-2053.9121473833707,7353.021239244237,1008.3195789705125,-5.01895124525453,-2.388667633330221,6.776356995445574,6758606.392618527,1.2508334469049975,2.210487044097096,-0.5445980258858569,2.546596004332089,2.6635254473750636,-0.0062320768163421315,-2.0672014646111516,-0.002024893491986056,-6.035326706490807E-4,-6.230374443997437E-4,374632.6513293963,5.836727989944148E-12,1025.9340103166119,-5.018951535295266,-2.388666565037942,6.776357147773777
3180.0,3329758.259799328,-2840958.7894098493,-5129432.906791584,3734220.310910694,2276663.7355545,-5132428.251996937,-2349.8339187814886,7192.741923347043,1411.9692541565287,-4.841331163651727,-2.951654806563112,6.673407353212621,6758947.419875429,1.2552087161527934,2.136771436134798,-0.5508828884196099,2.514922028958036,2.5399724554717964,0.041871927845735214,-2.052550172868223,-0.0021009194972010222,-5.226843176996366E-4,-6.185439381456066E-4,377361.43452204106,5.418366333585658E-12,1019.2323476731774,-4.84133146981133,-2.951653836388748,6.673407551147874
3240.0,3676435.2393451496,-2581961.435754705,-5032878.640063094,3584632.4982097135,2702584.1456234623,-5035773.735885095,-2634.4284370870673,6999.126856790754,1808.5082791120178,-4.64154176202673,-3.499435440498502,6.539453258341833,6759387.038197347,1.2595839854005895,2.060864487424331,-0.5591132591206103,2.4820109210691714,2.4125051361668937,0.08750721219700279,-2.0413251497103064,-0.002170702831261607,-4.4533155462518376E-4,-6.129700611486664E-4,380087.78921126237,5.031412985505973E-12,1012.7478046391896,-4.64154207919233,-3.499434563769415,6.539453493660401
3300.0,4008357.7230941444,-2313951.172518554,-4912804.902299589,3418341.475251531,3115911.8997784653,-4915586.258478379,-2906.3962873410214,6773.163746974072,2196.098993920982,-4.420623168071758,-4.02951574890019,6.375271044957233,6759917.10250781,1.2639592546483536,1.983217717519036,-0.568818808626925,2.447836500457512,2.281241478634618,0.1307771836243363,-2.0330902851113963,-0.002233032779316372,-3.7211005020940536E-4,-6.063768473013307E-4,382804.7287804256,4.6742278854969676E-12,1006.4834929946124,-4.420623491818452,-4.029514960595818,6.375271310310475
3360.0,4324083.00710146,-2038049.8904536818,-4769801.93013925,3236142.210274418,3514739.4257088862,-4772456.6027665185,-3164.503152116134,6515.986827247273,2572.954349584543,-4.179704043455767,-4.539506819634662,6.181770304432962,6760527.834523689,1.268334523896086,1.9043658312147256,-0.5795067034385366,2.4123271815836103,2.1464330116306414,0.1718585575023153,-2.02750866007116,-0.002286890365241669,-3.0367048509463636E-4,-5.988454121011189E-4,385506.49325025536,4.345079228260851E-12,1000.4442887256823,-4.179704369993732,-4.5395061145327364,6.181770593308427
3420.0,4622237.382817639,-1755400.516756522,-4604565.410129665,3038901.648891639,3897231.438359546,-4607081.060469216,-3407.584920910447,6228.870306458818,2937.3457030497893,-3.919994843471213,-5.027133021755684,5.959987190099802,6761207.893873637,1.2727097931452471,1.8249182622911444,-0.5906756501958437,2.3753624727053793,2.0084257604063365,0.21097273560292817,-2.0243568634551616,-0.0023315157914475175,-2.4063562573441687E-4,-5.904749780531069E-4,388188.4329367996,4.042215039725525E-12,994.6375276544824,-3.9199951695908135,-5.027132394549822,5.959987496772738
3480.0,4901521.9538418,-1467162.1950068038,-4417892.753655368,2827554.3584248493,4261633.1299936,-4420257.703883849,-3634.55239947537,5913.221346311505,3287.6102104641054,-3.6427812474130525,-5.490239385301449,5.711077760725364,6761944.495473127,1.2770850623929477,1.7455440387037766,-0.6018316549334,2.336775715128591,1.867617899975861,0.24834945333831804,-2.0235343598228526,-0.0023664545571506373,-1.835575984638295E-4,-5.813787309626617E-4,390846.87052519334,3.7639071773109385E-12,989.0729813160681,-3.64278157042967,-5.490238830695832,5.711078080204413
3540.0,5160718.10680939,-1174505.4915724164,-4210678.94036586,2603097.9013496838,4606277.926082532,-4212882.226006122,-3844.395632725419,5570.572618459273,3622.157827012253,-3.349417852255917,-5.926798294137291,5.436311540416961,6762723.596077956,1.2814603316406326,1.666949657902456,-0.6125035048353372,2.29636416421744,1.7244187519207848,0.28418631752102047,-2.0250631419817218,-0.0023915751981278413,-1.3288075465340817E-4,-5.716779374465483E-4,393478.9468147223,3.5084774132029364E-12,983.762364882291,-3.349418169955645,-5.926797806922587,5.436311868386579
3600.0,5398692.621320774,-878607.6442660391,-3983911.953266497,2366587.960569438,4929594.782811626,-3985943.3721027644,-4036.1878564980043,5202.5744709291275,3939.477927711962,-3.041322089546203,-6.334915877448705,5.137065312301288,6763530.162183283,1.2858356008883016,1.589850645461925,-0.6222559788562392,2.253906397773101,1.5792142722469378,0.31860939537977245,-2.0290745094250484,-0.002407056156721188,-8.891478357624643E-5,-5.614950574627415E-4,396082.4550489301,3.27431262835626E-12,978.718598085288,-3.0413224001332297,-6.334915452562166,5.137065645062771
3660.0,5614402.403802397,-580647.86767143,-3738667.827844889,2119133.238463713,5230115.003095953,-3740517.985125168,-4209.0890872420205,4810.986711884591,4238.145559454184,-2.719968204811634,-6.712838414163157,4.81481699556482,6764348.516519454,1.2902108701359387,1.5149386146506134,-0.6306992779695993,2.209185702537362,1.4323437689824077,0.35164040223103055,-2.035782027539653,-0.0024133445241735674,-5.1821034685631114E-5,-5.509467481086607E-4,398655.66807044117,3.0598736503208387E-12,973.9549802646795,-2.719968506857968,-6.712838046735116,4.814817329977349
3720.0,5806898.829482919,-281802.72869628674,-3476105.337342345,1861890.1514581018,5506478.5480065765,-3477765.687089545,-4362.349346619787,4397.670004597185,4516.8273214865585,-2.386881067642582,-7.058958894573617,4.471139330828507,6765162.744824087,1.29458613938356,1.44284668407394,-0.6374940299486613,2.1620168466878456,1.2840913837968482,0.3831752345202465,-2.0454419066478415,-0.002411093936848065,-2.1612761256868736E-5,-5.401376341739061E-4,401197.1617419297,2.8637004029233393E-12,969.4843814407068,-2.3868813600406553,-7.058958579962184,4.4711396642513925
3780.0,5975331.675630255,16758.393878953644,-3197460.3369841655,1596057.3424682827,5757439.820008009,-3198923.219253907,-4495.311503731601,3964.5768653425253,4774.2868532642815,-2.0436295812252157,-7.371823663269486,4.107693055403287,6765957.131955366,1.2989614086311496,1.3741167606359155,-0.6423522229647713,2.112272818218151,1.1346940597969803,0.4129769575899964,-2.05830371978017,-0.002401091633918664,1.8322437717701874E-6,-5.291555310676853E-4,403705.6373706189,2.6844148257342272E-12,965.3185049132758,-2.0436298631437526,-7.371823397085031,4.107693385640336
3840.0,6118952.62864101,313877.75123583176,-2904039.7918016696,1322870.0349927866,5981872.894179063,-2905298.4657423804,-4607.413705658131,3513.742266918842,5009.3898905678125,-1.6918195329248762,-7.6501388609381245,3.7262193013820064,6766716.589703694,1.3033366778787392,1.3091722609402634,-0.6450352583965879,2.0599079124805098,0.9843654585567277,0.4406844239807762,-2.074555468394588,-0.002384185106265612,1.8749862373309183E-5,-5.18068509708828E-4,406179.74544333806,2.5207223128787662E-12,961.467245292758,-1.6918198037682985,-7.650138639059002,3.726219626628721
3900.0,6237118.34807411,608413.5519981135,-2597215.5154344304,1043594.2546029689,6178776.174352018,-2598264.1880244818,-4698.191361051627,3047.2738719247,5221.108838388833,-1.3330858512675783,-7.892776248951648,3.3285310812212274,6767427.039333971,1.307711947126297,1.2482992939587547,-0.6453507456826607,2.0049740220404977,0.8333326977569212,0.4658359297355748,-2.094267793777253,-0.002361217123302797,2.946283542597728E-5,-5.069238759495655E-4,408617.9129156271,2.3714120399694317E-12,957.9381466084417,-1.3330861106390859,-7.892776067532542,3.3285314000153736
3960.0,6329293.072614255,899244.1587231931,-2278417.6505322703,759520.9456735644,6347276.4533358915,-2279251.500889811,-4767.278643614872,2567.341946205755,5408.526806098604,-0.9690843734016757,-8.098777976749393,2.9165038996542716,6768075.719725795,1.312087216373823,1.191638289273642,-0.6431495951481707,1.9476279801577168,0.6818800132651919,0.4879059055023171,-2.11734301101493,-0.0023329749858570776,3.4353035588867825E-5,-4.957488747929147E-4,411018.1766006971,2.2353563591403476E-12,954.7359546426089,-0.9690846210700195,-8.09877783222356,2.9165042108301362
4020.0,6395050.756202073,1185272.1365415987,-1949127.9244693054,471960.01292426715,6486632.360167917,-1949743.123652838,-4814.409492195371,2076.169027107265,5570.841057929638,-0.6014833415108374,-8.267359941892307,2.4920656984046827,6768651.4050739305,1.3164624856213492,1.1391867486068965,-0.6383244704797909,1.888129099773718,0.5303908803107725,0.5063514968970818,-2.143475715226133,-0.002300156561656702,3.3836256233751176E-5,-4.845527657946433E-4,413378.0257602176,2.111509357214155E-12,951.8622526411466,-0.6014835773807008,-8.267359830968902,2.492066001051189
4080.0,6434076.726803088,1465428.1377567449,-1610872.71644704,182234.31830106667,6596237.182349681,-1611266.4426880819,-4839.4180994352855,1576.0194372442288,5707.3658480082795,-0.23195490587841597,-8.397913567414951,2.0571864558589397,6769144.531432078,1.3208377548688435,1.0908124546146858,-0.630809937132664,1.8268273878193877,0.37937851139499756,0.5206648094763463,-2.172132480398517,-0.0022633527987605015,2.8341853290611636E-5,-4.733298564338485E-4,415694.2576331508,1.9989046397404572E-12,949.3151676272544,-0.23195512996424084,-8.397913487072483,2.057186749281635
4140.0,6446168.864906223,1738674.60781327,-1265215.9732965343,-108326.33629510016,6675621.056659534,-1265386.4226292358,-4842.238897642009,1069.188738806678,5817.53463000428,0.13783309708081012,-8.49000602884247,1.6138677991642914,6769547.245524918,1.325213024116306,1.0462752834602123,-0.6205839251982743,1.764144097896343,0.2294950659627045,0.5304255115985269,-2.2025575704038562,-0.002223044422524915,1.829838337240073E-5,-4.620631014881841E-4,417962.8501504695,1.896652395932186E-12,947.0891340171456,0.13783288467778698,-8.490005976319326,1.6138680828511165
4200.0,6431238.303183074,2004009.3003411149,-913752.0112587729,-398391.2108932423,6724452.52765785,-913698.4035343432,-4822.906064776089,557.9932157443981,5900.901651828316,0.5062248943904463,-8.543379145498877,1.1641329371772502,6769853.39920187,1.3295882933637686,1.0052548846791058,-0.6076696147857639,1.700547162099577,0.08151329914247128,0.5353476656936182,-2.2338085078340684,-0.0021796094909260844,4.1253084073583346E-6,-4.507279418718039E-4,420178.85628699727,1.8039358012402286E-12,945.1747010064878,0.5062246935022161,-8.543379118281669,1.1641332107678828
4260.0,6389309.652278103,2260468.5915947813,-558098.2399044674,-686634.5860791346,6742539.477779593,-557820.8202001026,-4781.5525821668225,44.7594545711567,5957.142961161526,0.871583964128971,-8.557947259984727,0.7100171096796768,6770058.5168001875,1.3339635626111994,0.9673810219031683,-0.5921366559395166,1.63652450788277,-0.06371929103259648,0.5353146476327951,-2.2648196049552043,-0.002133338249164776,-1.3769986286020165E-5,-4.3929613132193286E-4,422336.324287994,1.7200068153806373E-12,943.5583694928375,0.8715837745381301,-8.557947255795138,0.7100173729382034
4320.0,6320520.76015678,2507130.5871156617,-199887.84253861106,-971741.6524816754,6729829.436543016,-199387.8779910769,-4718.408877532722,-468.18592579042974,5986.056855162548,1.2322996827329198,-8.533794442859048,0.253558608609369,6770159.760108304,1.3383388318585985,0.9322633702312365,-0.5741007541230834,1.5725582624934153,-0.2053461433042394,0.5303973337506093,-2.294484598883277,-0.002084452016298671,-3.499113960167288E-5,-4.277393608598642E-4,424428.2473382202,1.6441814884990052E-12,942.2224500739178,1.2322995041876945,-8.533794459639617,0.25355886139998673
4380.0,6225122.013867275,2743118.0155170877,159237.5545840385,-1252414.307156621,6686409.278860788,159957.78247097938,-4633.8010829081295,-978.5263630195839,5987.563807142338,1.5867935358811607,-8.471171283223482,-0.20320969712811465,6770155.907733833,1.3427141011059978,0.8995180244050827,-0.5537210012776996,1.5091023945100859,-0.3425735060983022,0.5208534235612994,-2.3217441441109576,-0.0020331233898597816,-5.9149244670838723E-5,-4.160325309038305E-4,426446.54519999697,1.5758814031821038E-12,941.1508577181232,1.5867933681034052,-8.471171319123815,-0.20320945485551417
4440.0,6103475.193262377,2967600.905734857,517635.1936959592,-1527376.8344668143,6612504.323967182,518572.4012031947,-4528.1489296012915,-1483.965238978811,5961.705896343677,1.9335250288844823,-8.370491392695941,-0.658268476172879,6770047.354719152,1.347089370353365,0.8687887786673381,-0.5311947829590921,1.446565548662797,-0.47473325920376036,0.5071091594501191,-2.345662719106143,-0.00197949567629087,-8.585826791131851E-5,-4.041565432352187E-4,428382.07905648457,1.5147013622241197E-12,940.3395571612884,1.9335248715688778,-8.370491446063943,-0.6582682443836726
4500.0,5956051.88665133,3179799.044935356,873668.4483649153,-1795381.4501468076,6508476.847554498,874818.3660845428,-4401.963294580884,-1982.2355488647693,5908.645757809179,2.2709974097992243,-8.232327607221935,-1.1096198397353696,6769836.127135915,1.3514646396007006,0.8397622122374612,-0.5067505183179626,1.3852998783349577,-0.6013248780639765,0.48972769413695927,-2.365483185596503,-0.0019237000396919322,-1.1473076196580151E-4,-3.921005003590692E-4,430224.6994566135,1.4602861297167697E-12,939.7828205688086,2.2709972626247916,-8.232327676596478,-1.109619618328006
4560.0,5783431.478933218,3378984.214727522,1225714.0092813426,-2055213.6879341833,6374824.020826951,1227071.4029174051,-4255.843407678319,-2471.109330519507,5828.665061563095,2.5977632537671322,-8.057407764711613,-1.5552951355474636,6769525.897747529,1.3558399088480522,0.8121765493872568,-0.4806388028521847,1.3255957730123198,-0.7220314402479858,0.46936999003693164,-2.380654038478299,-0.001865869372398267,-1.4537484678938395E-4,-3.798632195403546E-4,431963.32603199966,1.4123086461326232E-12,939.4705779387277,2.5977631164096704,-8.05740784881376,-1.555294924372893
4620.0,5586298.723829026,3564482.203669439,1572168.9649407847,-2305697.6086736834,6212175.291725057,1573727.6602672022,-4090.4737285315973,-2948.4068236380904,5722.162527043395,2.912429875085919,-7.846609898170386,-1.9933626386908478,6769121.9846843,1.360215178095356,0.785824995072298,-0.45312268585199317,1.2676816786150926,-0.836711496652272,0.44675410949623334,-2.390831288590365,-0.0018061483310381054,-1.7739303782149051E-4,-3.6745400049415487E-4,433586.056702542,1.3704703444184428E-12,939.3884531491146,2.912429747229015,-7.846609995893457,-1.9933624375702303
4680.0,5365440.913425546,3735674.5945837623,1911457.7495761828,-2545700.812442773,6021289.225660455,1913210.6614190943,-3906.6205064393935,-3412.0053197631096,5589.651481130401,3.2136644632330764,-7.600956721736786,-2.4219350530467896,6768631.316053685,1.3645904473426438,0.7605546909941193,-0.42446783246130293,1.2117277999383123,-0.9453733034157621,0.4226174628794606,-2.3958615048499188,-0.0017446993647132355,-2.1038310112157254E-4,-3.54892630842402E-4,435080.3034548926,1.3344967266848265E-12,939.5171680565938,3.213664344578204,-7.600956832135195,-2.421934861788225
4740.0,5121744.660219749,3892000.326097386,2242038.9313969365,-2774139.2352512465,5803049.825619977,2243978.096493542,-3705.128043791493,-3859.8476592841553,5431.756975469585,3.500198803987044,-7.321609383803817,-2.839176671852374,6768062.348990794,1.3689657165913447,0.7362625933986582,-0.39493322981981605,1.1578523536524257,-1.0481395102132371,0.3976847580726141,-2.395754021505258,-0.001681704895081984,-2.4394076506086115E-4,-3.4220866760504675E-4,436432.95147847803,1.3041146533743963E-12,939.829201245588,3.5001986942642676,-7.321609506078888,-2.8391764902691827
4800.0,4856192.308823176,4032957.029178245,2562411.8154205643,-2989981.7133575357,5558462.354100759,2564528.428992486,-3486.914691969346,-4289.95033371335,5249.212488598822,3.77083345804517,-7.0098605819277715,-3.243310031017978,6767424.940068979,1.373340985838585,0.7128895048176072,-0.36476294295409123,1.1061291435566496,-1.1452095544441734,0.3726427010445901,-2.390649352587004,-0.0016173660866908885,-2.776638551839586E-4,-3.2944008787617196E-4,437630.5383882959,1.279093815073885E-12,940.2949059871203,3.770833357018776,-7.009860715416036,-3.2433098589393228
4860.0,4569857.996247927,4158102.1408933,2871122.8369970038,-3192254.300181963,5288648.681599736,2873407.292863545,-3252.9686148457777,-4700.411160458049,5042.856247437095,4.024441322771812,-6.667127236962795,-3.632621928330152,6766730.172882154,1.3777162550858253,0.6904132850427731,-0.3341792498542439,1.0565954675698237,-1.2368249408086016,0.34812129289416943,-2.3807886994464442,-0.0015518988569409107,-3.1115726378043196E-4,-3.1663144816320555E-4,438659.45033033687,1.2598162412770018E-12,940.9704717505549,4.024441230203406,-6.6671273811900855,-3.6326217655369635
4920.0,4263903.3805077,4267053.799534575,3166771.724381873,-3380044.32299293,4994842.1879586335,3169213.658427568,-3004.343357222301,-5089.416511010961,4813.627208074531,4.259970579755265,-6.294942974916803,-4.005468760689133,6765990.155627563,1.3820915243330338,0.6688420048328219,-0.3033773163985515,1.0092596538844822,-1.323240354397106,0.3246809160088408,-2.3664871734189363,-0.0014855279053045724,-3.440381201688709E-4,-3.038317221069673E-4,439506.13183608546,1.246720233254181E-12,941.916749306984,4.259970495420604,-6.29494312961133,-4.005468606934565
4980.0,3939573.057673328,4359491.526443378,3448017.4111403096,-3552504.1687317602,4678382.243555798,3450605.747941831,-2742.1532530261406,-5455.248088209782,4562.5607358882635,4.476447107013497,-5.894950647666969,-4.360281223896391,6765217.804766335,1.3864667935802266,0.6482075500955958,-0.2725214283295112,0.9641077997675939,-1.4047017551252148,0.3028041844079257,-2.3481115913215116,-0.0014184795846833855,-3.75940576818246E-4,-2.910919964782673E-4,440157.30624584696,1.2402117684038435E-12,943.1829018651013,4.476447030726607,-5.894950812758601,-4.360281078939657
5040.0,3598189.686954934,4435156.701047459,3713583.681433452,-3708854.7902520443,4340708.297226525,3716306.6838431302,-2467.56870167924,-5796.289260005303,4290.784019974297,4.6729764846350195,-5.468895045997462,-4.695568492730887,6764426.629555453,1.3908420628273876,0.6285599693663134,-0.24174268731176674,0.9211095152246179,-1.481431399573184,0.28289158136882303,-2.3260626090966907,-0.0013509743991063472,-4.065197441108185E-4,-2.7846319560285884E-4,440600.20332830376,1.2407315114113087E-12,944.8135490374617,4.672976416267522,-5.4688952216201425,-4.695568356363692
5100.0,3241148.8425629083,4493852.836071492,3962264.533101718,-3848388.925712188,3983353.597130505,3965109.85457827,-2181.8113328333247,-6111.030963132501,3999.5112486453754,4.84874573162045,-5.018615847496487,-5.00992202992076,6763630.526882808,1.3952173320745327,0.6099626961843835,-0.21113800239495095,0.8802226421696038,-1.5536190565639836,0.2652600734937215,-2.300760454524105,-0.001283219807195417,-4.3545446205718456E-4,-2.6599397834992333E-4,440822.79038892634,1.2487918965666789E-12,946.8515065618668,4.8487456711197625,-5.018616033992586,-5.009921901991697
5160.0,2869913.610205758,4535445.659924468,4192929.244798194,-3970474.02483589,3607938.569974685,4195883.984269395,-1886.1490722138944,-6398.077189343903,3690.0385642083606,5.003024878103042,-4.546040736680673,-5.302019151402965,6762843.587913516,1.399592601321678,0.5924886688264686,-0.18077016412626826,0.841397029933314,-1.6214183677189857,0.2501440758120439,-2.2726334250856475,-0.0012154038631603946,-4.6244876148537347E-4,-2.537289153558332E-4,440814.00277214847,1.2650089439127234E-12,949.339502024005,5.003024825510968,-4.546040934607687,-5.302019031841927
5220.0,2486008.9454787015,4559863.013013445,4404527.134324416,-4074554.8763683373,3216163.8833968146,4407577.893361062,-1581.891116859082,-6656.1500609541945,3363.7388093596446,5.135168414232494,-4.053178572553254,-5.570626410787266,6762079.909872129,1.4039678705687753,0.5762173038678053,-0.15066877119635994,0.8045775098270183,-1.6849472090556368,0.23769829547671287,-2.242108454154579,-0.0011476900620134443,-4.872320171713141E-4,-2.417070136985226E-4,440563.9693407641,1.290133532829352E-12,952.3213696923806,5.135168369705436,-4.053178782693175,-5.570626299631477
5280.0,2091015.811247191,4567094.564431329,4596091.995995145,-4160155.9315211517,2809803.2161438754,4599224.938070707,-1270.3828276550717,-6884.094494712676,3022.056076240898,5.244616588588166,-3.5421124825330477,-5.814602782790921,6761353.40026263,1.4083431398158728,0.5612322460619165,-0.12083178322948813,0.7697062376193472,-1.7442909356725687,0.22800208448945003,-2.2096032792258447,-0.0010802135962249809,-5.095579165057868E-4,-2.2996061755563735E-4,440064.2283884629,1.325083153047134E-12,955.842699299048,5.244616552420144,-3.5421127059044575,-5.81460268021425
5340.0,1686565.111371958,4557191.355330541,4766746.2056042,-4226883.318754032,2390695.760923635,4769947.117209918,-953.0005502836475,-7080.882447566025,2666.5000726432027,5.330896481639302,-3.014992831590417,-6.032902556108353,6760677.558963702,1.4127184090629386,0.5476198048127605,-0.09122749253012541,0.7367245751493444,-1.7995074840844631,0.2210649880453953,-2.1755199772081846,-0.0010130790945172448,-5.292024535779449E-4,-2.1851468072132306E-4,439307.9296048015,1.3709730834353832E-12,959.9506549150524,5.330896454289004,-3.0149930694625935,-6.032902462455773
5400.0,1274331.4385100221,4530265.175427659,4915704.48261658,-4274426.546054192,1960738.4852217985,4918958.835997886,-631.1463805803227,-7245.616738053258,2298.6403262645813,5.393622774059849,-2.4740301279430663,-6.224577820501292,6760065.226883088,1.4170936783099726,0.5354679889759852,-0.061796737206242035,0.7055746708144114,-1.8506334403190876,0.21683319850634186,-2.140239810894759,-9.463598102288252E-4,-5.45961211053141E-4,-2.0738638265661567E-4,438290.0182040271,1.429143820169948E-12,964.6924963976164,5.393622756182857,-2.474030381850339,-6.224577736330483
5460.0,856026.653863659,4486487.779446001,5042277.300661015,-4302559.887958498,1521878.175570716,5045570.31793798,-306.24289405220816,-7377.534444294213,1920.100254113711,5.432498172874416,-1.92148804092529,-6.388780467588044,6759528.297917123,1.4214689475570224,0.5248660612273358,-0.03245521383055302,0.6762008808107649,-1.897690344227918,0.21519663291417956,-2.1041194356397432,-8.800981603241622E-4,-5.596462168491368E-4,-1.9658504476340272E-4,437007.39810630505,1.5011791851422913E-12,970.1122541200032,5.432498165361447,-1.921488312678176,-6.388780393720129
5520.0,433393.3162910436,4426089.950690863,5145873.9391197935,-4311143.455771477,1076103.2903309963,5149190.657552138,20.272140802463344,-7476.009892501175,1532.5511264649297,5.447313541018066,-1.3596767769176932,-6.524763716919664,6759077.402226078,1.4258442168040246,0.515904547249077,-0.0030957863973779436,0.6485511539801506,-1.9406906816561778,0.2159963599201717,-2.0674885463936175,-8.143074850180934E-4,-5.700826678358555E-4,-1.8611229728253943E-4,435459.0720112246,1.5889075124426928E-12,976.2451498863435,5.447313545039362,-1.3596770686053719,-6.5247636545005205
5580.0,8197.976934118109,4349360.419070445,5226005.170281756,-4300123.950469453,625435.6447593432,5229330.508437723,346.9510514017603,-7540.557264872134,1137.7059503746968,5.437947873640974,-0.7909470497630718,-6.631883305136751,6758721.580732701,1.430219486051027,0.5086756516503124,0.02640927252078998,0.6225784863579547,-1.9796432036216707,0.21903212101455583,-2.0306490173999787,-7.489748970016134E-4,-5.771058076833622E-4,-1.759624483167874E-4,433646.25715352397,1.6943781294672986E-12,983.1098797583843,5.437947890695762,-0.7909473637397897,-6.631883255709107
5640.0,-417775.6464706484,4256644.640430346,5282285.577699792,-4269535.098307905,171921.95002857666,5285604.402287299,672.3415494251071,-7570.832867286938,737.3132857035699,5.4043683449007185,-0.21768477972073147,-6.70959859837468,6758467.980300968,1.4345947552979816,0.5032740511541891,0.056206134127214,0.5982425391511115,-2.0145573903214165,0.22406972622319732,-1.99387552162975,-6.840651114576612E-4,-5.805582388776827E-4,-1.6612301332880508E-4,431572.47630083136,1.8198090210011415E-12,990.6998346502627,5.40436837686902,-0.21768511856789358,-6.709598563959123
5700.0,-842733.6037675744,4148343.4428582075,5314435.5016461015,-4219497.768885846,-282374.7747039307,5317732.69476367,994.9920305011779,-7566.637100189253,333.1509883486792,5.346630681181227,0.35769352455922654,-6.757473964990652,6758321.6036128,1.4389700245449362,0.4997980562984766,0.08645734785518909,0.5755115072130368,-2.045447032514763,0.23084815571143635,-1.9574175362659696,-6.195251859595405E-4,-5.80287946544253E-4,-1.565753744250797E-4,429243.6239835765,1.967510144003093E-12,998.9754807465005,5.346630730373702,0.35769315810215724,-6.757473948171104
5760.0,-1264878.7453050013,4024911.543630886,5322282.60662383,-4150219.774256856,-735383.900475757,5325543.133187122,1313.4569117975898,-7527.916166904098,-72.98014524354373,5.2648800812981245,0.9327449610386038,-6.775180744595007,6758285.145617107,1.443345293791875,0.4983511564541201,0.1173398104575197,0.5543643250307798,-2.0723330216899196,0.23908626157369098,-1.921502561426478,-5.552901455949286E-4,-5.761473187591398E-4,-1.472955523669619E-4,426668.00795649167,2.1397981625866883E-12,1007.8607890880417,5.264880150498767,0.9327445641770853,-6.775180748602082
5820.0,-1682417.8450004274,3886855.9379220563,5305763.063774434,-4061995.3457373143,-1185035.981708469,5308972.0388709465,1626.3020445048376,-7454.763532038092,-479.2628760715925,5.159352800572101,1.5050044576055575,-6.762500057863458,6758358.939353077,1.447720563038782,0.4990439906492622,0.1490426866059927,0.5347933046750629,-2.0952455167255364,0.24848903171251271,-1.8863403118428042,-4.912895161490726E-4,-5.679934668922187E-4,-1.382550893625963E-4,423856.36548378866,2.3389260128831863E-12,1017.2460049359964,5.159352893069176,1.5050040276234924,-6.762500086648451
5880.0,-2093568.804537071,3734734.157673315,5264922.338047705,-3955204.2827208233,-1629271.629031589,5268065.093967226,1932.1102408157747,-7347.4211116729675,-883.8702167868927,5.030378363366632,2.071989585881644,-6.7193265328937795,6758541.019284135,1.4520958322856732,0.501996820341923,0.18176516165189835,0.5168073162598492,-2.1142256875439465,0.2587534427082865,-1.8521275880791017,-4.2745482969684515E-4,-5.55690180022572E-4,-1.2942205629785586E-4,420821.8533384812,2.5670474020270466E-12,1026.9969918083843,5.030378482969158,2.071989120296927,-6.719326591187556
5940.0,-2496567.927413435,3569152.396656565,5199915.566765787,-3830310.7655927828,-2066050.4442439333,5202977.719447331,2229.4869478849128,-7206.280142954161,-1284.9723741802973,4.878382203641165,2.6312065188334692,-6.6456728149527,6758827.292794685,1.4564711015325642,0.5073426224656067,0.21571386938639905,0.5004356480465506,-2.129327229425712,0.2695739841300542,-1.8190534921344423,-3.637281944511981E-4,-5.39111886258252E-4,-1.2076221321277603E-4,417580.00959927,2.8262206838297132E-12,1036.968797174498,4.878382354680511,2.6312060155655157,-6.645672908306556
6000.0,-2889677.247525187,3390763.496221614,5111007.513455922,-3687861.8233422944,-2493359.995838276,5113975.028083773,2517.066084912092,-7031.88165096864,-1680.743977899957,4.703888397701871,3.180157548896104,-6.5416745287850695,6759211.793763288,1.4608463707794237,0.5152309753291291,0.2510997973700486,0.48573272330702577,-2.140617802484338,0.2806479772038047,-1.787304616155585,-3.000720243995785E-4,-5.181500334744076E-4,-1.1224036538820999E-4,414148.68467018043,3.1184364994301576E-12,1047.019522244025,4.7038885850192855,3.1801570064382814,-6.541674663593026
6060.0,-3271191.8916342673,3200264.785862425,4998572.079234892,-3528485.4461553814,-2909224.8079694137,5001431.334707738,2793.5160368810516,-6824.9164125274865,-2069.3716090360126,4.5075220846022015,3.7163503466418435,-6.40759522797737,6759686.979789172,1.4652216400262512,0.525832981237265,0.2881344292259857,0.47278390889184313,-2.148180488516507,0.29168083170609166,-1.7570697970069797,-2.3647999163923776E-4,-4.927223296852522E-4,-1.0382196776669924E-4,410547.93866061466,3.445641032785329E-12,1057.020949446125,4.507522313522465,3.716349764237112,-6.407595411479812
6120.0,-3639447.4492717683,2998395.773656751,4863091.35409031,-3352888.3343932754,-3311715.329564816,4865829.206079501,3057.5457743052098,-6586.224314011749,-2449.0616126774953,4.290011187789248,4.237308860578652,-6.243830830943041,6760244.029599002,1.4695969092745076,0.5393475649425852,0.3270248373613557,0.4617127328511772,-2.1521152823485545,0.3023913829707887,-1.7285439912310179,-1.729891795876168E-4,-4.627852789036489E-4,-9.547503518630346E-5,406799.90253738774,3.809727764112051E-12,1066.8642161810683,4.290011464078573,4.237308238401231,-6.24383107120974
6180.0,-3992827.318275508,2785935.683608119,4705154.192222032,-3161853.2778449934,-3698956.844444648,4707758.034528723,3307.9110478337884,-6316.793014243266,-2818.048150248557,4.052187153450744,4.74058550813691,-6.050913118292518,6760873.100748823,1.4739721785212876,0.5560096160048913,0.3679673918789821,0.4526899452416171,-2.1525405578255548,0.3125174232767553,-1.7019307874718723,-1.0969325944976652E-4,-4.2835038284820125E-4,-8.717241155164065E-5,402928.60134665755,4.2124816630808456E-12,1076.4608341284556,4.052187483254601,4.740584847484026,-6.050913424179964
