time,gePosition_m_X,gePosition_m_Y,gePosition_m_Z,eiPosition_m_X,eiPosition_m_Y,eiPosition_m_Z,eiVelocity_m_s_X,eiVelocity_m_s_Y,eiVelocity_m_s_Z,eiAccel_m_s2_X,eiAccel_m_s2_Y,eiAccel_m_s2_Z,semiMajorAxis_m,gast_rad,eulerAngle_rad_Roll,eulerAngle_rad_Pitch,eulerAngle_rad_Yaw,eulerAngleWrtEi_rad_Roll,eulerAngleWrtEi_rad_Pitch,eulerAngleWrtEi_rad_Yaw,bodyAngularRateWrtEi_rad_s_Roll,bodyAngularRateWrtEi_rad_s_Pitch,bodyAngularRateWrtEi_rad_s_Yaw,altitudeMsl_m,airDensity_kg_m3,ambientTemperature_dgK,eiGravitation_m_s2_X,eiGravitation_m_s2_Y,eiGravitation_m_s2_Z
0.0,-1436381.48862739,4185811.47756286,5163944.85376219,-4315967.73999999,960356.199999999,5167269.52999999,129.091036999934,-7491.51385500013,1452.51565399991,5.45458038109295,-1.21387536214779,-6.54917495100193,6759053.07578975,1.02331933954551,0.0,-0.202458193231342,-1.0E-16,-2.47159390556422,-0.0371889647578316,-1.42899313520438,0.0,-0.0011222300308155,0.0,435023.891975937,1.782E-12,992.872619628906,5.45458039018891,-1.21387568999753,-6.5491748846485
60.0,-1794960.01130978,3943151.44550091,5239238.56940683,-4298410.85896222,509021.507966546,5242566.8086826,455.963917910248,-7547.27717034002,1056.38092041681,5.43713891255895,-0.64404441459877,-6.65043758817726,6758732.79411015,1.02769460895833,-3.98647212197E-5,-0.203738769818926,-1.951355458517E-4,-2.4720885207444,0.0165636323569785,-1.38630657662972,-1.8801710214E-6,-0.0011656564874705,-3.4699794611E-6,433132.370210207,1.7267E-12,986.205932617187,5.43713893439207,-0.644044734900807,-6.65043754140236
120.0,-2147590.37512869,3685728.99564112,5290614.71690502,-4261287.553872,55369.4384369755,5293931.36901961,781.062667921244,-7568.72037013906,655.053572822206,5.39544854057538,-0.0702738878999944,-6.72218230007977,6758511.83645275,1.03206987837114,-1.758375056418E-4,-0.207589805123614,-6.020040072178E-4,-2.47028412169528,0.0722040457284397,-1.3417494754458,-3.9885826213E-6,-0.0012094582793315,-7.212578445E-6,430978.018773451,1.8565E-12,994.004028320312,5.3954485779651,-0.07027423354726,-6.72218226888354
180.0,-2492788.95039293,3414636.12318217,5317815.10477714,-4204747.88580067,-398535.164030916,5321105.05754427,1102.93432295989,-7555.67984302026,250.317972000452,5.32959029536219,0.505005331985173,-6.76398432601428,6758393.20166591,1.03644514778395,-4.330492555999E-4,-0.214040669445829,-0.001226047732264,-2.46587847401699,0.129631334662928,-1.29499253116416,-6.3567187756E-6,-0.0012539729134434,-1.12489788885E-5,428573.636912362,2.0097E-12,1002.47467041015,5.32959035074395,0.505004958146829,-6.76398431310414
240.0,-2829091.77085456,3131014.78128509,5320689.23443217,-4129028.89210547,-850622.032555235,5323937.48121021,1420.1335727923,-7508.13875476209,-156.019337218119,5.23973872701797,1.07933256028168,-6.77552975591377,6758378.17986693,1.04082041719676,-8.375710190411E-4,-0.223141275040459,-0.0020710285513223,-2.45850605917338,0.188728103854368,-1.24561986799932,-9.023016699E-6,-0.0012995363581209,-1.56039146884E-5,425928.411940439,2.1885E-12,1011.53186035156,5.23973880332515,1.07933215535562,-6.77552976467798
300.0,-3155060.47871963,2836052.52179473,5299195.42892744,-4034453.95726747,-1298824.33431116,5302387.13599944,1731.22845134578,-7426.22863724357,-562.136422553879,5.1261644929907,1.65022422781634,-6.75662039269388,6758466.54302775,1.04519568660958,-0.0014166765125167,-0.234962000309653,-0.0031386853408883,-2.44771706538423,0.249350994303499,-1.19311080497771,-1.20333604956E-5,-0.0013464814005959,-2.0306368499E-5,423055.476934961,2.3956E-12,1021.05725097656,5.12616459368553,1.65022378899719,-6.75662042727859
360.0,-3469288.2892563,2530977.96841282,5253401.54549585,-3921431.83788544,-1741087.60886145,5256522.11903152,2034.80616980836,-7310.23051674882,-966.20304872823,4.98923647559145,2.2151822600022,-6.70717839753126,6758656.71324346,1.04957095602238,-0.0021991505823876,-0.249593492208749,-0.0044283617413438,-2.43295099554875,0.311317261577454,-1.13681548049464,-1.54416448394E-5,-0.0013951350553469,-2.5390283903E-5,419967.239707485,2.633E-12,1030.91076660156,4.9892366046819,2.21518178473524,-6.70717846290201
420.0,-3770405.95283286,2217056.12946369,5183485.25525563,-3790455.33428157,-2175378.75836649,5186520.40758222,2329.47905582524,-7160.57550371259,-1366.38802279386,4.82942317110422,2.77170358000877,-6.62725028061981,6758945.87068899,1.0539462254352,-0.0032156649768739,-0.267146278783067,-0.0059365855807096,-2.41350352332261,0.374385892827014,-1.07592299534298,-1.93103978345E-5,-0.0014458146329693,-3.08952913122E-5,416674.070298541,2.9032E-12,1040.94494628906,4.8294233331465,2.77170306616047,-6.62725038260567
480.0,-4057087.68974563,1895583.56070206,5089733.87581935,-3642099.60374399,-2599695.05560846,5092669.69072266,2613.89055155831,-6977.84479031444,-1760.86675229269,4.64729326418106,3.31729025775575,-6.51700998009989,6759329.98025309,1.05832149484801,-0.0044992490064088,-0.287750098659695,-0.0076565768530026,-2.38848549682411,0.438231075738999,-1.0094210056828,-2.37114435654E-5,-0.0014988220175282,-3.68674358582E-5,413194.225302618,3.2081E-12,1051.0185546875,4.64729346426748,3.31728970379297,-6.51701012541915
540.0,-4328057.07219111,1567883.39128005,4972543.74572917,-3477020.11330881,-3012073.13344475,4975366.7425037,2886.72122377538,-6762.76903240073,-2147.82895947533,4.44351548429538,3.84945980717994,-6.37676099960947,6759803.73734756,1.06269676426082,-0.0060858919526708,-0.311552825186176,-0.0095776534923268,-2.3567742397775,0.50240501600491,-0.936046939072027,-2.87265730905E-5,-0.0015544356324948,-4.33598815546E-5,409567.941496494,3.5502E-12,1061.00622558593,4.44351572802881,3.84945921235128,-6.37676119587716
600.0,-4582092.82797312,1235300.22748552,4832419.13296814,-3295950.23252612,-3410597.91873177,4835116.32893341,3146.69474947293,-6516.22711878649,-2525.48649972785,4.2188579807714,4.36575526661266,-6.20693778999461,6760360.45482687,1.06707203367362,-0.0080153278764309,-0.338718829628426,-0.0116844921964857,-2.31696084874775,0.566286212693412,-0.85423454098751,-3.4448176872E-5,-0.0016128995124492,-5.04335469451E-5,405797.411594239,3.9313E-12,1070.802734375,4.21885827422053,4.36575463114454,-6.20693804570671
660.0,-4818034.54142011,899194.949038532,4669970.67247296,-3099698.46837067,-3793411.47446701,4672529.64367416,3392.58385686917,-6239.24434600354,-2892.08124818582,3.9741875078832,4.86375493997015,-6.00810670064731,6760991.92969874,1.07144730308643,-0.0103320741604062,-0.369426591154348,-0.0139561827088135,-2.26730568918318,0.629008783524807,-0.762067944045621,-4.09797711305E-5,-0.0016744088580616,-5.81576020876E-5,401906.802174419,4.3536E-12,1080.32360839843,3.97418785751701,4.86375426527114,-6.008107025138
720.0,-5034788.22773786,560939.41185217,4485913.32911607,-2889145.34515637,-4158721.71503325,4488322.26892746,3623.21621819237,-5932.99001547458,-3245.8930394014,3.71046866461233,5.34108195638526,-5.78096685022777,6761688.33677035,1.07582257249925,-0.0130868267511326,-0.403865323347945,-0.0163649840750229,-2.20573248885766,0.689369558416551,-0.657273624378242,-4.8436325042E-5,-0.0017390914643833,-6.66097240968E-5,397917.914272202,4.8186E-12,1089.50219726562,3.71046907719922,5.34108124527558,-5.78096725358349
780.0,-5231331.75689741,221911.069833461,4281063.88294467,-2665239.93215789,-4504810.96001077,4283311.65829538,3837.48030164074,-5598.77445320905,-3585.24766353755,3.42876329709985,5.79541403903767,-5.52635116820875,6762438.19479583,1.08019784191205,-0.0163383646213066,-0.44223035189819,-0.0188746432561245,-2.12992566729556,0.745715495680501,-0.537314821397664,-5.69442655909E-5,-0.0018069845200174,-7.58759684408E-5,393867.747512246,5.3278E-12,1098.28637695312,3.42876377957937,5.79541329596952,-5.52635166114188
840.0,-5406720.10168335,-116512.472713993,4056337.93290843,-2428996.02111494,-4830044.29123599,4058414.13785027,4034.33119087045,-5238.04542448223,-3908.5249322297,3.130229984108,6.22449398970788,-5.24522766634011,6763228.43953816,1.08457311132487,-0.02015619583826,-0.484716952970159,-0.0214380574461744,-2.03764709954116,0.795830539128228,-0.399704523347097,-6.66410044331E-5,-0.0018780065361159,-8.6050067298E-5,389780.158640611,5.8818E-12,1106.6337890625,3.13023054340556,6.22449322100914,-5.24522825998893
900.0,-5560090.38163252,-452958.966505837,3812746.41455063,-2181487.95555169,-5132877.67521859,3814641.42088803,4212.79636985994,-4852.38388589476,-4214.16682388896,2.81612333985083,6.62614135849733,-4.93870076763438,6764044.62000616,1.08894838073768,-0.0246243103629394,-0.531512357409393,-0.0239939286208553,-1.92742883870865,0.836876191140425,-0.242693406729983,-7.76738009871E-5,-0.0019519246528299,-9.72319190758E-5,385687.514626428,6.4802E-12,1114.50939941406,2.81612398265613,6.62614057257808,-4.9387014733038
960.0,-5690666.67065452,-786067.067423187,3551391.62699271,-1923846.11454192,-5411865.80881864,3553096.63169481,4371.98145073361,-4443.49899387346,-4500.68570143334,2.48779273710126,6.99826558607439,-4.6080123152509,6764871.21303895,1.09332365015049,-0.0298466328551399,-0.582785657351282,-0.0264618293485805,-1.79972006098173,0.865492059585967,-0.0664108079371225,-9.01977565539E-5,-0.0020283183662501,-1.095249938858E-4,381616.575961743,7.1218E-12,1121.8837890625,2.48779346959188,6.99826479360521,-4.60801314407001
1020.0,-5797764.53185427,-1114491.91523442,3273462.76573015,-1657252.05564959,-5665669.64086826,3274969.83484747,4511.07579656885,-4013.22227943892,-4766.67256855812,2.14668001255694,7.33888062886226,-4.25454176022745,6765692.03197527,1.0976989195633,-0.0359551756051052,-0.638675437530505,-0.0287346891456261,-1.65818614481938,0.878188637260108,0.125843606448786,-1.043727384841E-4,-0.00210654188492,-1.230323639731E-4,377594.870412844,7.8039E-12,1128.73071289062,2.14668084007834,7.33887984288576,-4.25454272273076
1080.0,-5880795.23933528,-1436910.72043359,2980230.96071484,-1382933.32542025,-5893063.51717402,2981533.06952706,4629.35796624449,-3563.50090746258,-5010.80529968017,1.7943157763337,7.64612078021942,-3.87980501610428,6766490.69139388,1.10207418897612,-0.0431226475976559,-0.699275112665921,-0.030666950111175,-1.51021637146555,0.872061257312322,0.32710130215954,-1.203590787451E-4,-0.0021856888703862,-1.378510988428E-4,373656.832206921,8.5222E-12,1135.02661132812,1.79431670304068,7.64612001617175,-3.87980612173787
1140.0,-5939269.64433499,-1752028.33382691,2673043.82396415,-1102157.95078063,-6092941.89210371,2674134.89309401,4726.20088963721,-3096.38996351689,-5231.85675044491,1.4323140895404,7.91825716032505,-3.48545156715573,6767251.08439088,1.10644945838892,-0.0515827473219898,-0.764616196974528,-0.0320551625680498,-1.3655936731318,0.84557414837494,0.52806645349655,-1.383119976273E-4,-0.0022645651342029,-1.540648712699E-4,369829.78603168,9.2705E-12,1140.75036621093,1.43231511801113,7.91825643594118,-3.48545282371765
1200.0,-5972801.64243751,-2058582.7687525,2353319.51716628,-816228.630522489,-6264325.54759265,2354194.44440727,4801.07667274279,-2614.04374752465,-5428.70263587341,1.06236545785584,8.15371422044979,-3.07325959178616,6767957.83208286,1.11082472780174,-0.0616643922753978,-0.834650052595046,-0.0326047582489438,-1.23362065877318,0.798952312811822,0.720003915030672,-1.583748876527E-4,-0.0023416766596984,-1.71734832281E-4,366150.738436235,1.00411E-11,1145.88317871093,1.06236658872433,8.15371355550954,-3.07326100485472
1260.0,-5981111.19994523,-2355350.6419263,2022540.35683159,-526476.652055821,-6406367.26034977,2023195.0444542,4853.56093463299,-2118.70609314211,-5600.32905491389,0.686228265871617,8.35108561326156,-2.64512906184876,6768596.67542373,1.11519999721455,-0.0738527735241225,-0.909228999812027,-0.031870094490974,-1.12061232841642,0.733940725958373,0.897263804607102,-1.80671858905E-4,-0.002415241550959,-1.908891488389E-4,362636.789646212,1.08241E-11,1150.40734863281,0.686229497451288,8.35108502919844,-2.64513063416592
1320.0,-5964026.90052524,-2641152.49633404,1682245.98177044,-234255.564191077,-6518356.86029088,1682677.35909392,4883.33658977464,-1612.6997676017,-5745.8395431627,0.305718903565007,8.50914889970017,-2.20307294843154,6769154.7938649,1.11957526662736,-0.0889058666916196,-0.988087848429529,-0.0291391113934371,-1.02925782441325,0.653172640993559,1.05794108641167,-2.053002724634E-4,-0.0024832344107159,-2.115120454033E-4,359316.441405356,1.16079E-11,1154.30749511718,0.305720231544621,8.5091484190246,-2.20307467934282
1380.0,-5921487.97746433,-2914857.96848795,1334026.11445972,59065.3585973462,-6599725.62735847,1334232.15550155,4890.19700630759,-1098.41503325484,-5864.46154684501,-0.0772991104530396,8.62687874313397,-1.74920676806301,6769621.05001659,1.12395053604017,-0.108096212370381,-1.07082646496316,-0.0231927551273031,-0.959542609548464,0.559568593565369,1.20297956748966,-2.323243119342E-4,-0.0025434693566203,-2.335336863128E-4,356204.36353289,1.23791E-11,1157.56982421875,-0.0772976932292057,8.62687838869528,-1.74920865303652
1440.0,-5853545.80169055,-3175390.76258126,979512.95382434,352107.821356361,-6650049.97927978,979492.68986843,4874.04848888717,-578.297467484148,-5955.55222629624,-0.460926723935737,8.70345842044886,-1.28573672795982,6769986.1707649,1.12832580545299,-0.133769834914198,-1.15689155917746,-0.0117472600403588,-0.910081388354923,0.455983707085711,1.33487073025375,-2.617708614342E-4,-0.0025937227994793,-2.568226522827E-4,353326.509453094,1.31232E-11,1160.18237304687,-0.460925227582538,8.70345821455901,-1.28573875821878
1500.0,-5760364.80066643,-3421733.39524961,620373.242013641,643491.34161106,-6669054.40883559,620126.768969015,4834.91204988639,-54.835143782777,-6018.60351180319,-0.843241448476639,8.73828960384352,-0.814946690938613,6770242.88095041,1.13270107486579,-0.170841410046959,-1.24554634215114,0.0100398604549844,-0.879133884192693,0.345085220158052,1.45667565379966,-2.936289462518E-4,-0.0026318893624991,-2.811829219784E-4,350702.469298334,1.38248E-11,1162.13708496093,-0.843239886015065,8.7382895672938,-0.814948853301787
1560.0,-5642222.78807944,-3652931.67638598,258300.052019877,931840.166581832,-6656613.6354251,257828.5324743,4772.92444317973,469.454722130738,-6053.24634596636,-1.22230982686096,8.73100040983411,-0.339184114930464,6770386.00515768,1.1370763442786,-0.23173708440022,-1.33577406819778,0.0545115545391727,-0.8651723133745,0.229359770603132,1.57150051476043,-3.27853647304E-4,-0.0026561552204355,-3.063569901203E-4,348349.285913207,1.44684E-11,1163.42883300781,-1.22230821402287,8.73100056087363,-0.339186391841582
1620.0,-5499510.68895737,-3868098.89342653,-104995.653306604,1215790.22979942,-6612753.94196068,-105689.993399928,4688.33844062675,992.039556432385,-6059.25405426337,-1.59620020055537,8.68145167998554,0.139154932350836,6770412.54760094,1.14145161369142,-0.359376346653263,-1.42578552205719,0.164492136019971,-0.867128167942082,0.111169001352302,1.68229503674608,-3.643747056381E-4,-0.0026651651945681,-3.320359471741E-4,346280.997185628,1.50389E-11,1164.05578613281,-1.59619855540729,8.68145203332431,0.139152562536111
1680.0,-5332731.64962274,-4066419.66857962,-467793.636958762,1493996.10116923,-6537653.67451413,-468707.516988255,4581.52233472104,1510.38553259837,-6036.5447908871,-1.96299572757749,8.58974138524152,0.617641596099006,6770321.75200077,1.14582688310422,-0.826493622134285,-1.50810117885931,0.612608049793142,-0.884462895003565,-0.0071886865646827,1.79182144788063,-4.031091063136E-4,-0.0026581562336459,-3.578760997323E-4,344509.216866362,1.55224E-11,1164.01928710937,-1.96299406998486,8.58974195115961,0.617639158578736
1740.0,-5142499.5270307,-4247153.46064798,-828373.121301647,1765137.88364257,-6431642.88891237,-829502.220089199,4452.9586544115,2021.97188051879,-5985.18301303953,-2.32080757559395,8.45620697919726,1.0938307705377,6770115.13568659,1.15020215251704,-2.47908391700207,-1.50724346341651,2.24473284647651,-0.917151413712796,-0.123425251480221,1.90268796780492,-4.439760185346E-4,-0.0026350328033423,-3.835203193062E-4,343038.665106544,1.59068E-11,1163.32409667968,-2.32080592656688,8.45620776282815,1.09382829332335
1800.0,-4929536.75769283,-4409637.68554788,-1185021.57999391,2027928.0090389,-6295202.13586981,-1186360.55522584,4303.24208719224,2524.30527035407,-5905.37994635694,-2.66778815941666,8.2814255055226,1.56527815208032,6769796.48743839,1.15457742192984,-2.93402976913242,-1.42667444157381,2.67761364392275,-0.965612843765856,-0.235221710675037,2.01737940857394,-4.869118654768E-4,-0.0025963694693626,-4.086211949248E-4,341871.257240892,1.61828E-11,1161.97766113281,-2.66778654034284,8.28142650638331,1.56527566504065
1860.0,-4694671.6125787,-4553290.43254056,-1536043.52703096,2281117.88542175,-6128960.38431685,-1537586.03994542,4133.07661026365,3014.93413150985,-5797.49301836266,-3.00214423172886,8.06621131003266,2.02955753359368,6769371.8181455,1.15895269134266,-3.06441535092081,-1.34075561060685,2.78418494500869,-1.03058244711653,-0.340199771950053,2.13823335938621,-5.318832167751E-4,-0.0025433401894551,-4.328626161217E-4,341016.930842384,1.63439E-11,1159.99084472656,-3.00214266356237,8.06621252184719,2.02955506736785
1920.0,-4438834.8508938,-4677612.75667516,-1879769.24078716,2523504.34897147,-5933692.09117527,-1881507.98599826,3943.27184636927,3491.46276097652,-5662.02425521085,-3.32214959658846,7.81161131003167,2.48427800990473,6768849.25704939,1.16332796075546,-3.13199855141094,-1.25655315617503,2.82604067126228,-1.11289012318618,-0.435914547859242,2.26731023904384,-5.788956657486E-4,-0.0024775882153021,-4.559767914511E-4,340463.428994221,1.63869E-11,1157.37670898437,-3.32214809906402,7.8116127208565,2.48427559477919
1980.0,-4163055.79211627,-4782190.5319596,-2214563.36125495,2753935.87465679,-5710313.43458696,-2216490.10155779,3734.73867403717,3951.56507624625,-5499.61765724066,-3.62615721186332,7.51889790151391,2.9271007581255,6768238.89266731,1.16770323016828,3.10456967050963,-1.17565120131742,2.84483905412185,-1.21309857365406,-0.519889423684134,2.40610610957661,-6.279976949472E-4,-0.0024010606676607,-4.777547750097E-4,340210.327849827,1.63121E-11,1154.15148925781,-3.62615580276201,7.5188994941773,2.92709842290807
2040.0,-3868457.83173293,-4866695.85418102,-2538833.30019521,2971318.50219741,-5459877.73607025,-2540938.90616095,3508.4841351785,4392.99787644476,-5311.05558795891,-3.91261047867834,7.18955969898102,3.3557551001726,6767552.56418713,1.17207849958109,3.06667655068884,-1.09885166283575,2.85263070597309,-1.33098184001104,-0.589727723519431,2.5550898644493,-6.792794529614E-4,-0.0023158352222249,-4.980499581769E-4,340251.477905748,1.61234E-11,1150.33447265625,-3.91260917319875,7.18956145181228,3.35575287114448
2100.0,-3556253.43145824,-4930887.98684328,-2851037.40647099,3174621.43672038,-5183570.10486138,-2853311.9006084,3265.6056935743,4813.61348932918,-5097.25422638715,-4.18005356892074,6.82529037097078,3.76805363293104,6766803.61396439,1.1764537689939,3.0326034277485,-1.02667022053396,2.85411551655232,-1.46492916675169,-0.64333517013875,2.71315231770506,-7.32867085999E-4,-0.002223963032644,-5.16775257647E-4,340578.46086115,1.58277E-11,1145.94787597656,-4.18005237923148,6.82529225871869,3.76805153300647
2160.0,-3227738.61919134,-4974613.84815663,-3149692.83216525,3362882.28695949,-4882701.34454978,-3152125.43739456,3007.28490508055,5211.37169819079,-4859.25814301922,-4.42714069470729,6.42797584519723,4.16190629539604,6766006.61328538,1.18082903840671,2.99995974854204,-0.959447829938344,2.85146884716476,-1.61153758934842,-0.679248393068836,2.87723339981327,-7.88913635866E-4,-0.0021273442836283,-5.338955841555E-4,341180.593667527,1.54346E-11,1141.01867675781,-4.42713962965049,6.4279778401258,4.16190434344989
2220.0,-2884287.03760791,-4997808.04125578,-3433383.0488892,3535211.90764613,-4558701.16799662,-3435962.24104643,2734.78056500094,5584.35085829083,-4598.234065491,-4.65264425787031,5.99968012379527,4.53533330252798,6765177.07160903,1.18520430781953,2.96740277184711,-0.89739430400894,2.84580910235603,-1.76577000651793,-0.696979966251763,3.04250674960326,-8.475875287614E-4,-0.0020276436873712,-5.494175038484E-4,342044.324743306,1.4956E-11,1135.57678222656,-4.65264332286045,5.9996821968375,4.53533151298144
2280.0,-2527343.58323483,-5000492.4338043,-3700764.96775814,3690798.81676871,-4213110.77154411,-3703478.53182328,2449.42140139762,5930.75812543005,-4315.46390342397,-4.85546182659002,5.54262990128595,4.88647689703651,6764331.13516563,1.18957957723233,2.93408891464115,-0.840615587037844,2.83774896337163,-1.92185719937456,-0.697212880098334,-3.0798830092693,-9.090594424607E-4,-0.0019262453859807,-5.633778835892E-4,343154.769129963,1.44051E-11,1129.65795898437,-4.85546102369547,5.54263202317051,4.88647527970339
2340.0,-2158417.68026846,-4982775.29693324,-3950575.6207691,3828913.16260364,-3847574.82384214,-3953410.7104898,2152.59838651102,6248.93872980627,-4012.33710515897,-5.03462187698674,5.05919815009548,5.21361185456331,6763485.2760605,1.19395484664514,2.8994370139804,-0.789135749920643,2.82763538432075,-2.07460894348353,-0.681707928253231,-2.92875155159478,-9.73487997983E-4,-0.0018242414848255,-5.758329173146E-4,344494.391373832,1.37964E-11,1123.30249023437,-5.03462120515244,5.05920029242092,5.2136104147052
2400.0,-1779076.23534657,-4944850.01714265,-4181638.36580936,3948910.21986991,-3463832.92833134,-4184581.56637362,1845.75674253038,6537.3842384063,-3690.34242393074,-5.18928822787141,4.55188685305916,5.51515464511999,6762655.9700457,1.19833011605796,2.86301540038254,-0.742915996332269,2.81566651191585,-2.22045396177575,-0.652945131873212,-2.79093307593967,-0.0010410044034589,-0.0017224460126587,-5.868484449531E-4,346046.003091126,1.31443E-11,1116.55688476562,-5.18928768328054,4.5518889891937,5.51515338373614
2460.0,-1390936.32090764,-4886993.39839863,-4392868.58236511,4050233.39906096,-3063710.62147497,-4395905.97576141,1530.38772208856,6794.73976146268,-3351.05917759547,-5.31876310753482,4.02330911859397,5.78967113371717,6761859.3614218,1.20270538547076,2.82448420708041,-0.701870854914469,2.80195414418769,-2.35776375506281,-0.61366892639735,-2.66820302345146,-0.0011116959675804,-0.0016214259084876,-5.964920319167E-4,347791.698911582,1.2463E-11,1109.47314453125,-5.3187626840504,4.02331122441284,5.78967004798416
2520.0,-995657.635496092,-4809563.57510602,-4583278.83024977,4132416.75791931,-2649109.97103165,-4586396.06294227,1208.02024639095,7019.81007489822,-2996.14809275906,-5.42248883505791,3.47617098944706,6.03588272042326,6761110.91744872,1.20708065488357,2.78356477341751,-0.665881319957901,2.78655988261971,-2.48654524111356,-0.566515074371582,-2.56075884396617,-0.0011855883409485,-0.0015215418120496,-6.048269447288E-4,349712.249994072,1.17661E-11,1102.10876464843,-5.42248852471698,3.47617304386013,6.0358818042575
2580.0,-594934.789210026,-4712997.55971989,-4751983.44926599,4195087.00898406,-2221999.83974638,-4755165.80180504,880.212482807703,7211.56465120643,-2627.34182842181,-5.50004817392514,2.91325331182292,6.25267088491022,6760425.08115581,1.21145592429638,2.74002348841559,-0.634804751073315,2.76951760374861,-2.60787037348733,-0.513797261269651,-2.46777778062754,-0.001262626451119,-0.0014229931882926,-6.119079522277E-4,351788.200207228,1.10657E-11,1094.52697753906,-5.50004796744698,2.91325529709311,6.25267012959963
2640.0,-190489.461336391,-4597808.45120635,-4898202.5834249,4237965.02189368,-1784405.87961948,-4901435.04160978,548.543437613622,7369.1416136016,-2246.43527345248,-5.55116350527196,2.33739403286451,6.43908020117155,6759814.93842211,1.2158311937092,2.69366395521793,-0.608481490006708,2.75084828423952,-2.72334500329556,-0.457435929133182,-2.38793380994059,-0.0013426543721853,-0.0013258640755482,-6.177787842872E-4,354002.868589924,1.03726E-11,1086.79431152343,-5.55116339254927,2.3373959347139,6.43907959603392
2700.0,215937.524840905,-4464582.33212745,-5021265.61881752,4260866.82335306,-1338400.32039284,-5024532.94602786,214.604628287683,7491.85064856186,-1855.27570498467,-5.57569504451739,1.75147122251634,6.594319995487,6759291.92010153,1.220206463122,2.64432433172976,-0.586738298307898,2.73057016327031,-2.83473698415774,-0.398974556851276,-2.31975298241646,-0.0014253948052106,-0.0012301671854891,-6.224710591853E-4,356335.624048842,9.6959E-12,1078.97973632812,-5.5756950150609,1.75147303008076,6.59431952849941
2760.0,622594.16775024,-4313974.88268308,-5120614.02909068,4263704.10110574,-886091.61332597,-5123900.83940594,-120.00811497388,7579.17492583366,-1455.75288188146,-5.57363836095933,1.1583869802426,6.71776489829596,6758865.56065624,1.22458173253482,2.59187813624642,-0.569388848331543,2.70870570059552,-2.94375938167099,-0.33963395886183,-2.26181080120077,-0.0015104294229022,-0.0011358850660838,-6.260045127793E-4,358768.454649169,9.043E-12,1071.14990234375,-5.57363840428247,1.15838868585759,6.71776455668091
2820.0,1027725.25429493,-4146707.73966938,-5195803.62645442,4246484.22076866,-429613.988199291,-5199094.45818526,-453.702684118863,7630.77207969013,-1049.78913147268,-5.54512143889458,0.561052222846328,6.80895455926614,6758543.33023561,1.22895700194763,2.53623752155407,-0.556231625958047,2.68528597206026,-3.05196171306005,-0.280373713340134,-2.21281862587951,-0.0015971820077525,-0.0010430075571437,-6.283883975747E-4,361283.409386756,8.4194E-12,1063.36840820312,-5.5451215448234,0.561053821732516,6.80895432999731
2880.0,1429580.29074521,-3963564.62727749,-5246506.21917386,4209309.76605977,28883.0216467389,-5249785.60843554,-784.89854234181,7646.47430050692,-639.32947280039,-5.49040144318115,-0.0376277926243878,6.86759274420108,6758330.54795008,1.23333227136044,2.4773583755893,-0.547045744796097,2.66035269030934,3.12250180347514,-0.221945703717508,-2.17164535252304,-0.00168490700326,-9.515648844289E-4,-6.296239435123E-4,363871.722598803,7.8289E-12,1055.68981933593,-5.49040160208593,-0.0376263027525887,6.86759261441851
2940.0,1826421.36272219,-3765387.28536195,-5272510.67875543,4152377.61404643,487245.034051479,-5275763.23272015,-1112.03437189785,7626.28757429824,-226.331809445184,-5.4098612435376,-0.634767431177726,6.89354592719917,6758230.37227086,1.23770754077325,2.41524676588603,-0.54158533865913,2.63395780057973,3.01214644225607,-0.16493450961715,-2.13730705137958,-0.0017726866613126,-8.616555578783E-4,-6.29707766951E-4,366510.184607114,7.2739E-12,1048.158203125,-5.40986144648856,-0.634766050533308,6.8935458845257
3000.0,2216530.89035864,-3553071.21966782,-5273723.42189153,4075977.55794343,943323.20222703,-5276933.89136483,-1433.57550503641,7570.39009473458,187.242778042703,-5.30400564460489,-1.22751432846553,6.88684136666516,6758243.85303241,1.24208281018606,2.34996628602631,-0.539573385735921,2.60616052461423,2.89927081836684,-0.109784461391405,-2.10894455918564,-0.0018594402023604,-7.734678995967E-4,-6.28636069001E-4,369192.10060231,6.7553E-12,1040.8056640625,-5.30400588346022,-1.22751305560688,6.88684139942801
3060.0,2598219.24525693,-3327561.29782208,-5250168.31411582,3980490.49107043,1394984.47923995,-5253321.66509059,-1748.02111691133,7479.12986291088,599.439606156864,-5.17345719832938,-1.81306282079989,6.84766455321766,6758370.0215201,1.24645807959887,2.2816458204332,-0.540695996509456,2.57702179641035,2.78321227741558,-0.0568156425572493,-2.0858004344208,-0.001943948065005,-6.872936944395E-4,-6.264093772962E-4,371904.046917143,6.2731E-12,1033.65356445312,-5.1734574657694,-1.8130616530106,6.84766465058606
3120.0,2969832.19622962,-3089847.21475742,-5201986.00439351,3866386.16708524,1840121.71445191,-5205067.48824515,-2053.91115129302,7353.02148896789,1008.31978666923,-5.01895146552556,-2.38866709657539,6.77635587801439,6758605.9929259,1.25083334901168,2.21048713423569,-0.544598317956588,2.5465962517147,2.663525651269,-0.0062323745926436,-2.06720152122515,-0.0020248931821262,-6.035323185475E-4,-6.230374669773E-4,374629.615217012,5.8262E-12,1026.71350097656,-5.01895175504383,-2.38866603020691,6.7763560300683
3180.0,3329758.15149761,-2840958.85150049,-5129432.70266416,3734220.55357549,2276663.53463734,-5132427.9246621,-2349.83294326435,7192.74221789146,1411.96939852093,-4.84133164812832,-2.95165386115709,6.67340640772602,6758947.05986375,1.2552086184245,2.13677152689326,-0.550883202438265,2.51492229104916,2.53997267435628,0.0418716091603903,-2.05255020674056,-0.0021009191712476,-5.226839426119E-4,-6.185439722306E-4,377360.182373406,5.4133E-12,1019.99157714843,-4.84133195400104,-2.95165289189135,6.67340660547591
3240.0,3676435.16645348,-2581961.55159747,-5032878.41553743,3584632.79832626,2702583.96427426,-5035773.40136123,-2634.42750123517,6999.12721728246,1808.50837883677,-4.64154261411818,-3.49943422192851,6.53945275640647,6759386.76572824,1.2595838878373,2.06086457894474,-0.559113594723167,2.48201119912565,2.41250537313142,0.0875068742324026,-2.04132515715541,-0.0021707024898284,-4.453311563554E-4,-6.129701080586E-4,380086.45161144,5.0325E-12,1013.49157714843,-4.64154293135386,-3.49943334500532,6.53945299177714
3300.0,4008357.68844576,-2313951.33947372,-4912804.65854975,3418341.82973345,3115911.74230755,-4915585.91851338,-2906.39541531508,6773.16418262559,2196.09908196176,-4.42062444842699,-4.02951451318405,6.37527117976586,6759916.95991096,1.26395915725012,1.98321780997181,-0.568819165309181,2.44783679601744,2.28124173701789,0.130776828741298,-2.03309026217807,-0.0022330324235541,-3.72109628691E-4,-6.063769083747E-4,382798.948761571,4.682E-12,1007.21691894531,-4.42062477271103,-4.02951372357096,6.37527144555963
3360.0,4324083.01315679,-2038050.10441536,-4769801.6661521,3236142.61451383,3514739.29646652,-4772456.25685637,-3164.5023698007,6515.98732946793,2572.95446672091,-4.17970574596864,-4.53950589344841,6.18177113639109,6760527.84982143,1.26833442666293,1.90436592483564,-0.579507080534724,2.41232749609674,2.14643329496408,0.171858188868404,-2.02750860267856,-0.0022868899969901,-3.036700402716E-4,-5.988454886772E-4,385493.258867135,4.3597E-12,1001.17272949218,-4.17970607360329,-4.53950518597815,6.18177142623684
3420.0,4622237.43059666,-1755400.77249638,-4604565.12249819,3038902.09678387,3897231.34058246,-4607080.70564874,-3407.58425155587,6228.8708467523,2937.34588893161,-3.91999688654381,-5.02713272844968,5.95998861943991,6761208.07380912,1.27270969607574,1.82491835742336,-0.590676046836917,2.37536280712638,2.00842607233493,0.210972357235849,-2.02435676755192,-0.0023315154133414,-2.406351574347E-4,-5.904750714467E-4,388169.161540313,4.0636E-12,995.366333007812,-3.91999721438765,-5.02713209792749,5.95998892773436
3480.0,4901522.04192882,-1467162.48677173,-4417892.43693721,2827554.84265898,4261633.06466545,-4420257.33508325,-3634.55185938488,5913.22187891527,3287.61049407351,-3.64278348444733,-5.49023996413611,5.71107953628171,6761944.82188633,1.27708496548855,1.74554413583624,-0.601832069986051,2.33677606955062,1.86761824415668,0.248349070118518,-2.02353422155914,-0.0023664541726448,-1.835571062882E-4,-5.813788424347E-4,390823.811309396,3.7918E-12,989.807495117187,-3.64278380986165,-5.49023940541359,5.71107985813229
3540.0,5160718.23071341,-1174505.81375514,-4210678.58797531,2603098.41392781,4606277.89109294,-4212881.83694143,-3844.39522813123,5570.57308751868,3622.15821877509,-3.3494201001075,-5.92679983330983,5.43631330511805,6762724.02661316,1.28146023490136,1.66694975769885,-0.612503936832923,2.29636453761565,1.72441913189704,0.28418593517373,-2.02506295789388,-0.0023915748114162,-1.32880237901E-4,-5.716780681712E-4,393457.860161242,3.5426E-12,984.507568359375,-3.34942042089641,-5.92679934135756,5.43631363627678
3600.0,5398692.77335728,-878607.992059413,-3983911.55873887,2366588.4934537,4929594.77264939,-3985942.95653918,-4036.18758252992,5202.57482080192,3939.4784152401,-3.04132416836646,-6.33491827929573,5.13706667652988,6763530.63549426,1.28583550431417,1.58985074877623,-0.622256425934164,2.25390678791345,1.57921469129342,0.318609020427711,-2.02907427663656,-0.0024070557725475,-8.89142412214E-5,-5.614952084936E-4,396065.493421667,3.3141E-12,979.478942871093,-3.04132448272833,-6.33491784924509,5.13706701333579
3660.0,5614402.57359005,-580648.237519944,-3738667.38621391,2119133.78421141,5230115.0091981,-3740517.53825374,-4209.08892937817,4810.98689827142,4238.14610812957,-2.71996997905197,-6.71284140341281,4.81481762198624,6764348.96124398,1.29021077372699,1.51493872252426,-0.630699737818565,2.20918610607668,1.43234422991055,0.351640041916273,-2.03578174398939,-0.0024133441475554,-5.182046541E-5,-5.509469203461E-4,398640.129220489,3.1048E-12,974.734497070312,-2.71997028552933,-6.71284103059456,4.81481796130466
3720.0,5806899.00498887,-281803.118436242,-3476104.84633193,1861890.70370015,5506478.55973371,-3477765.20671843,-4362.3492843509,4397.67000385311,4516.82787997893,-2.38688247707966,-7.05896206975851,4.47113901065528,6765163.09080715,1.29458604313979,1.44284679771376,-0.63749449979574,2.1620172594575,1.28409188870839,0.383174896689879,-2.04544157135908,-0.0024110935727552,-2.16121635273E-5,-5.401378283374E-4,401179.513007719,2.913E-12,970.286376953125,-2.38688277451458,-7.05896174972758,4.47113934982175
3780.0,5975331.84456817,16757.9852312642,-3197459.79774547,1596057.89612228,5757439.82606448,-3198922.70654517,-4495.31151555594,3964.57667966259,4774.28736289266,-2.04363065316784,-7.37182658015087,4.1076917575504,6765957.32169859,1.29896131255261,1.37411688137308,-0.642352699589472,2.11227323565276,1.13469460978025,0.41297665053349,-2.05830333317715,-0.0024010912869547,1.8328715957E-6,-5.291557476756E-4,403685.141346283,2.7375E-12,966.145385742187,-2.04363094066141,-7.37182630870254,4.10769209431804
3840.0,6118952.77993579,313877.324002833,-2904039.20902213,1322870.58616791,5981872.88418296,-2905297.9253208,-4607.41377413139,3513.74192403701,5009.39029647001,-1.69182037168316,-7.65014112821258,3.72621718228154,6766716.58791247,1.30333658196542,1.30917239017581,-0.645035738182256,2.05990833012581,0.984366053335389,0.440684156204917,-2.07455503265973,-0.0023841847803971,1.87505219235E-5,-5.180687490657E-4,406157.469489795,2.5769E-12,962.320190429687,-1.69182064855787,-7.65014090139256,3.72621751477105
3900.0,6237118.47308608,608413.106539029,-2597214.89678451,1043594.80023391,6178776.1402181,-2598263.62742423,-4698.19147656383,3047.27341928349,5221.10910000619,-1.33308660714754,-7.89277761300787,3.32852845260955,6767426.83876512,1.30771185137822,1.24829943310212,-0.645351224697159,2.00497443606193,0.833333335324001,0.465835709665072,-2.09426731321674,-0.0023612168216653,2.94635282215E-5,-5.069241381427E-4,408593.281345912,2.4299E-12,958.81787109375,-1.33308687291515,-7.892777427115,3.32852877926517
3960.0,6329293.16586759,899243.696136705,-2278417.00556341,759521.482992635,6347276.39017263,-2279250.9294525,-4767.27880588035,2567.34144090101,5408.52690463397,-0.969085199187504,-8.09877837482075,2.91650116194253,6768075.34223476,1.31208712079104,1.19163843968098,-0.643150069241155,1.94762838777058,0.681880689562549,0.487905741104308,-2.11734249237207,-0.0023329747106483,3.43537629568E-5,-4.957491596951E-4,410997.961229171,2.2955E-12,955.642150878906,-0.969085453518276,-8.09877822640712,2.91650148148921
4020.0,6395050.81547487,1185271.65919027,-1949127.26319769,471960.538924878,6486632.26650069,-1949742.55111176,-4814.40970903969,2076.16852393486,5570.84099915753,-0.601484347941849,-8.26735951094716,2.49206325555573,6768650.8976793,1.31646239020385,1.13918691152666,-0.638324935382993,1.88812949953366,0.530391589044765,0.506351395243099,-2.14347516785317,-0.0023001563141089,3.38370192606E-5,-4.845530730727E-4,413359.539849667,2.1726E-12,952.79345703125,-0.6014845906387,-8.26735939681323,2.49206356696198
4080.0,6434076.75258365,1465427.64946922,-1610872.04792394,182234.829349349,6596237.0596389,-1611265.8777394,-4839.41838318259,1576.01897760728,5707.36565992414,-0.231956128011731,-8.39791260733489,2.05718463189807,6769143.95817056,1.32083765961666,1.0908126311469,-0.630810388550455,1.82682777973427,0.379379244086643,0.520664776275532,-2.1721319161911,-0.0022633525791718,2.83426528039E-5,-4.733301855601E-4,415672.526693698,2.0604E-12,950.269775390625,-0.231956358989427,-8.39791252452148,2.0571849343451
4140.0,6446168.85936152,1738674.11369895,-1265215.30445933,-108325.844582342,6675620.908243,-1265385.87178437,-4842.23926004729,1069.18834297984,5817.53435600361,0.137831713628819,-8.49000492983904,1.61386677552386,6769546.67665199,1.32521292902947,1.04627547452855,-0.620584358879261,1.76414448335598,0.229495812306764,0.5304255507586,-2.2025570034229,-0.0022230442303254,1.82992199459E-5,-4.620634517531E-4,417943.442297172,1.9579E-12,948.064270019531,0.137831494366978,-8.49000487561987,1.61386706837133
4200.0,6431238.26888937,2004008.80624484,-913751.346284528,-398390.743455717,6724452.35737366,-913697.87047548,-4822.90651183407,557.992880117349,5900.90134110846,0.506223483713899,-8.54337829827865,1.16413272435325,6769852.89975755,1.32958819844228,1.00525509101667,-0.607670026571416,1.70054754364835,0.0815140476901549,0.5353477789779,-2.23380795360377,-0.0021796093247549,4.1261823837E-6,-4.507283123971E-4,420172.62070762,1.8644E-12,946.167236328125,0.506223276090802,-8.54337827014899,1.16413300711609
4260.0,6389309.591003,2260468.10330373,-558097.580166354,-686634.147939608,6742539.28858501,-557820.305739069,-4781.55311015785,44.7591542483966,5957.14265859387,0.871582709481677,-8.55794697069994,0.710017557880296,6770058.13660556,1.33396346785509,0.967381244050171,-0.592137041791828,1.63652488888426,-0.0637185519420476,0.535314834476396,-2.26481907951273,-0.0021333381069413,-1.37690747626E-5,-4.392965210725E-4,422346.262491113,1.7792E-12,944.565063476562,0.871582513363836,-8.55794696636613,0.710017830201917
4320.0,6320520.67195353,2507130.1094939,-199887.187128666,-971741.248099411,6729829.22943091,-199387.380595016,-4718.40947133303,-468.186229939624,5986.056592873,1.23229877331886,-8.53379487264778,0.253559452486662,6770159.52690752,1.33833873726791,0.932263608544694,-0.574101110137519,1.57255864674804,-0.205345424518722,0.530397591272842,-2.29448411773658,-0.0020844518952798,-3.49901905443E-5,-4.277397686549E-4,424449.008265005,1.7017E-12,943.239624023437,1.23229858852726,-8.53379489001543,0.25355971412106
4380.0,6225121.89665178,2743117.5517547,159238.207922994,-1252413.93975979,6686409.05228629,159958.265744462,-4633.80171699298,-978.526714761158,5987.56359949465,1.58679312228071,-8.47117242499331,-0.203208772356526,6770155.82451424,1.34271400668071,0.899518279081391,-0.553721323687881,1.50910278589002,-0.342572816726679,0.520853746774121,-2.3217437212961,-0.0020331232866827,-5.91482582006E-5,-4.160329554275E-4,426464.529903804,1.6313E-12,942.174987792968,1.58679294859961,-8.47117246215683,-0.203208521559491
4440.0,6103475.04292259,2967600.45687002,517635.847461987,-1527376.50552089,6612504.07386844,518572.873594272,-4528.14957147505,-1483.96567693223,5961.70573911388,1.93352518845516,-8.37049308786265,-0.658267764097603,6770047.40141077,1.34708927609353,0.868789049782593,-0.531195068139041,1.4465659508157,-0.474732605951888,0.507109541620021,-2.34566236650823,-0.0019794955870073,-8.58572441961E-5,-4.041569830481E-4,428392.269878856,1.5678E-12,941.367309570312,1.93352502562976,-8.37049314309981,-0.658267524190301
4500.0,5956051.69761049,3179798.60974349,873669.104261281,-1795381.1590811,6508476.56790813,874818.830091979,-4401.96390976384,-1982.23609876497,5908.64563130943,2.27099813038478,-8.23232959515843,-1.1096195542026,6769836.26605416,1.35146454550634,0.839762499805626,-0.506750762783446,1.38530029449242,-0.601324264920984,0.489728127233382,-2.36548291261837,-0.0019236999598031,-1.147297011426E-4,-3.921009539103E-4,430232.74323874,1.5107E-12,940.811279296875,2.2709979781317,-8.23232966692694,-1.10961932515502
4560.0,5783431.24499661,3378983.78998332,1225714.66746056,-2055213.43218388,6374823.70456621,1227071.85953907,-4255.84396502641,-2471.11000107345,5828.66493659624,2.59776443896472,-8.05740975028013,-1.55529537640745,6769526.08150998,1.35583981491915,0.812176853439078,-0.480639003260583,1.32559620591602,-0.722030868513569,0.469370465193289,-2.38065385204756,-0.0018658692969008,-1.453737488666E-4,-3.798636851832E-4,431967.105125625,1.4598E-12,940.497375488281,2.59776429698585,-8.05740983721191,-1.55529515812793
4620.0,5586298.43909471,3564481.78470561,1572169.62364999,-2305697.3840195,6212174.93178144,1573728.10864194,-4090.47420464055,-2948.4076065337,5722.1623720315,2.91243136864185,-7.84661161964992,-1.99336338711918,6769122.16497095,1.36021508433196,0.785825315751223,-0.453122838995902,1.26768213055349,-0.83671096522865,0.446754617424986,-2.39083119342619,-0.0018061482544872,-1.773919025606E-4,-3.674544765035E-4,433587.404891943,1.415E-12,940.411987304687,2.91243123663449,-7.84661172054527,-1.99336317946987
4680.0,5365440.57304963,3735674.17601417,1911458.40522172,-2545700.61356244,6021288.81588982,1913211.0988877,-3906.62088818176,-3412.00619335446,5589.65126867771,3.21366608540476,-7.60095800314655,-2.42193619412288,6768631.45158695,1.36459035374478,0.760555028663163,-0.424467935250983,1.21172827286739,-0.945372809257441,0.422617994204316,-2.39586150388139,-0.0017446992813041,-2.103819279015E-4,-3.548931154359E-4,435078.784055208,1.3758E-12,940.536804199218,3.21366596307387,-7.6009581169652,-2.42193599693902
4740.0,5121744.26088147,3891999.90255076,2242039.57894902,-2774139.05635477,5803049.36142853,2243978.51899975,-3705.12832855265,-3859.84859466878,5431.75668695354,3.50020039018874,-7.32161016118038,-2.8391780359072,6768062.41142101,1.36896562315758,0.736262948749328,-0.394933279250441,1.15785284936234,-1.04813904883382,0.397685303564729,-2.39575411634012,-0.0016817047987463,-2.439395527314E-4,-3.422091589655E-4,436429.063515667,1.3422E-12,940.845581054687,3.50020027725789,-7.32161028703056,-2.83917784901491
4800.0,4856191.84885126,4032956.59586194,2562412.44901335,-2989981.54877029,5558461.83267583,2564528.83167915,-3486.91488573862,-4289.95130151383,5249.21211601086,3.77083489028439,-7.00986090070155,-3.24331144187654,6767424.91698498,1.37334089257039,0.712889878970648,-0.36476293605579,1.10612966384221,-1.14520912040679,0.37264325176736,-2.39064954395726,-0.0016173659711987,-2.776626019181E-4,-3.294405841749E-4,437625.302949213,1.314E-12,941.30859375,3.77083478650309,-7.00986103782996,-3.24331126510546
4860.0,4569857.47538041,4158101.69396461,2871123.45055398,-3192254.14476405,5288648.10175505,2873407.67069381,-3252.9687288179,-4700.41213667663,5042.85579242485,4.02444254704776,-6.66712722495078,-3.63262324654071,6766730.06779497,1.37771616198321,0.690413679634602,-0.334179183625489,1.05659601436561,-1.23682452815432,0.348121840270071,-2.38078898758938,-0.0015518987159966,-3.111559669358E-4,-3.166319475811E-4,438652.650001561,1.2914E-12,941.978454589843,4.0244424521569,-6.66712737279662,-3.63262307966322
4920.0,4263902.79943657,4267053.33616904,3166772.31211349,-3380044.17233353,4994841.5496863,3169214.00667806,-3004.34340385311,-5089.41748076745,4813.62667877689,4.25997160680099,-6.29494280068794,-4.00546991271454,6765989.9853412,1.38209143139601,0.668842422080126,-0.303377187726447,1.00926022933855,-1.32323995699445,0.324681451827418,-2.36648755837802,-0.0014855277326237,-3.440367761662E-4,-3.038322228519E-4,439509.471835689,1.2751E-12,942.917114257812,4.2599715205483,-6.29494295890072,-4.00546975546315
4980.0,3939572.41748546,4359491.04466905,3448017.96781021,-3552504.01911467,4678381.54743325,3450606.0624641,-2742.15324250806,-5455.24904683717,4562.56014256309,4.47644799819953,-5.89495047603766,-4.36028221284653,6765217.59496662,1.38646670080883,0.648207992835004,-0.272521233901394,0.964108406243672,-1.40470136693981,0.302804700792976,-2.34811207317068,-0.0014184793740416,-3.759391810436E-4,-2.910924967973E-4,440173.064234278,1.2654E-12,944.174133300781,4.47644792036561,-5.89495064447724,-4.36028206495021
5040.0,3598188.98861271,4435156.19941681,3713584.20235471,-3708854.63844213,4340707.54383418,3716306.96105487,-2467.56863958136,-5796.29021165757,4290.78337053467,4.67297732832632,-5.46889500107663,-4.69556939114141,6764426.40962843,1.39084197022164,0.628560441072166,-0.2417424235218,0.921110155239281,-1.48143101486348,0.282892070718815,-2.32606318810137,-0.001350974144356,-4.065182908426E-4,-2.784636937874E-4,440597.38513563,1.2628E-12,945.795166015625,4.67297725874522,-5.46889517981683,-4.69556925235357
5100.0,3241148.08653521,4493852.31327438,3962265.01388707,-3848388.76864512,3983352.78661202,3965110.09120835,-2181.81121927439,-6111.03191757977,3999.51054506575,4.84874661689566,-5.01861598995445,-5.0099229589297,6763630.32492357,1.39521723963445,0.609963200965259,-0.211137665251956,0.880223318289336,-1.55361867001629,0.265260528409055,-2.30076113125438,-0.0012832195022486,-4.354529444165E-4,-2.659944727345E-4,440828.999827434,1.2678E-12,947.823608398437,4.84874655547482,-5.018616179287,-5.00992282905499
5160.0,2869912.79631135,4535445.1144434,4192929.6809378,-3970473.85930417,3607937.70182039,4195884.17693036,-1886.14890252534,-6398.07815789127,3690.03780043111,5.00302587231465,-4.54604105720409,-5.30202025267988,6762843.42665755,1.39959250904726,0.592489211409273,-0.180769749165494,0.841397744665148,-1.62141797453101,0.250144489017167,-2.27263420049899,-0.0012154035019462,-4.62447171405E-4,-2.537294043106E-4,440831.837024713,1.2811E-12,950.303283691406,5.00302581905499,-4.54604125764355,-5.3020201316012
5220.0,2486008.07295366,4559862.44289842,4404527.52068981,-4074554.6987833,3216162.95647491,4407578.03804785,-1581.89088336248,-6656.15105240624,3363.73797094106,5.13516954880387,-4.05317899930363,-5.5706278175914,6762079.80395123,1.40396777846008,0.576217889576046,-0.150668273398342,0.804578265541097,-1.68494680497975,0.237698659743272,-2.24210932966268,-0.0011476896384178,-4.872303453777E-4,-2.417074956169E-4,440596.222272047,1.3034E-12,953.278686523437,5.1351695038197,-4.05317921160089,-5.57062770529451
5280.0,2091014.87900548,4567093.96723418,4596092.32637225,-4160155.73780108,2809802.228954,4599225.02968846,-1270.38252199936,-6884.09551209349,3022.05514163237,5.24461785455768,-3.54211289796777,-5.81460459506201,6761353.35486431,1.40834304787288,0.561232880796588,-0.12083119694796,0.769707036536423,-1.74429051702793,0.228002392563207,-2.2096042567574,-0.0010802131040266,-5.095561525085E-4,-2.299610908383E-4,440102.018555094,1.3356E-12,956.79638671875,5.24461781810126,-3.54211312312036,-5.81460449166744
5340.0,1686564.11840383,4557190.72819978,4766746.47234411,-4226883.10435523,2390694.71201361,4769947.14921966,-953.000165781481,-7080.88348599886,2666.49901576985,5.33089783377841,-3.01499309352174,-6.03290482241941,6760677.56972357,1.4127183172857,0.54762049504399,-0.0912268114318181,0.736725419415776,-1.79950704774628,0.22106523257935,-2.17552105927546,-0.0010130785273322,-5.292005856628E-4,-2.185151437593E-4,439350.02939648,1.379E-12,960.904602050781,5.33089780626773,-3.01499333278894,-6.03290472821765
5400.0,1274330.38434944,4530264.51533579,4915704.67646865,-4274426.30613063,1960737.37369302,4918958.80024466,-631.145914109913,-7245.61778392762,2298.63911995334,5.39362414067449,-2.4740300908736,-6.2245805278396,6760065.28072382,1.41709358669851,0.535468741753815,-0.0617959542233464,0.705575562673059,-1.85063298369216,0.216833372000809,-2.14024100067088,-9.46359161476E-4,-5.459592262792E-4,-2.073868338135E-4,438335.65813637,1.4348E-12,965.651123046875,5.39362412272639,-2.47403034579108,-6.22458044333396
5460.0,856025.539058947,4486487.08350199,5042277.41082532,-4302559.6176163,1521877.00159625,5045570.20469842,-306.242347283788,-7377.53547566336,1920.09887390109,5.43249946801042,-1.92148757553216,-6.38878353885471,6759528.37455472,1.42146885611132,0.524866884217668,-0.0324543211285254,0.676201822858531,-1.89768986521236,0.215196727664695,-2.10412073704846,-8.800974232238E-4,-5.596441010524E-4,-1.965854823601E-4,437052.932250722,1.5047E-12,971.080749511718,5.43249946047979,-1.92148784792446,-6.38878346481306
5520.0,433392.142818823,4426089.21648447,5145873.95352806,-4311143.1503748,1076102.05561588,5149190.45581064,20.2727609186448,-7476.01088057592,1532.54955433244,5.44731467655583,-1.35967578706601,-6.52476701580122,6759077.47615928,1.42584412552413,0.515905448801478,-0.0030947753577716,0.648552149489628,-1.94069017861155,0.215996367972803,-2.06748996421284,-8.143066526324E-4,-5.700804056469E-4,-1.861127195842E-4,435506.154133296,1.5905E-12,977.229248046875,5.44731468058121,-1.35967607904846,-6.52476695331907
5580.0,8196.74850129092,4349359.64499915,5226005.0760892,-4300123.60595442,625434.352882487,5229330.20637359,346.951732837066,-7540.55817645721,1137.70417797439,5.43794877010676,-0.790945486879517,-6.63188664822364,6758721.6236424,1.43021939493695,0.508676640902274,0.0264104113010519,0.622579539632552,-1.97964267533556,0.219032034130565,-2.030650557377,-7.489739623274E-4,-5.771033825712E-4,-1.759628535241E-4,433688.639914388,1.6943E-12,984.115173339843,5.43794878716121,-0.790945800849634,-6.63188659879712
5640.0,-417776.924280887,4256643.82596567,5282285.36194408,-4269534.7114658,171920.606614232,5285603.9879291,672.342275882741,-7570.83366798353,737.31131664008,5.40436894101222,-0.217682653691034,-6.70960177445677,6758467.96385821,1.43459466434975,0.503275138175656,0.0562074108207542,0.598243655882176,-2.01455683598792,0.224069535855073,-1.99387719060595,-6.840640675792E-4,-5.805556332353E-4,-1.661233995745E-4,431617.302014229,1.8185E-12,991.731872558593,5.40436897295713,-0.217682992290024,-6.70960174006652
5700.0,-842734.923542404,4148342.58871679,5314435.15200461,-4219497.33758128,-282376.162023325,5317732.15674194,994.992782773333,-7566.6377580958,333.148839102701,5.34663094259862,0.357696140122663,-6.7574767608301,6758321.50266484,1.43896993376255,0.49979925227959,0.0864587733724128,0.575512694812608,-2.04544645172701,0.230847852993449,-1.95741934230564,-6.195240262714E-4,-5.802851418366E-4,-1.565757397775E-4,429282.879883151,1.9653E-12,1000.03936767578,5.34663099173638,0.357695774073437,-6.75747674402938
5760.0,-1264880.09805628,4024910.65182138,5322282.11217663,-4150219.29754881,-735385.322323616,5325542.4614929,1313.45766962625,-7527.91665638838,-72.9824460824157,5.26488000857629,0.932747932253688,-6.77518297498179,6758284.94159651,1.44334520317537,0.498352473939329,0.117341396396047,0.5543655929269,-2.07233241444913,0.239085837331572,-1.92150451394353,-5.552888641056E-4,-5.761442957582E-4,-1.472958948415E-4,426704.608662465,2.1373E-12,1008.96020507812,5.26488007769588,0.932747535857135,-6.7751829789843
5820.0,-1682419.22061419,3886855.01164737,5305762.41566638,-4061994.8238755,-1185037.42744153,5308971.22551344,1626.30278887026,-7454.76383696493,-479.265290403849,5.15935243516561,1.50500760533124,-6.76250159574983,6758358.62355957,1.44772047258818,0.499045443822842,0.149044445176395,0.534794664573419,-2.0952448834665,0.248488476497362,-1.88634242171743,-4.912881078782E-4,-5.679902060295E-4,-1.382554069449E-4,423880.000512352,2.3368E-12,1018.38354492187,5.15935252757852,1.50500717574058,-6.76250162450876
5880.0,-2093570.19236517,3734733.20107839,5264921.52994267,-3955203.71699566,-1629273.08737662,5268064.13342369,1932.11095647136,-7347.42122735916,-883.872701266577,5.03037778938406,2.07199271303876,-6.71932733365443,6758540.59550395,1.45209574200099,0.501998425370843,0.18176710556933,0.51680878239358,-2.11422502917658,0.258752746860787,-1.85212986775362,-4.27453291179E-4,-5.556866618922E-4,-1.294223469803E-4,420830.526045513,2.5661E-12,1028.17358398437,5.03037790894475,2.07199224761702,-6.71932739192797
5940.0,-2496569.31691384,3569151.41443216,5199914.59500822,-3830310.1580343,-2066051.90399604,5202976.60882036,2229.48762580039,-7206.28007617212,-1284.97488559373,4.87838154260382,2.63120944730881,-6.64567292826186,6758826.77861781,1.4564710114138,0.507344397910509,0.215716011709267,0.500437237453663,-2.12932654738965,0.269573137883177,-1.81905595567378,-3.637265243614E-4,-5.391080923113E-4,-1.207624750498E-4,417572.426693941,2.8276E-12,1038.18334960937,4.87838169371661,2.63120894379628,-6.64567302166127
6000.0,-2889678.6288273,3390762.4930985,5111006.37689748,-3687861.17628686,-2493361.44649007,5113973.76692377,2517.06672414028,-7031.8814176073,-1680.74647874998,4.70388779439427,3.18016015930821,-6.5416740929577,6759211.22001346,1.46084628082662,0.515232942642898,0.25110215126176,0.485734456187682,-2.1406170988098,0.280646970829322,-1.78730727925475,-3.000702243131E-4,-5.181459469464E-4,-1.122405965736E-4,414133.083192888,3.1234E-12,1048.26965332031,4.70388798200759,3.18015961599361,-6.54167422797878
6060.0,-3271193.25589852,3200263.76605975,4998570.77874845,-3528484.76173132,-2909226.24013076,5001429.92452291,2793.51664530723,-6824.91603302,-2069.37407220559,4.50752168424591,3.71635261127992,-6.40759444501566,6759686.38773213,1.46522155023942,0.525835165378175,0.288137007605561,0.472785809108498,-2.14817976588527,0.291679655711695,-1.75707267692316,-2.364780669326E-4,-4.927179368018E-4,-1.038221667393E-4,410524.811056429,3.4556E-12,1058.30212402343,4.50752191382903,3.71635202718892,-6.40759462904963
6120.0,-3639448.7887422,2998394.740367,4863089.89185878,-3352887.61400684,-3311716.73505765,4865827.6496209,3057.54636783815,-6586.22380724861,-2449.06402408024,4.29001110770496,4.23731085936666,-6.24382992533172,6760243.46599739,1.46959681965224,0.539349995142913,0.327027652402144,0.461714828640984,-2.15211454414681,0.302390028352336,-1.72854710661405,-1.729871404783E-4,-4.627805704052E-4,-9.54752007682E-5,406774.282534199,3.8265E-12,1068.1708984375,4.29001138521143,4.2373102344485,-6.24383016665707
6180.0,-3992828.62595798,2785934.6386406,4705152.57094866,-3161852.52176632,-3698958.2160179,4707756.33499711,3307.91164787401,-6316.79239123546,-2818.05050870826,4.05218745513888,4.74058742018063,-6.0509122875166,6760872.61133241,1.47397208906505,0.556012326752772,0.367970454308652,0.452692270214168,-2.15253980817972,0.312515881826711,-1.70193415806207,-1.096911221555E-4,-4.283453558667E-4,-8.71725431239E-5,402898.732027537,4.2381E-12,1077.78662109375,4.05218778694734,4.74058675551235,-6.05091259526349
6240.0,-4329771.25896529,2563699.78332462,4525452.52115116,-2956235.36978065,-4069139.60941338,4527910.28320295,3543.42122350471,-6017.75510846355,-3174.60374070857,3.79498524885486,5.22377622102763,-5.82951139955839,6761563.14189135,1.47834735847786,0.576103651711984,0.411143021876364,0.445947615902726,-2.14959362488383,0.32181975135493,-1.67744669253228,-4.67540531675E-5,-3.894988734841E-4,-7.88945305423E-5,398943.450914841,4.6922E-12,1087.07800292968,3.79498564168084,5.22377551903494,-5.82951178363641
6300.0,-4648777.45815165,2332540.83020398,4324785.88845994,-2736961.77508683,-4420522.14119183,4327086.29472028,3762.94296505118,-5690.38807403344,-3517.03829974203,3.51944072462093,5.68452581429336,-5.58043630714088,6762303.64981417,1.48272262789067,0.599966063810464,0.456693953078696,0.44178385262353,-2.14343473978776,0.330094928210083,-1.65530509974672,1.55760680863E-5,-3.464266099382E-4,-7.06320457237E-5,394911.844543988,5.1901E-12,1095.9892578125,3.51944118539278,5.68452507898291,-5.58043677811944
6360.0,-4948417.32118482,2093339.85606447,4104048.34976134,-2505023.35723071,-4751447.79813292,4106180.75541191,3965.40991288415,-5336.10652351866,-3843.72148500594,3.22668953968508,6.12055245210719,-5.30463519751467,6763082.04591658,1.48709789730349,0.628020857183916,0.50472992167308,0.440596681874386,-2.13424304518741,0.337171567901808,-1.63573271001458,7.69551242849E-5,-2.994399328521E-4,-6.23898944237E-5,390838.633479601,5.7328E-12,1104.47521972656,3.22669007537495,6.12055168930469,-5.30463576644223
6420.0,-5227337.14479561,1847007.30697223,3864231.70249738,-2261473.65078004,-5060347.5455182,3866186.22331492,4149.82615765777,-4956.4603669198,-4153.08164089914,2.91796385369748,6.52965283052655,-5.00319452249524,6763885.56337419,1.49147316671629,0.660793381756606,0.55529958944722,0.442899762905008,-2.12221935650784,0.342922625899121,-1.61894801992108,1.369339617408E-4,-2.49004833194E-4,-5.41903436355E-5,386746.722650645,6.3203E-12,1112.49926757812,2.91796447111365,6.52965204808937,-5.00319520065861
6480.0,-5484266.08231294,1594478.8143552,3606419.95702619,-2007423.67054878,-5345749.25528914,3608187.51784999,4315.27253234239,-4553.12898711379,-4443.61641184134,2.59458900494418,6.90971655696203,-4.67733755512225,6764700.75845976,1.4958484361291,0.698946401987441,0.608373782975812,0.449358175455617,-2.10758437240217,0.347269211024332,-1.60515360252725,1.949551240709E-4,-1.957700661406E-4,-4.60765322356E-5,382672.570639813,6.9515E-12,1120.0302734375,2.59458971046424,6.90971576497456,-4.67733835371982
6540.0,-5718022.5499153,1336711.88605679,3331784.93681229,-1744037.14146162,-5606285.29973238,3333357.31658664,4460.91209602075,-4127.91529255405,-4713.90089846137,2.25797990103858,7.25873859526291,-4.32842256350912,6765513.54936308,1.50022370554192,0.74332489508248,0.663821288949523,0.460832988327823,-2.09057676120689,0.350184810070523,-1.59452188774106,2.503581436548E-4,-1.405911402252E-4,-3.81153165845E-5,378640.42845556,7.6239E-12,1127.04064941406,2.25798070029521,7.25873780617178,-4.32842349324405
6600.0,-5927520.34430826,1074682.47920135,3041581.39300767,-1472525.40606139,-5840699.76578328,3042951.26613357,4585.99539218844,-3682.73901524155,-4962.59569358334,1.90963709327677,7.57483203712886,-3.95794061621476,6766309.32805702,1.50459897495472,0.795015862045108,0.721379458396334,0.47844047444411,-2.071450378123,0.351697733107456,-1.58717840755027,3.023965052101E-4,-8.4545409706E-5,-3.03989650598E-5,374683.177691508,8.3338E-12,1133.50561523437,1.90963799081541,7.5748312657802,-3.95794168682668
6660.0,-6111774.43306664,809381.461560706,2737141.64136984,-1194142.02384709,-6047855.243877,2738302.6151099,4689.86545781079,-3219.62922465218,-5188.45477141049,1.55114235307293,7.85624150565194,-3.56751283778218,6767073.16649076,1.50897424436754,0.855426763550711,0.780618507409205,0.503629575983648,-2.05047064619202,0.351891090968058,-1.58318357235569,3.502690522422E-4,-2.89326245283E-5,-2.30450082973E-5,370828.934349378,9.0754E-12,1139.40393066406,1.55114335196759,7.85624076923159,-3.56751405749826
6720.0,-6269906.37636479,541810.96861413,2419869.73149101,-910177.078454554,-6226739.14305215,2420816.37918179,4771.96254498679,-2740.71601451375,-5390.33318723062,1.18415346272148,8.10135732661719,-3.15888677005574,6767790.12018886,1.51334951378035,0.92638410107198,0.840897933491802,0.538279161808208,-2.02791010877837,0.35089968206813,-1.5825145193346,3.931674448578E-4,2.47448734764E-5,-1.61935435524E-5,367105.758883349,9.8413E-12,1144.71508789062,1.18415456419241,8.10135664444178,-3.15888814501015
6780.0,-6401149.33584863,272980.664943087,2091235.16155423,-621951.211529841,-6376469.48132517,2091963.05139312,4831.82849849471,-2248.22131847857,-5567.19452137912,0.81039790328078,8.30873035212582,-2.73393141397772,6768445.61363935,1.51772478319316,1.01024554342835,0.90131301257812,0.584808532694658,-2.00404308153712,0.348903367686605,-1.58504896597531,4.303391258257E-4,7.48270558667E-5,-1.00014452639E-5,363545.094342385,1.06222E-11,1149.42163085937,0.81039910632656,8.30872974527829,-2.73393294761564
6840.0,-6504852.62382233,3903.92103310811,1752766.15657151,-330809.406098201,-6496300.09808446,1753271.87576115,4869.11071472707,-1744.44882566714,-5718.11797589144,0.431665178220885,8.47708705849554,-2.29463055187479,6769025.87664146,1.52210005260597,1.10999581354723,0.960629793414135,0.646271477777734,-1.97913922899168,0.346116866593151,-1.59055320851337,4.61162183139E-4,1.195682925995E-4,-4.6332950726E-6,360170.375459422,1.14069E-11,1153.5068359375,0.431666479289825,8.47708654929525,-2.29463224437307
6900.0,-6580485.7445984,-264406.080247944,1406042.53420822,-38114.5471048803,-6585625.23432825,1406323.70826046,4883.56559533376,-1231.77299631605,-5842.30501159627,0.0497976370530273,8.60534433600558,-1.84307407528934,6769518.39205489,1.52647532201879,1.22924028368931,1.01721119493252,0.726347947643857,-1.95345582718522,0.342776378115997,-1.59867632402076,4.852249620026E-4,1.572344080647E-4,-2.494084609E-7,357003.626060261,1.21823E-11,1156.95642089843,0.0497990297919095,8.60534394730978,-1.84307592304639
