time,gePosition_m_X,gePosition_m_Y,gePosition_m_Z,eiPosition_m_X,eiPosition_m_Y,eiPosition_m_Z,eiVelocity_m_s_X,eiVelocity_m_s_Y,eiVelocity_m_s_Z,eiAccel_m_s2_X,eiAccel_m_s2_Y,eiAccel_m_s2_Z,semiMajorAxis_m,gast_rad,eulerAngle_rad_Roll,eulerAngle_rad_Pitch,eulerAngle_rad_Yaw,eulerAngleWrtEi_rad_Roll,eulerAngleWrtEi_rad_Pitch,eulerAngleWrtEi_rad_Yaw,bodyAngularRateWrtEi_rad_s_Roll,bodyAngularRateWrtEi_rad_s_Pitch,bodyAngularRateWrtEi_rad_s_Yaw,altitudeMsl_m,airDensity_kg_m3,ambientTemperature_dgK,eiGravitation_m_s2_X,eiGravitation_m_s2_Y,eiGravitation_m_s2_Z
0.0,-1436381.46541304,4185811.71030584,5163944.67156165,-4315967.74,960356.2,5167269.53,129.091037,-7491.513855,1452.515654,5.45458061391501,-1.21387661005293,-6.54917378145427,6759053.07578957,1.02331944621101,-0.0,-0.202458193231342,-0.0,-2.47159390556423,-0.0371889647578404,-1.42899313520437,0.0,-0.0011222300308759,0.0,434989.540811728,1.6157E-12,978.026450176724,5.45458062216322,-1.21387690733748,-6.54917372128662
60.0,-1794959.99461032,3943151.68537766,5239238.39543608,-4298410.85820364,509021.505677856,5242566.81037012,455.96394861753,-7547.27724741442,1056.38096951522,5.43713968502393,-0.644045710766874,-6.65043713741341,6758732.94382143,1.02769471546425,-3.9864524144E-5,-0.203738769448944,-1.951298341541E-4,-2.47208852074658,0.0165636323605444,-1.38630657662721,-1.880171091E-6,-0.0011656564875452,-3.4699794539E-6,433110.362733302,1.7261E-12,985.077690369697,5.43713970685118,-0.644046030975237,-6.65043709065229
120.0,-2147590.36731441,3685729.23668948,5290614.55361474,-4261287.54962274,55369.4292924456,5293931.3739998,781.062757377207,-7568.72051910727,655.053625744801,5.39544969257957,-0.070274936518555,-6.72218262016618,6758512.12107826,1.0320699847175,-1.758367390494E-4,-0.207589803668689,-6.019934127786E-4,-2.47028412170225,0.0722040457345725,-1.34174947544264,-3.9885827056E-6,-0.0012094582793122,-7.212578425E-6,430971.619257133,1.8571E-12,992.84564125517,5.39544972998232,-0.0702752822863969,-6.72218258895963
180.0,-2492788.95247467,3414636.35869623,5317814.95186001,-4204747.87398322,-398535.18372474,5321105.06469314,1102.93448727644,-7555.68004051525,250.317984568671,5.3295915969774,0.505004799323914,-6.76398532379869,6758393.58480051,1.03644525395931,-4.330476222298E-4,-0.214040666290369,-0.0012260338752457,-2.46587847402754,0.129631334664285,-1.29499253116806,-6.3567187719E-6,-0.0012539729131615,-1.12489788445E-5,428579.638186486,2.0109E-12,1001.28178823823,5.32959165239567,0.505004425234888,-6.76398531088099
240.0,-2829091.78198224,3131015.00505247,5320689.08914599,-4129028.86811034,-850622.064670376,5323937.48700223,1420.13381337285,-7508.13896462765,-156.019399614452,5.23973992662623,1.07933269338174,-6.7755312124255,6758378.60958145,1.04082052320969,-8.375683392204E-4,-0.223141269724759,-0.0020710135231748,-2.45850605918169,0.188728103835874,-1.24561986802543,-9.0230164724E-6,-0.0012995363574046,-1.56039146047E-5,425943.216357078,2.1899E-12,1010.30123345754,5.239740002983,1.0793322881853,-6.77553122119727
300.0,-3155060.49626205,2836052.72905335,5299195.28686297,-4034453.91684287,-1298824.37836859,5302387.13527989,1731.228755178,-7426.22881877754,-562.136578874718,5.12616537035848,1.65022502605637,-6.75662201558666,6758466.96065467,1.04519579246293,-0.0014166727437656,-0.234961992563098,-0.0031386713191347,-2.44771706538028,0.249350994243746,-1.19311080504827,-1.20333598997E-5,-0.0013464813993296,-2.03063683575E-5,423073.644265591,2.3963E-12,1019.7870753277,5.12616547108667,1.65022458708211,-6.756622050186
360.0,-3469288.30918977,2530978.15645347,5253401.40160489,-3921431.77791606,-1741087.66203185,5256522.10604885,2034.80651280465,-7310.23063377439,-966.203299836676,4.98923688834964,2.21518357702439,-6.70717988726218,6758657.0632354,1.04957106170188,-0.0021991458140296,-0.249593481953306,-0.0044283506081605,-2.4329509955193,0.311317261452705,-1.13681548063666,-1.54416437377E-5,-0.0013951350535235,-2.53902836857E-5,419984.693660289,2.6323E-12,1029.60103515586,4.98923701740413,2.2151831018778,-6.7071799526196
420.0,-3770405.97028678,2217056.29793521,5183485.10490609,-3790455.25329226,-2175378.81598521,5186520.37704698,2329.47940847292,-7160.57553229699,-1366.38835299334,4.82942308371681,2.7717051630362,-6.62725139437724,6758946.10974913,1.05394633095227,-0.0032156594019744,-0.267146266106384,-0.0059365786111521,-2.41350352325202,0.374385892617168,-1.07592299558399,-1.93103961189E-5,-0.0014458146307282,-3.08952910036E-5,416692.56465975,2.8998E-12,1039.59748250466,4.82942324557145,2.77170464976873,-6.62725149625199
480.0,-4057087.69990494,1895583.71115751,5089733.71565158,-3642099.50202626,-2599695.11206622,5092669.63866744,2613.89088560044,-6977.84472333283,-1760.86713425342,4.6472927526656,3.31729181109925,-6.51701057868953,6759330.08410306,1.05832160020265,-0.0044992428769845,-0.287750083762959,-0.0076565745234161,-2.38848549669381,0.43823107543443,-1.00942100604432,-2.37114411692E-5,-0.0014988220151752,-3.68674354482E-5,413215.790621751,3.2008E-12,1049.63684596403,4.64729295229615,3.31729125838222,-6.51701072368724
540.0,-4328057.07101117,1567883.52647856,4972543.57414814,-3477019.99265345,-3012073.18323037,4975366.66677817,2886.72151840936,-6762.76887996068,-2147.82936119535,4.44351471580129,3.84946106375124,-6.376761067252,6759803.70397065,1.06269686945303,-0.0060858855265674,-0.311552808316598,-0.009577655435271,-2.35677423956283,0.502405015612663,-0.936046939560574,-2.87265699936E-5,-0.0015544356304991,-4.33598810408E-5,409575.100965877,3.5373E-12,1059.59518360579,4.44351495865418,3.84946047105298,-6.37676126282319
600.0,-4582092.81269251,1235300.35046728,4832418.9502009,-3295950.09563365,-3410597.95737491,4835116.22926443,3146.69499568415,-6516.22690456733,-2525.48689177353,4.21885717314082,4.36575604974031,-6.20693742396415,6760360.303701,1.06707213870913,-0.0080153213648237,-0.338718811009044,-0.0116844973003966,-2.31696084841058,0.566286212240926,-0.854234541582224,-3.4448173098E-5,-0.0016128995114213,-5.04335463346E-5,405793.244148854,3.9111E-12,1069.36868577293,4.21885746508529,4.36575541750986,-6.20693767838121
660.0,-4818034.51076453,899195.062075613,4669970.48022725,-3099698.31808258,-3793411.49916293,4672529.52132649,3392.58405897517,-6239.24410056132,-2892.08160949728,3.97418687902223,4.86375520072099,-6.0081060750902,6760991.69728462,1.0714474079538,-0.0103320676837513,-0.369426570924221,-0.013956189334092,-2.26730568865877,0.629008783059106,-0.762067944681555,-4.09797667382E-5,-0.0016744088587154,-5.81576013977E-5,401894.77469297,4.324E-12,1078.87377720787,3.97418722628109,4.86375453058221,-6.00810639739699
720.0,-5034788.18167829,560939.515878861,4485913.12996719,-2889145.18368537,-4158721.72481749,4488322.12609261,3623.21639234383,-5932.9897682693,-3245.89336039968,3.71046838371111,5.34108177813284,-5.78096616449051,6761688.06919867,1.07582267720419,-0.0130868203086836,-0.403865301523914,-0.0163649903389708,-2.20573248803436,0.689369557996528,-0.657273624924193,-4.84363201111E-5,-0.0017390914674927,-6.66097233558E-5,397905.809336687,4.7774E-12,1088.04445053971,3.71046879276384,5.34108107308961,-5.78096656441615
780.0,-5231331.69616608,221911.163966401,4281063.67963236,-2665239.76048971,-4504810.95546769,4283311.49739021,3837.48047174018,-5598.77422536062,-3585.24794600275,3.42876344900639,5.79541360932156,-5.52635059321498,6762437.93917866,1.08019794645171,-0.0163383580757911,-0.442230328365425,-0.0188746473304269,-2.12992566598815,0.74571549535964,-0.537314821628977,-5.69442602077E-5,-0.0018069845263778,-7.58759676879E-5,393853.757893045,5.2723E-12,1096.82848667774,3.42876392645802,5.79541287397021,-5.52635108104167
840.0,-5406720.02707248,-116512.391104104,4056337.72773263,-2428995.8387073,-4830044.27383961,4058413.96091458,4034.33138295473,-5238.04522400928,-3908.52518624021,3.13023055464279,6.22449354754052,-5.24522730226069,6763228.23553008,1.08457321569067,-0.0201561889136048,-0.484716927503635,-0.0214380578142417,-2.03764709746413,0.795830538925146,-0.399704522919197,-6.66409986772E-5,-0.0018780065465196,-8.60500665832E-5,389767.034289993,5.8093E-12,1105.18372412194,3.13023110705287,6.22449278827958,-5.24522788863547
900.0,-5560090.29330851,-452958.901212533,3812746.20901562,-2181487.76038265,-5132877.6464914,3814641.22923031,4212.79660630858,-4852.38370651559,-4214.16706281809,2.81612422462246,6.6261411309307,-4.93870062266378,6764044.49313419,1.08894848494105,-0.0246243026495442,-0.531512329723149,-0.0239939242570395,-1.92742883546764,0.836876190996411,-0.242693405170109,-7.76737949233E-5,-0.0019519246680624,-9.72319184613E-5,385674.752683455,6.3881E-12,1113.07504122465,2.81612485829072,6.62614035615302,-4.93870131834578
960.0,-5690666.5676447,-786067.022881743,3551391.4217747,-1923845.90347682,-5411865.76953191,3553096.4258616,4371.98174564422,-4443.4988175337,-4500.68593642384,2.48779377062198,6.9982657300278,-4.60801230958027,6764871.17093783,1.09332375419143,-0.0298466238149701,-0.582785627167499,-0.0264618198037912,-1.79972005611723,0.865492059314818,-0.0664108046871235,-9.01977502297E-5,-0.002028318387105,-1.095249934477E-4,381606.412725031,7.0073E-12,1120.47208061822,2.48779449132991,6.99826495027536,-4.60801312511778
1020.0,-5797764.41183847,-1114491.89567147,3273462.56095483,-1657251.82502422,-5665669.59048892,3274969.61490242,4511.07615329968,-4013.22208180958,-4766.67280394947,2.14668100974067,7.33888119227709,-4.25454175294014,6765692.0640878,1.09769902344753,-0.0359551645671628,-0.638675404657331,-0.0287346745492465,-1.6581861379326,0.878188636507436,0.125843611909605,-1.043727319342E-4,-0.0021065419122259,-1.230323638059E-4,377591.57730788,7.6642E-12,1127.34785285602,2.14668182245249,7.33888042033536,-4.25454269827684
1080.0,-5880795.09877337,-1436910.72932477,2980230.75645058,-1382933.07169399,-5893063.45369527,2981532.83554544,4629.35837755643,-3563.5006649516,-5010.8055305532,1.79431657581563,7.64612169135885,-3.8798048472007,6766490.77204049,1.10207429269791,-0.0431226337331351,-0.699275077071533,-0.0306669311224573,-1.51021636239793,0.87206125555057,0.327101310141058,-1.203590720026E-4,-0.0021856889050283,-1.378510990655E-4,373659.545646357,8.355E-12,1133.67789410292,1.79431748434633,7.64612094226579,-3.87980593121584
1140.0,-5939269.47892761,-1752028.37350298,2673043.62078311,-1102157.67110682,-6092941.81229762,2674134.64572478,4726.20134022283,-3096.3896600189,-5231.85696286781,1.43231458830868,7.91825824683227,-3.485451103582,6767251.17850475,1.10644956193401,-0.0515827295861527,-0.764616158845728,-0.0320551403274399,-1.36559366208191,0.845574144947663,0.528066463990996,-1.383119907387E-4,-0.0022645651771205,-1.540648720334E-4,369839.024512444,9.0739E-12,1139.43984872664,1.43231559497224,7.91825753777724,-3.48545233357681
1200.0,-5972801.44789192,-2058582.84009513,2353319.31661126,-816228.323113848,-6264325.44761735,2354194.1853403,4801.07714336606,-2614.04337926051,-5428.702809737,1.06236562933598,8.15371525247678,-3.07325876591577,6767957.90245406,1.11082483119011,-0.0616643692973508,-0.834650012371474,-0.032604734390266,-1.23362064624988,0.798952307005904,0.720003927774238,-1.583748806966E-4,-0.002341676711841,-1.717348337758E-4,366157.800876368,9.8136E-12,1144.6132871436,1.06236673459179,8.15371460256735,-3.07326014706605
1260.0,-5981110.97262573,-2355350.74499114,2022540.16165302,-526476.316280665,-6406367.13656001,2023194.77665721,4853.56140675711,-2118.70567045884,-5600.32916860738,0.686228157968619,8.35108635946137,-2.64512789313936,6768596.69007905,1.11520010044049,-0.0738527434110121,-0.909228958191844,-0.0318700712834966,-1.12061231507547,0.733940717064689,0.897263819263483,-1.80671852012E-4,-0.002415241613192,-1.908891513001E-4,362642.41997754,1.05651E-11,1149.17959700391,0.686229360089045,8.35108578934205,-2.64512942794238
1320.0,-5964026.63812129,-2641152.63072296,1682245.79585697,-234255.200407075,-6518356.71005415,1682677.08674239,4883.33704950215,-1612.69931337327,-5745.8395789147,0.305718618363995,8.50914918221469,-2.20307154358097,6769154.7322547,1.11957536967945,-0.0889058266775134,-0.988087806348911,-0.029139092103148,-1.02925781091409,0.653172628338479,1.05794110274194,-2.05300265836E-4,-0.0024832344836844,-2.115120491112E-4,359317.873785871,1.13176E-11,1153.12175268923,0.305719913149443,8.50914871353035,-2.20307323133159
1380.0,-5921487.67948027,-2914858.13372865,1334025.94246155,59065.7494007931,-6599725.44968287,1334231.88360086,4890.1974466947,-1098.41457834386,-5864.46149543035,-0.0772994492571117,8.62687847866469,-1.74920530028016,6769620.90696681,1.12395063893269,-0.108096158148315,-1.07082642356095,-0.0231927447575416,-0.959542596503515,0.559568576525486,1.20297958543764,-2.323243058668E-4,-0.0025434694405958,-2.335336915854E-4,356207.305664302,1.20588E-11,1156.42443000804,-0.0772980686858108,8.62687813337298,-1.74920713661872
1440.0,-5853545.46942875,-3175390.95885151,979512.800542269,352108.237992456,-6650049.77510839,979492.423641304,4874.04891015261,-578.297044394344,-5955.55209000142,-0.46092700708934,8.70345763845846,-1.28573540090201,6769985.95761422,1.12832590818593,-0.133769759231727,-1.1568915197714,-0.011747266849368,-0.910081376355278,0.455983685104937,1.3348707499658,-2.617708563322E-4,-0.0025937228942311,-2.568226594606E-4,353331.737588932,1.27753E-11,1159.074890464,-0.460925550389764,8.70345743801028,-1.28573737748236
1500.0,-5760364.43700562,-3421733.6235771,620373.111680655,643491.783079741,-6669054.18094268,620126.513135209,4834.91245758595,-54.8347799979822,-6018.60330498647,-0.843241611487728,8.73828843883291,-0.814945696243416,6770242.62383115,1.13270117743631,-0.170841299304171,-1.24554630628896,0.0100398214353905,-0.879133873869566,0.345085192776916,1.45667567562319,-2.9362894265E-4,-0.0026318894672344,-2.811829314009E-4,350709.82637069,1.34527E-11,1161.0635940967,-0.843240091061682,8.73828840325818,-0.814947800563552
1560.0,-5642222.39697278,-3652931.93860673,258299.947625289,931840.632296664,-6656613.38794127,257828.290572542,4772.92484492077,469.455009633028,-6053.24609312403,-1.2223098674065,8.7309990709287,-0.339183593155296,6770385.74089144,1.13707644668384,-0.231736908565459,-1.33577403798598,0.0545114513409723,-0.865172305471951,0.229359737500291,1.57150053925088,-3.278536458809E-4,-0.00265615533384,-3.063570020982E-4,348357.654902397,1.40766E-11,1162.38450473616,-1.2223082982167,8.73099921787935,-0.339185808585481
1620.0,-5499510.27475222,-3868099.19189404,-104995.730512596,1215790.71959572,-6612753.67963357,-105690.21950972,4688.33884222665,992.039764359312,-6059.2537860745,-1.59620017938598,8.68145040609793,0.139154918880458,6770412.31806418,1.14145171592279,-0.359376018714806,-1.42578550179482,0.164491879186078,-0.867128163394223,0.111168962394277,1.68229506469461,-3.643747072243E-4,-0.0026651653149531,-3.320359619611E-4,346288.563577683,1.46329E-11,1163.03518854933,-1.5961985786181,8.68145074991148,0.139152612849543
1680.0,-5332731.21651433,-4066420.00543994,-467793.687683907,1493996.61508986,-6537653.40186304,-468707.727346332,4581.52273679646,1510.3856716684,-6036.54453912495,-1.96299575372311,8.58974039674811,0.617641073386815,6770321.59801138,1.14582698517889,-0.826492796176408,-1.50810118778815,0.612607290541902,-0.884462895017686,-0.0071887312688205,1.79182148036526,-4.031091118883E-4,-0.0026581563591747,-3.57876117502E-4,344513.025828694,1.51084E-11,1163.01677091254,-1.9629941403008,8.58974094760122,0.617638700669825
1740.0,-5142499.07832193,-4247153.83744114,-828373.148117726,1765138.42155332,-6431642.60944729,-829502.416544761,4452.95905021746,2021.97197305714,-5985.18280542238,-2.32080778054103,8.45620643684019,1.09382984504016,6770115.09144382,1.15020225442927,-2.47908421515459,-1.50724351385438,2.24473320382943,-0.917151419859243,-0.123425301518901,1.90268800626151,-4.439760292072E-4,-0.0026350329322833,-3.835203401384E-4,343038.570376676,1.54916E-11,1162.33380996879,-2.3208061745149,8.45620720006104,1.09382743226992
1800.0,-4929536.2955602,-4409638.10240782,-1185021.58695752,2027928.57016418,-6295201.85152067,-1186360.74106076,4303.24246216928,2524.30534584776,-5905.37980234424,-2.66778866726467,8.28142548448175,1.56527698788503,6769796.57633954,1.15457752367966,-2.93403007585982,-1.42667447544797,2.67761399923546,-0.965612858066955,-0.235221765264834,2.01737945487447,-4.869118824506E-4,-0.0025963696003087,-4.086212188018E-4,341869.751444243,1.57733E-11,1160.99414169522,-2.66778708910941,8.28142646008178,1.56527456354536
1860.0,-4694671.13795873,-4553290.8877377,-1536043.51909923,2281118.46790587,-6128960.09516485,-1537586.21929319,4133.07694330754,3014.93422116294,-5797.4929466234,-3.00214513275965,8.06621179272594,2.02955632061716,6769372.05046022,1.15895279293004,-3.06441557995616,-1.34075563462577,2.78418520916679,-1.03058247210807,-0.3401998298518,2.13823341589445,-5.318832412959E-4,-0.0025433403214605,-4.328626429345E-4,341008.166952187,1.5947E-11,1159.00874590942,-3.00214360262318,8.06621297519608,2.02955391404626
1920.0,-4438834.3635817,-4677613.24642001,-1879769.2231406,2523504.94955881,-5933691.79551309,-1881508.16317046,3943.27211243216,3491.46289237806,-5662.02425309229,-3.32215093007702,7.81161219652992,2.48427693020499,6768849.62954925,1.16332806216899,-3.13199873656362,-1.25655317239785,2.82604087572022,-1.11289016189309,-0.435914607280947,2.2673103085876,-5.788956990436E-4,-0.0024775883479191,-4.559768210113E-4,340452.523660555,1.6009E-11,1156.39167418484,-3.32214946703157,7.81161357492531,2.48427457053323
1980.0,-4163055.2912826,-4782191.05026638,-2214563.33864698,2753936.48855195,-5710313.12927134,-2216490.28039753,3734.73884740417,3951.56526907955,-5499.6177121514,-3.62615896094068,7.51889903282529,2.92709995673264,6768239.38995972,1.16770333142223,3.10456951245965,-1.17565121033867,2.84483921395112,-1.21309862938313,-0.519889482190603,2.40610619523786,-6.279977381639E-4,-0.0024010608008861,-4.777548070653E-4,340198.747290387,1.5959E-11,1153.16006926453,-3.62615758228683,7.5189005911378,2.92709767182564
2040.0,-3868457.31620011,-4866696.39333988,-2538833.27643174,2971319.12312398,-5459877.41708538,-2540939.08952684,3508.48419269649,4392.99813981633,-5311.05568024687,-3.91261257669414,7.18956088662836,3.3557546649525,6767553.16127199,1.17207860067547,3.06667641094241,-1.09885166469532,2.85263082895731,-1.33098191585066,-0.589727777999883,2.55508996906135,-6.792795071162E-4,-0.0023158353563906,-4.980499924265E-4,340240.134820815,1.57998E-11,1149.33429221925,-3.91261129736389,7.18956260442176,3.35575248042986
2100.0,-3556252.90017771,-4930888.53789693,-2851037.38409209,3174622.05715641,-5183569.76798853,-2853312.09006089,3265.60561723183,4813.61382089724,-5097.25433309665,-4.18005591398151,6.82529142644898,3.76805358555389,6766804.27944341,1.17645386991157,3.03260330117488,-1.0266702149667,2.85411560743188,-1.46492926475634,-0.643335216912928,2.71315244303374,-7.328671519432E-4,-0.0022239631682905,-5.167752937528E-4,340567.545331395,1.55371E-11,1144.93815954335,-4.18005474607765,6.8252932797096,3.76805152394657
2160.0,-3227738.0719281,-4974614.4013196,-3149692.81236168,3362882.8984989,-4882700.98603848,-3152125.6331174,3007.28468359134,5211.37208493927,-4859.25824186227,-4.42714316752514,6.42797660479435,4.1619065930368,6766007.31270997,1.1808291391591,2.99995963186431,-0.959447816466929,2.85146890928822,-1.61153770963269,-0.679248428199219,2.87723354564633,-7.889137142751E-4,-0.0021273444213961,-5.338956217524E-4,341169.624919752,1.51795E-11,1139.99927863851,-4.42714212002154,6.42797856693351,4.16190467313227
2220.0,-2884286.47512809,-4997808.58666413,-3433383.03164813,3535212.5014231,-4558700.78514851,-3435962.44199759,2734.78019433432,5584.35127859278,-4598.23413843538,-4.65264673833262,5.99968046660804,4.53533384853923,6765177.77060572,1.18520440840948,2.96740266280859,-0.897394281991946,2.84580913829492,-1.76577014676699,-0.696979986033832,3.04250691325432,-8.475876201447E-4,-0.002027643827929,-5.494175425498E-4,342033.06039278,1.47373E-11,1134.54945715325,-4.65264581694542,5.99968250954363,4.53533208494583
2280.0,-2527343.00760023,-5000492.9620201,-3700764.95220058,3690799.3838864,-4213110.36314492,-3703478.73607765,2449.42088443571,5930.7585519834,-4315.46393943329,-4.85546420596816,5.54262976038995,4.886477558142,6764331.80216646,1.18957967766558,2.93408881159205,-0.840615555702387,2.83774897511147,-1.92185735522806,-0.69721288155874,-3.07988283258576,-9.090595471882E-4,-0.0019262455299952,-5.633779229902E-4,343142.855679765,1.42229E-11,1128.62514885481,-4.85546341319376,5.54263185563289,4.88647596108417
2340.0,-2158417.09483676,-4982775.79941826,-3950575.60561795,3828913.69452354,-3847574.39040104,-3953410.91571261,2152.59773213211,6248.93913305993,-4012.33710176704,-5.03462406489613,5.05919751790746,5.21361248213868,6763485.88461562,1.1939549469131,2.89943691566183,-0.789135708387839,2.82763537330243,-2.07460910970004,-0.681707909434777,-2.92875136761112,-9.734881163222E-4,-0.0018242416329675,-5.75832956992E-4,344482.624354262,1.36492E-11,1122.26788426746,-5.03462340019914,5.05919963758455,5.21361105747599
2400.0,-1779075.64476569,-4944850.48650447,-4181638.34991193,3948910.70873643,-3463832.47210817,-4184581.77034838,1845.75596440677,6537.3845901536,-3690.34238746851,-5.18929015513551,4.5518857816131,5.51515509848401,6762656.50076178,1.19833021615206,2.86301530580906,-0.742915943638676,2.81566647906463,-2.22045413353271,-0.652945091808533,-2.79093289005087,-0.0010410045356132,-0.0017224461656321,-5.868484844628E-4,346034.891384381,1.30298E-11,1115.52461562586,-5.18928961526019,4.55188789936943,5.51515384793054
2460.0,-1390935.73098578,-4886993.82850586,-4392868.56518734,4050233.83795017,-3063710.14629433,-4395906.17688947,1530.38683738273,6794.74003829797,-3351.05912201372,-5.31876472709765,4.02330771456968,5.78967130327572,6761859.80353278,1.2027054854053,2.82448411547244,-0.701870790032183,2.80195408999514,-2.35776392878266,-0.613668864856114,-2.66820283990939,-0.0011116961137226,-0.0016214260670688,-5.964920707895E-4,347781.397319496,1.23784E-11,1108.447880147,-5.31876430647028,4.02330980630882,5.78967022478447
2520.0,-995657.052596712,-4809563.96117613,-4583278.81225909,4132417.14100811,-2649109.48190231,-4586396.26063105,1208.01927440388,7019.81026118894,-2996.14803712812,-5.42249012290372,3.47616940276099,6.03588254814439,6761111.26991234,1.20708075465283,2.78356468415757,-0.665881241816383,2.78655980729548,-2.48654541467433,-0.566514991543457,-2.56075866569466,-0.001185588501245,-0.0015215419771249,-6.048269824636E-4,349703.398560927,1.17077E-11,1101.09565331724,-5.42248981409097,3.47617144719775,6.03588163641404
2580.0,-594934.219845622,-4712997.89816212,-4751983.43213063,4195087.33163608,-2221999.34232729,-4755165.99667262,880.211443550956,7211.56474115553,-2627.34179336218,-5.50004913067677,2.91325171658245,6.25267037889049,6760425.35303592,1.21145602389464,2.74002340101451,-0.634804658585881,2.76951750742312,-2.60787054603184,-0.513797157500578,-2.46777760944524,-0.0012626266257429,-0.0014229933608836,-6.119079882841E-4,351781.958073967,1.10296E-11,1093.53073147404,-5.50004892486592,2.91325369559908,6.25266962594928
2640.0,-190488.911690631,-4597808.73940354,-4898202.56997803,4237965.2806567,-1784405.379601,-4901435.23545414,548.542350286245,7369.14161193635,-2246.43527696071,-5.55116415746689,2.33739260083205,6.43907944061826,6759815.1482343,1.21583129314788,2.69366386928432,-0.608481382103233,2.75084816717619,-2.72334517490491,-0.457435804754959,-2.38793364692705,-0.0013426545613184,-0.0013258642568193,-6.177788180768E-4,353998.221739298,1.03548E-11,1085.8194690366,-5.55116404493723,2.33739449964289,6.43907883644094
2700.0,215938.049582976,-4464582.56817126,-5021265.61276936,4260867.01586374,-1338399.82288787,-5024533.14154406,214.603509740919,7491.850569468,-1855.27575833236,-5.57569544331387,1.75147009187467,6.59431912286432,6759292.09383348,1.22020656239826,2.6443242469412,-0.586738173973152,2.73057002603701,-2.83473715555026,-0.398974412095987,-2.31975282826099,-0.0014253950090385,-0.0012301673767345,-6.224710900636E-4,356333.676353803,9.6925E-12,1078.02973368478,-5.57569541387354,1.75147189901593,6.59431865598251
2760.0,622594.663705288,-4313975.06504675,-5120614.03451753,4263704.22590738,-886091.122381695,-5123901.03967995,-120.009251556335,7579.17479000954,-1455.75298641315,-5.57363857591355,1.15838622533884,6.71776409718813,6758865.72835217,1.22458183164864,2.59187805232356,-0.569388706646026,2.70870554415088,-2.94375955398398,-0.339633793838257,-2.26181065647746,-0.0015104296416054,-0.0011358852686923,-6.260045400388E-4,358770.385936238,9.0502E-12,1070.22807285741,-5.57363861928214,1.15838793250927,6.71776375526057
2820.0,1027725.71903861,-4146707.86692192,-5195803.64714356,4246484.27706442,-429613.506536082,-5199094.66604354,-453.703829986217,7630.77190980885,-1049.78927712986,-5.54512154568621,0.56105183275638,6.80895401955815,6758543.52133717,1.22895710090188,2.53623743824024,-0.556231466136127,2.68528579772821,-3.05196188771498,-0.280373528052287,-2.21281849124677,-0.0015971822414975,-0.0010430077725456,-6.283884204398E-4,361291.20340101,8.4336E-12,1062.47632662465,-5.54512165181004,0.561053434541409,6.80895378987492
2880.0,1429580.72327583,-3963564.69785006,-5246506.25794828,4209309.75344546,28883.4925944532,-5249785.82577424,-784.899693046084,7646.47411585543,-639.329638989823,-5.49040150644979,-0.037627918930909,6.86759261995679,6758330.78595309,1.23333237013798,2.47735829263763,-0.547045566215492,2.66035249964122,3.12250162484243,-0.2219454981125,-2.17164522886385,-0.001684907252192,-9.515651140285E-4,-6.296239611367E-4,363879.954851069,7.8471E-12,1054.82822843748,-5.49040166574364,-0.0376264254142634,6.86759248985988
2940.0,1826421.76284066,-3765387.29754412,-5272510.73692723,4152377.53228347,487245.493776544,-5275763.45996287,-1112.03552607344,7626.28738576212,-226.331968442075,-5.40986129849363,-0.634767468018002,6.89354629595219,6758230.66958475,1.23770763938837,2.41524668305449,-0.541585140876555,2.63395759513021,3.01214625782078,-0.164934283655209,-2.13730693989818,-0.0017726869255478,-8.616558029823E-4,-6.297077784191E-4,366521.593805968,7.2934E-12,1047.32676495356,-5.40986150200958,-0.634766083516603,6.89354625316426
3000.0,2216531.25823746,-3553071.17166375,-5273723.49898741,4075977.40683636,943323.650533612,-5276934.12719235,-1433.57666217164,7570.38990145348,187.242655550526,-5.30400568277694,-1.2275144851174,6.88684220049284,6758244.20710932,1.24208290863875,2.34996620307875,-0.539573168486352,2.60616030568006,2.89927062611402,-0.109784215133486,-2.10894446147032,-0.001859440481972,-7.734681613475E-4,-6.286360733305E-4,369202.322782748,6.7737E-12,1040.00303295652,-5.30400592230712,-1.22751320864133,6.88684223335486
3060.0,2598219.5807333,-3327561.18801526,-5250168.40797587,3980490.27049894,1394984.91550634,-5253321.90654374,-1748.02227452744,7479.12965173192,599.439544383776,-5.17345716286123,-1.81306328817342,6.84766571095074,6758370.4132738,1.2464581778777,2.28164573714252,-0.540695759690161,2.57702156479269,2.78321207512629,-0.056815376266062,-2.08580035247672,-0.0019439483599928,-6.872939737647E-4,-6.264093734449E-4,371909.679948917,6.2885E-12,1032.87694858429,-5.17345743098597,-1.81306211736972,6.84766580857758
3120.0,2969832.49810561,-3089847.04220901,-5201986.11166975,3866385.87720633,1840122.13696029,-5205067.73122744,-2053.91230222211,7353.02123725549,1008.31979836233,-5.0189512595084,-2.3886679910257,6.77635712398008,6758606.38814906,1.25083344713094,2.21048705038433,-0.544598061601115,2.54659600756485,2.66352543650547,-0.0062320888417626,-2.06720145747693,-0.0020248934923593,-6.035326161371E-4,-6.230374538506E-4,374632.589190696,5.8373E-12,1025.95957126439,-5.01895154960326,-2.38866692250756,6.77635727634842
3180.0,3329758.41739915,-2840958.61628783,-5129432.81965167,3734220.19516588,2276663.94016839,-5132428.16477469,-2349.83407382826,7192.74189942145,1411.96948050793,-4.84133115594596,-2.951655180404,6.6734074561903,6758947.4138176,1.25520871638133,2.13677144226686,-0.550882926688879,2.51492203384313,2.53997244445547,0.0418719133762971,-2.0525501640034,-0.0021009194963724,-5.226842589308E-4,-6.185439486916E-4,377361.372925206,5.4188E-12,1019.25631270383,-4.8413314621609,-2.95165421002787,6.67340765417523
3240.0,3676435.39288328,-2581961.25523235,-5032878.53918027,3584632.37318945,2702584.34812092,-5035773.63491263,-2634.42859100135,6999.12681006158,1808.50851083191,-4.64154173165526,-3.49943582691173,6.53945333387279,6759387.03041441,1.25958398563171,2.06086449331651,-0.559113299811671,2.48201092778752,2.4125051252137,0.087507195394307,-2.04132513857446,-0.0021707028291424,-4.453314916952E-4,-6.129700729388E-4,380087.72826956,5.0318E-12,1012.77015790513,-4.64154204887633,-3.49943495000369,6.53945356924832
3300.0,4008357.87135264,-2313950.98508071,-4912804.78740207,3418341.3410649,3115912.09877084,-4915586.14348395,-2906.39643874897,6773.16367679583,2196.09922931483,-4.42062311463453,-4.0295161441126,6.37527109149925,6759917.09289431,1.26395925488209,1.98321772307788,-0.568818851555213,2.44783650918117,2.28124146801465,0.13077716471741,-2.03309027113856,-0.0022330327758595,-3.721099832562E-4,-6.063768604875E-4,382804.668608487,4.6746E-12,1006.50423395293,-4.42062343843597,-4.02951535565061,6.37527135691473
3360.0,4324083.14887334,-2038049.69660757,-4769801.80105948,3236142.06711342,3514739.61977566,-4772456.47358266,-3164.50329962907,6515.98673320543,2572.95458687596,-4.17970396686155,-4.53950721973993,6.18177032081123,6760527.82300587,1.26833452412105,1.90436583634428,-0.579506748367547,2.4123271924659,2.14643300166509,0.171858536846813,-2.02750864269212,-0.0022868903604532,-3.036704142887E-4,-5.988454268338E-4,385506.433963605,4.3454E-12,1000.46343003533,-4.1797042934528,-4.53950651450017,6.18177060975246
3420.0,4622237.51684355,-1755400.31717915,-4604565.2668085,3038901.49703159,3897231.62606242,-4607080.91703694,-3407.58506314333,6228.87018837604,2937.34594040302,-3.91999474393371,-5.02713342278131,5.95998717551766,6761207.88041056,1.27270979337429,1.82491826690263,-0.59067569684171,2.37536248586913,2.0084257514544,0.21097271368144,-2.02435684212567,-0.0023315157853936,-2.406355512665E-4,-5.904749944768E-4,388188.374651436,4.0425E-12,994.655093432181,-3.91999507010458,-5.02713279545579,5.95998748225841
3480.0,4901522.07891034,-1467161.99036569,-4417892.59614494,2827554.19822358,4261633.30989083,-4420257.54625551,-3634.55253506473,5913.22120424954,3287.61044600679,-3.64278112544085,-5.49023978327416,5.71107771476732,6761944.48005637,1.27708506262181,1.74554404272532,-0.601831702970142,2.33677573065606,1.8676178924173,0.248349430754517,-2.02353433405254,-0.0023664545499595,-1.835575205304E-4,-5.813787492111E-4,390846.813357012,3.7642E-12,989.089005671433,-3.6427814485063,-5.49023922856543,5.71107803431496
3540.0,5160718.22173436,-1174505.28256705,-4210678.76883102,2603097.73324581,4606278.09674317,-4212882.05434686,-3844.39576034691,5570.57245271708,3622.15805885855,-3.34941770863718,-5.92679868514533,5.43631146304393,6762723.57873155,1.28146033186077,1.666949661288,-0.612503553902288,2.29636418214172,1.72441874613391,0.284186294986575,-2.02506311136367,-0.002391575189985,-1.328806734425E-4,-5.716779576382E-4,393478.89087885,3.5087E-12,983.776890723738,-3.349418026383,-5.92679819784248,5.4363117910819
3600.0,5398692.7249287,-878607.431733708,-3983911.76798517,2366587.78507942,4929594.94282969,-3985943.18669086,-4036.18797488235,5202.57428203732,3939.47815398446,-3.04132192532798,-6.33491625769978,5.13706520383904,6763530.14296252,1.28583560110829,1.58985064819918,-0.622256028566901,2.25390641807352,1.57921426858434,0.318609373694902,-2.02907447366381,-0.0024070561478592,-8.89146992549E-5,-5.614950796974E-4,396082.400459122,3.2745E-12,978.731676095318,-3.04132223595816,-6.33491583273854,5.13706553666779
3660.0,5614402.49497549,-580647.65248441,-3738667.62920671,2119133.05617815,5230115.15110405,-3740517.78635066,-4209.08919518998,4810.98650059679,4238.14577830556,-2.71996802127588,-6.71283878003771,4.81481685668617,6764348.4955098,1.29021087036154,1.51493861676514,-0.630699327921318,2.20918572513995,1.43234376774309,0.351640382260104,-2.03578198647724,-0.0024133445148558,-5.18209473909E-5,-5.509467724645E-4,398655.614938153,3.06E-12,973.966668096474,-2.71996832336232,-6.71283841254695,4.81481719116422
3720.0,5806898.90716845,-281802.511701433,-3476105.12584633,1861889.96303715,5506478.68268885,-3477765.47545191,-4362.34944301548,4397.66977187806,4516.82753111961,-2.38688086627837,-7.05895924267187,4.47113916252995,6765162.72213918,1.29458613960906,1.44284668562922,-0.637494079731032,2.16201687147075,1.28409138519506,0.383175217164836,-2.04544186028877,-0.0024110939273499,-2.16126710909E-5,-5.401376607061E-4,401197.11017545,2.8638E-12,969.494743073475,-2.38688115871347,-7.05895892800833,4.47113949601612
3780.0,5975331.73883704,16758.6117223492,-3197460.11323515,1596057.1486362,5757439.94011259,-3198922.99535851,-4495.31158755396,3964.5766123533,4774.28705195073,-2.04362936369814,-7.37182399045162,4.10769285897648,6765957.10773536,1.29896140886516,1.37411676172791,-0.642352272166833,2.11227284502317,1.13469406392827,0.41297694375956,-2.0583036683151,-0.0024010916245075,1.8323367423E-6,-5.291555598078E-4,403705.587474298,2.6845E-12,965.327610148357,-2.04362964565066,-7.37182372422441,4.1076931892742
3840.0,6118952.6764514,313877.969116959,-2904039.55650564,1322869.83653199,5981872.99852917,-2905298.23029576,-4607.41377599058,3513.74199500073,5009.39007666492,-1.69181930104501,-7.65013916435771,3.72621907838165,6766716.56411238,1.30333667810126,1.30917226168838,-0.645035306612606,2.05990794112881,0.984365465364026,0.44068441456099,-2.07455541222279,-0.0023841850971822,1.87499581136E-5,-5.180685406656E-4,406179.697316441,2.5208E-12,961.475169359388,-1.69181957191946,-7.65013894244401,3.7262194036862
3900.0,6237118.37965614,608413.768884478,-2597215.2693929,1043594.05234759,6178776.26185618,-2598263.94182876,-4698.19141708981,3047.27358258048,5221.10901035407,-1.33308560695624,-7.89277652608085,3.32853083342955,6767427.01255593,1.30771194735164,1.24829929449437,-0.64535079251688,2.00497405235136,0.833332707000992,0.465835925554008,-2.09426773352481,-0.0023612171147461,2.94629339267E-5,-5.069239091098E-4,408617.866651364,2.3715E-12,957.944969856904,-1.33308586635593,-7.8927763446343,3.32853115227854
3960.0,6329293.08722504,899244.373660041,-2278417.39463604,759520.740502455,6347276.52299726,-2279251.24483643,-4767.27868467225,2567.34164107991,5408.52696250259,-0.969084118657794,-8.09877822539561,2.91650362904331,6768075.69196394,1.31208721660202,1.19163828972695,-0.643149640217667,1.9476280119671,0.681880024503435,0.487905907292555,-2.11734294754501,-0.0023329749779729,3.43531368582E-5,-4.957489101233E-4,411018.132285396,2.2354E-12,954.741762300733,-0.969084366351633,-8.09877808084851,2.91650394027095
4020.0,6395050.7531766,1185272.34866537,-1949127.6596912,471959.805753823,6486632.41109206,-1949742.85871531,-4814.40951770691,2076.1687079657,5570.8411974659,-0.601483078378457,-8.26736016020728,2.49206540709781,6768651.3765454,1.31646248583812,1.13918674909444,-0.638324513416361,1.88812913295191,0.530390892894018,0.506351505262536,-2.14347564963318,-0.0023001565545312,3.38363602892E-5,-4.845528032438E-4,413377.983472238,2.1116E-12,951.867134619971,-0.601483314271304,-8.26736004926792,2.49206570979305
4080.0,6434076.70560554,1465428.34602809,-1610872.44383438,182234.110077911,6596237.21375124,-1611266.16991444,-4839.41810895921,1576.01910595345,5707.36596950147,-0.231954636415915,-8.39791375389548,2.05718614609288,6769144.50236498,1.3208377550885,1.09081245523127,-0.630809977584593,1.82682742228389,0.37937852448962,0.520664824855516,-2.17213241398072,-0.0022633527924178,2.8341960152E-5,-4.733298959341E-4,415694.217441934,1.9989E-12,949.319218366116,-0.231954860522399,-8.39791367354163,2.05718643956132
4140.0,6446168.82509063,1738674.81129645,-1265215.69396303,-108326.544601547,6675621.06786753,-1265386.14313391,-4842.23889085986,1069.18839731323,5817.53473241585,0.137833370829055,-8.49000618232435,1.6138674732524,6769547.21615424,1.32521302433889,1.04627528427388,-0.620583962832235,1.76414413362001,0.229495078601064,0.530425534236654,-2.20255750460852,-0.0022230444169287,1.82984930568E-5,-4.620631429575E-4,417962.812115451,1.8967E-12,947.092452365128,0.137833158407501,-8.49000612979374,1.6138677569821
4200.0,6431238.2444146,2004009.49810173,-913751.726376241,-398391.418298114,6724452.51812018,-913698.1184899,-4822.90604149109,557.992866054896,5900.90173425994,0.506225170419177,-8.54337926514326,1.16413259747523,6769853.3697662,1.32958829359213,1.00525488573132,-0.607669649288531,1.70054719911315,0.0815133103003055,0.53534769562598,-2.23380844417853,-0.0021796094859843,4.1254209271E-6,-4.507279852154E-4,420178.820457106,1.804E-12,945.177390144926,0.506224969514347,-8.54337923792195,1.164132871106
4260.0,6389309.5743179,2260468.78276025,-558097.950694344,-686634.791589325,6742539.44706579,-557820.530828735,-4781.55254230077,44.7590987332186,5957.14302285668,0.871584240493531,-8.55794734526092,0.710016758554918,6770058.48753696,1.33396356284251,0.967381023213319,-0.59213668701934,1.63652454627222,-0.0637192823426057,0.535314684683752,-2.26481954493325,-0.0021333382447365,-1.37698709224E-5,-4.392961764339E-4,422336.290700516,1.72E-12,943.560536910158,0.871584050887825,-8.5579473410701,0.710017021851
4320.0,6320520.66284975,2507130.77089768,-199887.550263462,-971741.855102854,6729829.38434625,-199387.585556113,-4718.40882112185,-468.186285706028,5986.05689550664,1.232299957567,-8.53379449352231,0.25355824841384,6770159.73125082,1.33833883208147,0.932263371804832,-0.574100781510831,1.57255830239253,-0.205346137939214,0.530397377549145,-2.29448454387283,-0.0020844520122023,-3.49910213852E-5,-4.277394076249E-4,424428.216018245,1.6442E-12,942.224206267136,1.23229977900845,-8.53379451030413,0.253558501239609
4380.0,6225121.89721997,2743118.19101713,159237.848628974,-1252414.50589994,6686409.20499867,159958.076673538,-4633.801010098,-978.526724935358,5987.56382566066,1.58679380741071,-8.4711712992908,-0.203210064080661,6770155.87950671,1.34271410133185,0.899518026243261,-0.553721024726921,1.50910243609135,-0.342573504709592,0.520853473572432,-2.32174409529974,-0.0020331233858826,-5.91491235856E-5,-4.160325791987E-4,426446.516159666,1.5759E-12,941.152200355324,1.58679363962111,-8.4711713351945,-0.203209821775279
4440.0,6103475.0573706,2967601.07214917,517635.488191104,-1527377.02835527,6612504.22838195,518572.695853011,-4528.14884064089,-1483.96560082548,5961.70589269902,1.93352529543793,-8.37049137441922,-0.658268847625869,6770047.32733621,1.34708937058509,0.868788780778039,-0.531194802245105,1.446565592127,-0.474733262190971,0.507109215015909,-2.34566267744815,-0.0019794956721991,-8.58581439251E-5,-4.041565929304E-4,428382.052294763,1.5147E-12,940.340412609293,1.93352513811193,-8.37049142779238,-0.658268615806289
4500.0,5956051.7316992,3179799.20153856,873668.74197445,-1795381.63822133,6508476.7303118,874818.659845048,-4401.96318981613,-1982.23590859455,5908.64573179722,2.27099766981482,-8.2323275550619,-1.10962021350437,6769836.10079512,1.35146463983547,0.83976221464434,-0.506750533235259,1.38529992390176,-0.601324885565264,0.489727754521035,-2.36548315180345,-0.0019237000352397,-1.147306350201E-4,-3.921005513205E-4,430224.674958589,1.4603E-12,939.783119498346,2.2709975226314,-8.23232762444306,-1.10961999206904
4560.0,5783431.30521554,3378984.36082298,1225714.30066108,-2055213.86925916,6374823.88211458,1227071.69444368,-4255.8432875454,-2471.10968611774,5828.66501310826,2.59776350579632,-8.05740767931024,-1.55529550953107,6769525.87262967,1.35583990908586,0.812176552137802,-0.480638813211052,1.32559582091198,-0.722031452160128,0.469370054464994,-2.38065401304086,-0.0018658693673371,-1.453747167886E-4,-3.798632716312E-4,431963.30376902,1.4123E-12,939.47025557377,2.59776336843123,-8.05740776342014,-1.55529529833094
4620.0,5586298.53169011,3564482.33868884,1572169.25274567,-2305697.78234223,6212175.1318504,1573727.94821346,-4090.47359355021,-2948.40717313348,5722.16245619344,2.91243011779467,-7.84660978032558,-1.99336301087811,6769121.96094964,1.36021517832195,0.785824998243787,-0.453122691473835,1.26768172908251,-0.836711512671595,0.446754177188837,-2.3908312718195,-0.0018061483251242,-1.773929046223E-4,-3.674540535764E-4,433586.036631806,1.3705E-12,939.387449980748,2.91242998993144,-7.84660987805727,-1.99336280973429
4680.0,5365440.70340616,3735674.71784735,1911458.03246765,-2545700.97758151,6021289.04504748,1913210.94444609,-3906.62035720593,-3412.00566123626,5589.65138805092,3.21366469540055,-7.60095657237804,-2.42193542152158,6768631.29383954,1.36459044757234,0.760554694697608,-0.424467833173002,1.21172785320929,-0.945373323088953,0.422617533074481,-2.39586149692711,-0.001744699357714,-2.103829645232E-4,-3.548926847785E-4,435080.285519366,1.3345E-12,939.515432163259,3.21366457674057,-7.60095668278566,-2.42193523024211
4740.0,5121744.43288998,3892000.43708292,2242039.20804969,-2774139.39102468,5803049.62480618,2243978.3732753,-3705.12788097219,-3859.84799087474,5431.75686043829,3.50019902450152,-7.32160920396918,-2.83917703479402,6768062.32840989,1.36896571681986,0.736262597781022,-0.39493322544742,1.15785240996207,-1.04813953298887,0.397684830037602,-2.3957540225321,-0.00168170488678,-2.439406247968E-4,-3.422087222592E-4,436432.935607266,1.3041E-12,939.826700046215,3.50019891477477,-7.32160932625381,-2.83917685319212
4800.0,4856192.06481879,4032957.12744219,2562412.08452911,-2989981.85897217,5558462.13373314,2564528.69822287,-3486.91451629403,-4289.95065362593,5249.21235199975,3.7708336658989,-7.00986037274423,-3.24331038669967,6767424.92120719,1.37334098605596,0.712889510061302,-0.36476293331598,1.10612920313976,-1.14520957971993,0.372642774080776,-2.39064936262823,-0.001617366076886,-2.776637109154E-4,-3.294401431151E-4,437630.524496686,1.2791E-12,940.291548165406,3.7708335648696,-7.00986050624212,-3.24331021460449
4860.0,4569857.73641311,4158102.22590179,2871123.09728197,-3192254.43488977,5288648.44243124,2873407.55326257,-3252.96842710175,-4700.41146696707,5042.85608975517,4.02444151705327,-6.66712699962885,-3.63262227511453,6766730.15579829,1.37771625531206,0.690413291366044,-0.334179234753836,1.05659553066217,-1.23682496796936,0.348121366333389,-2.38078871856375,-0.0015518988454499,-3.11157115091E-4,-3.16631503857E-4,438659.438320569,1.2598E-12,940.966066046018,4.02444142448303,-6.66712714386546,-3.63262211230707
4920.0,4263903.10564301,4267053.87096142,3166771.97459585,-3380044.44609473,4994841.93084344,3169213.90874725,-3004.3431582489,-5089.41680246457,4813.62702989044,4.25997075964197,-6.2949427106892,-4.00546909702307,6765990.14035203,1.38209152455673,0.668842012489192,-0.303377295617343,1.00925972072521,-1.32324038284472,0.324680989206544,-2.36648720169452,-0.0014855278919588,-3.440379665609E-4,-3.038317781292E-4,439506.121597556,1.2467E-12,941.911132175712,4.2599706753065,-6.2949428653924,-4.00546894325648
4980.0,3939572.76874237,4359491.58392968,3448017.65007339,-3552504.27958015,4678381.96944492,3450605.98697172,-2742.15304370959,-5455.24836303275,4562.56053787346,4.47644727176377,-5.89495035785078,-4.36028154830408,6765217.79130032,1.38646679380997,0.648207559372688,-0.272521401620502,0.964107870602597,-1.40470178430118,0.302804256734419,-2.34811162887301,-0.0014184795693247,-3.759404177103E-4,-2.910920527059E-4,440157.297655803,1.2402E-12,943.175917892154,4.47644719547701,-5.89495052295009,-4.36028140333751
5040.0,3598189.3849482,4435156.74434105,3713583.90791866,-3708854.88825417,4340708.00716306,3716306.91041576,-2467.56848294811,-5796.28951670195,4290.78380288661,4.67297663358018,-5.468894731939,-4.695568803807,6764426.61787143,1.39084206306035,0.628559980586486,-0.241742654392346,0.921109590309823,-1.48143142897405,0.282891652199016,-2.32606265608596,-0.0013509743815815,-4.06519578836E-4,-2.784632519156E-4,440600.196252644,1.2407E-12,944.805046934244,4.67297656521353,-5.46889490756837,-4.69556866743182
5100.0,3241148.52850294,4493852.86500238,3962264.74601999,-3848389.01033204,3983353.29224484,3965110.0675741,-2181.81110565428,-6111.03120028905,3999.51101332503,4.84874586415731,-5.01861551058096,-5.00992232632298,6763630.51692486,1.3952173322993,0.609962709704314,-0.211137962940946,0.880222721774996,-1.55361908575313,0.265260142198006,-2.30076051116071,-0.0012832197873497,-4.354542898619E-4,-2.659940346295E-4,440822.784683029,1.2487E-12,946.84133812667,4.84874580365807,-5.01861569708245,-5.0099221983877
5160.0,2869913.28528447,4535445.67430151,4192929.4430832,-3970474.09559642,3607938.25147958,4195884.18262169,-1886.148837588,-6398.07740563086,3690.03831157445,5.00302499368789,-4.54604037833205,-5.30201943184616,6762843.57959841,1.39959260154969,0.592488685038495,-0.180770117766174,0.841397114347317,-1.6214183963339,0.250144141748267,-2.27263349162796,-0.0012154038408308,-4.624485815282E-4,-2.537289714852E-4,440813.998281777,1.2649E-12,949.3275227348,5.00302494109788,-4.54604057626239,-5.30201931228087
5220.0,2486008.6109134,4559863.01273649,4404527.31696719,-4074554.93285355,3216163.55258216,4407578.07606047,-1581.89087581845,-6656.15025512833,3363.73854040675,5.13516851237677,-4.05317819423555,-5.570626674039,6762079.90309013,1.40396787080293,0.576217323202051,-0.150668717506065,0.80457759936155,-1.68494723681239,0.237698357983897,-2.24210853090987,-0.0011476900370223,-4.872318285219E-4,-2.417070695607E-4,440563.965903121,1.29E-12,952.307440844103,5.13516846785234,-4.05317840437577,-5.5706265628811
5280.0,2091015.46822227,4567094.54950238,4596092.1620485,-4160155.97337785,2809802.87437152,4599225.10416972,-1270.38258125951,-6884.09466561979,3022.05579203614,5.24461666885534,-3.54211208575301,-5.81460302766865,6761353.39487965,1.40834314003902,0.561232268989477,-0.120831721727,0.769706332615194,-1.74429096236818,0.228002142882559,-2.20960336655093,-0.0010802135683742,-5.09557718144E-4,-2.299606730325E-4,440064.225833315,1.325E-12,955.826691976041,5.24461663269027,-3.54211230912117,-5.81460292509179
5340.0,1686564.76126965,4557191.32573431,4766746.35418716,-4226883.34569343,2390695.40962196,4769947.26582728,-953.000299617802,-7080.88259414364,2666.49977432319,5.33089654364293,-3.01499241790137,-6.03290278147771,6760677.55482349,1.41271840928941,0.547619831849825,-0.0912274226712256,0.736724675981941,-1.79950750959753,0.221065041611641,-2.17552007551063,-0.0010130790635837,-5.292022443923E-4,-2.185147356927E-4,439307.927755786,1.3708E-12,959.932456234512,5.33089651629555,-3.01499265576679,-6.03290268782639
5400.0,1274331.08269693,4530265.1312402,4915704.61291822,-4274426.55785313,1960738.12588005,4918958.96632245,-631.146126750553,-7245.61685933352,2298.64001503266,5.39362281746358,-2.47402969895096,-6.22457802527626,6760065.22380894,1.41709367853979,0.535468020689603,-0.061796658380076,0.705574777901198,-1.85063346460873,0.216833246502763,-2.14023992063663,-9.463597759619E-4,-5.459609898401E-4,-2.073864369992E-4,438290.016879575,1.429E-12,964.672018428812,5.39362279958919,-2.4740299528475,-6.22457794110791
5460.0,856026.293751016,4486487.72079886,5042277.41194448,-4302559.8844608,1521877.80973336,5045570.4292327,-306.242638183641,-7377.53453940702,1920.09993123692,5.43249819739299,-1.92148759829259,-6.38878065073279,6759528.29571459,1.42146894779017,0.52486609824204,-0.0324551253564809,0.67620099461983,-1.89769036733213,0.215196674566725,-2.10411955734297,-8.800981224453E-4,-5.596459823131E-4,-1.965850983501E-4,437007.397121101,1.501E-12,970.089445578153,5.43249818988195,-1.92148787003028,-6.38878057686823
5520.0,433392.95331755,4426089.87777151,5145874.03072604,-4311143.43688899,1076102.91959163,5149190.74915784,20.2723975690579,-7476.00996067796,1532.55079327105,5.44731354641971,-1.35967632236738,-6.5247638774521,6759077.40068628,1.4258442170377,0.515904590255439,-0.00309568752189,0.648551275040403,-1.94069070368931,0.215996394423058,-2.06748868064774,-8.143074432233E-4,-5.7008241859E-4,-1.861123499816E-4,435459.07117748,1.5887E-12,976.220010050707,5.44731355044185,-1.35967661403496,-6.52476381503684
5580.0,8197.61254887273,4349360.3321167,5226005.24163316,-4300123.91618281,625435.270754569,5229330.57977671,346.951307913272,-7540.55730544933,1137.70560824885,5.43794785975073,-0.790946585082074,-6.63188344213369,6758721.57963492,1.43021948627666,0.508675701415463,0.026409382625865,0.622578615271279,-1.97964322477159,0.219032147530508,-2.03064916487138,-7.489748509675E-4,-5.771055422535E-4,-1.759624999917E-4,433646.256282323,1.6942E-12,983.082473036324,5.43794787680483,-0.790946899033408,-6.63188339271002
5640.0,-417776.010689093,4256644.53973176,5282285.62830337,-4269535.04866724,171921.574431534,5285604.45286656,672.34180451961,-7570.83287971019,737.312936084514,5.40436831160525,-0.217684306762044,-6.70959871097853,6758467.97941634,1.4345947555299,0.503274108534718,0.0562062563655742,0.598242676607591,-2.01455741084676,0.224069743884431,-1.9938756830728,-6.840650608515E-4,-5.80557955709E-4,-1.661230638385E-4,431572.47520342,1.8196E-12,990.670303034555,5.40436834357082,-0.217684645578294,-6.70959867656654
5700.0,-842733.966292167,4148343.32876023,5314435.53109671,-4219497.7040112,-282375.150190206,5317732.72417809,994.992283011769,-7566.63708401717,333.15063272464,5.34663062843408,0.357694003876006,-6.75747405241754,6758321.60270751,1.43897002478028,0.499798122256038,0.0864574832050776,0.575511654009253,-2.04544705274279,0.230848163621342,-1.95741771253468,-6.195251304545E-4,-5.802876440133E-4,-1.565754236246E-4,429243.622472755,1.9672E-12,998.944050637681,5.34663067762126,0.357693637455438,-6.7574740356006
5760.0,-1264879.10462405,4024911.41651546,5322282.61460685,-4150219.69433828,-735384.274125256,5325543.14112217,1313.4571605566,-7527.91612181278,-72.9805053395398,5.26488000912611,0.93274544472902,-6.77518080614455,6758285.14445665,1.44334529401923,0.498351232074375,0.117339959968228,0.554364482092139,-2.07233304201524,0.239086258809625,-1.92150275348599,-5.552900848918E-4,-5.76146995193E-4,-1.472956001085E-4,426668.005847807,2.1395E-12,1007.82776927943,5.26488007831835,0.932745047909414,-6.77518081015272
5820.0,-1682418.19950752,3886855.79824028,5305763.05006842,-4061995.25103493,-1185036.35177934,5308972.02510531,1626.30228834842,-7454.76345782436,-479.263239067037,5.15935270908147,1.50500494362468,-6.76250009292892,6758358.93770531,1.44772056326676,0.499044077165927,0.149042851391419,0.534793473083318,-2.09524553760904,0.248489017329711,-1.88634052078014,-4.912894500047E-4,-5.679931205968E-4,-1.382551354983E-4,423856.362596975,2.3386E-12,1017.21177440232,5.15935280156654,1.50500451368949,-6.76250012171296
5880.0,-2093569.15265531,3734734.00591725,5264922.30252648,-3955204.17356424,-1629271.99377352,5268065.05837491,1932.11047858892,-7347.42100825831,-883.870581075763,5.03037825274948,2.07199007213172,-6.71932654097347,6758541.01692361,1.45209583251429,0.501996919166388,0.181765342880282,0.516807497287005,-2.11422570951271,0.258753415745019,-1.85212781511205,-4.274547579617E-4,-5.556898093234E-4,-1.294221006827E-4,420821.849498539,2.5667E-12,1026.96197881214,5.03037837233597,2.07198960659812,-6.71932659926382
5940.0,-2496568.26755609,3569152.23337213,5199915.5094005,-3830310.64238054,-2066050.80190571,5202977.66199974,2229.48717844677,-7206.28001038762,-1284.97273812971,4.87838207418033,2.63120700317457,-6.64567279566014,6758827.28950693,1.45647110176467,0.507342735223368,0.215714068263299,0.500435843197323,-2.129327253074,0.26957394361594,-1.81905373861678,-3.637281171169E-4,-5.391114895575E-4,-1.2076225571E-4,417580.004637965,2.8258E-12,1036.93345378414,4.87838222519929,2.631206499961,-6.64567288900778
6000.0,-2889677.57812344,3390763.32199479,5111007.43431602,-3687861.68654083,-2493360.34467551,5113974.94885064,2517.06630714155,-7031.88148942882,-1680.74433985741,4.70388824977565,3.18015802916049,-6.54167448185912,6759211.78934753,1.46084637101505,0.515231103906776,0.251100015114145,0.485732934371525,-2.14061782847375,0.280647922170278,-1.78730488357731,-3.000719416578E-4,-5.181496093272E-4,-1.122404058756E-4,414148.678426834,3.118E-12,1046.9842993648,4.70388843706813,3.18015748675912,-6.54167461665795
6060.0,-3271192.21116032,3200264.60129389,4998571.9784895,-3528485.29629756,-2909225.14625238,5001431.23385854,2793.51624968261,-6824.91622232396,-2069.37196733725,4.50752191868553,3.71635082065049,-6.40759515328966,6759686.97406289,1.46522164025686,0.525833127842235,0.288134667034662,0.472784138011864,-2.14818051757574,0.291680761200209,-1.75707008698749,-2.364799039531E-4,-4.927218769003E-4,-1.038220061461E-4,410547.930983496,3.4452E-12,1056.9862765109,4.50752214757628,3.71635023830292,-6.40759533678015
6120.0,-3639447.75619151,2998395.57940435,4863091.23200847,-3352888.17207693,-3311715.65558622,4865829.08388368,3057.54597661492,-6586.22409558511,-2449.06196565466,4.29001100445375,4.23730932615991,-6.24383072850308,6760244.02240079,1.46959690949868,0.539347732179818,0.327025096363327,0.461712982604362,-2.15211531527203,0.302391296072735,-1.72854430550336,-1.729890877754E-4,-4.627847966729E-4,-9.5475071395E-5,406799.893284633,3.8093E-12,1066.83048753256,4.29001128070912,4.23730870403892,-6.24383096875536
6180.0,-3992827.61104865,2785935.48041243,4705154.04917265,-3161853.10373063,-3698957.1565276,4707757.89135564,3307.91123862491,-6316.79276816428,-2818.04849623868,4.05218695336156,4.74058596314655,-6.05091298825004,6760873.09194143,1.47397217874906,0.556009806975792,0.367967673070575,0.452690218747484,-2.15254059546986,0.312517319120531,-1.70193112785433,-1.096931647799E-4,-4.283498709076E-4,-8.71724455769E-5,402928.590387088,4.212E-12,1076.42840201394,4.05218728312731,4.74058530254784,-6.05091329412124
6240.0,-4329770.26709263,2563700.62827342,4525454.13538796,-2956235.97744125,-4069138.57522388,4527911.95917233,3543.42077236338,-6017.75557658929,-3174.60176386831,3.79498436373015,5.22377459434852,-5.82951187400211,6761563.50898862,1.47834744799087,0.576100837828948,0.411140007886521,0.445945322455654,-2.14959442437331,0.321821364482506,-1.67744341472289,-4.67561694915E-5,-3.895036720115E-4,-7.88944647215E-5,398959.726474429,4.655E-12,1085.70972209249,3.79498475344313,5.22377389789449,-5.82951225505991
6300.0,-4648776.49539735,2332541.68027677,4324787.63735481,-2736962.41160111,-4420521.13823646,4327088.08859855,3762.94245152531,-5690.38865130403,-3517.03634381232,3.51943955289086,5.6845237626596,-5.58043653612866,6762303.88016784,1.4827227172384,0.599962911117589,0.456690702107059,0.441781272932071,-2.14343554682342,0.330096721969044,-1.65530155584697,1.55739074852E-5,-3.464316764286E-4,-7.06320105918E-5,394920.433326305,5.1394E-12,1094.6187873137,3.51944000915769,5.68452303451204,-5.58043700253111
6360.0,-4948416.39520937,2093340.71424457,4104050.23273118,-2505024.02676695,-4751446.83385857,4106182.66634685,3965.40932446059,-5336.10724190056,-3843.71953750136,3.22668824689359,6.12054977392695,-5.30463527351645,6763082.13502672,1.48709798648878,0.628017311572263,0.504726434283918,0.440593761778515,-2.13424385446281,0.337173545217143,-1.63572888234673,7.69529576082E-5,-2.994452389751E-4,-6.23898877492E-5,390838.985781699,5.6659E-12,1103.11081206341,3.22668877633047,6.1205490200004,-5.30463583583762
6420.0,-5227336.26548336,1847008.1766507,3864233.7194026,-2261474.35793059,-5060346.62959438,3866188.25097734,4149.82549310288,-4956.46126743914,-4153.07969778497,2.91796264405908,6.52964943304629,-5.00319462914059,6763885.5265966,1.49147325573631,0.660789377068607,0.555295872851519,0.442896435502328,-2.12222016211834,0.342924787407672,-1.61894389261876,1.369318366485E-4,-2.490103351714E-4,-5.41903617274E-5,386744.48957709,6.2345E-12,1111.14867913505,2.91796325308843,6.52964866120794,-5.00319529813313
6480.0,-5484265.26201013,1594479.69868499,3606422.10752206,-2007424.41960749,-5345748.39993216,3608189.66178605,4315.27180281178,-4553.1301122301,-4443.61448178638,2.59458807984297,6.90971248778447,-4.67733792352082,6764700.62855751,1.49584852498669,0.698941856525429,0.608369853322402,0.449354357420398,-2.10758516791038,0.347271554685906,-1.60514916273118,1.949530978345E-4,-1.957757022846E-4,-4.60765696991E-5,382666.548327332,6.8439E-12,1118.70054963012,2.5945887744456,6.90971170802167,-4.67733870980909
6540.0,-5718021.80324734,1336712.78719395,3331787.21953338,-1744037.93571191,-5606284.51953468,3333359.57540276,4460.9113235797,-4127.91667762376,-4713.89900403619,2.25797941605974,7.25873404017898,-4.32842341637755,6765513.37078549,1.50022379422564,0.743319707051298,0.663817174125434,0.460828575199989,-2.09057753970474,0.350187330846795,-1.59451712695485,2.503562825202E-4,-1.405968290147E-4,-3.81153661383E-5,378634.917205725,7.492E-12,1125.73826735396,2.25798020148483,7.25873326471193,-4.3284243300793
6600.0,-5927519.68744964,1074683.39805178,3041583.80478194,-1472526.24722631,-5840699.07705582,3042953.63671085,4585.99460599126,-3682.74068117411,-4962.59386911004,1.90963712493722,7.57482728320003,-3.95794211473698,6766309.1489886,1.50459906347603,0.795009903752286,0.721375201428323,0.47843533472559,-2.07145113227676,0.351700422757023,-1.58717332309005,3.023948826997E-4,-8.45510488611E-5,-3.03990174685E-5,374679.151015285,8.175E-12,1132.23640553973,1.9096380053768,7.57482652651461,-3.95794316501749
6660.0,-6111773.88279206,809382.397396282,2737144.1766492,-1194142.91181818,-6047854.66363484,2738305.09203475,4689.86468881285,-3219.6311736227,-5188.453058077,1.55114288436942,7.85623687849361,-3.56751504571501,6767073.03026266,1.50897433272355,0.855419874405538,0.780614170588379,0.503623544088121,-2.0504713682634,0.351893938008599,-1.58317816879395,3.50267746173E-4,-2.89380916058E-5,-2.30450524793E-5,370828.253899616,8.8877E-12,1138.17176731862,1.55114386260922,7.8562361572694,-3.56751624028406
6720.0,-6269905.9489129,541811.919273104,2419872.38212461,-910178.011350495,-6226738.68786416,2420818.95451911,4771.96182047625,-2740.71822980751,-5390.33162683145,1.18415439175996,8.10135311861385,-3.15888964486105,6767790.05784976,1.51334960196536,0.926376080095618,0.840893603364615,0.538272030572507,-2.0279107906267,0.350902671951646,-1.58250880980692,3.931665329775E-4,2.47397184646E-5,-1.61935669173E-5,367110.33709687,9.6232E-12,1143.52315944109,1.18415546882351,8.10135245152447,-3.15889098943137
6780.0,-6401149.045929,272981.627345553,2091237.91693565,-621952.186054277,-6376469.16627999,2091965.71483335,4831.82783779561,-2248.22376841666,-5567.19315040234,0.810399072780844,8.30872676142415,-2.73393482680878,6768445.63926642,1.51772487121575,1.01023614372808,0.901308805894216,0.584800047895619,-2.00404371462454,0.348906483218435,-1.58504297319626,4.303386801826E-4,7.48223654585E-5,-1.00014343154E-5,363552.290129419,1.03729E-11,1148.27127831335,0.8104002475887,8.30872616879232,-2.73393632454217
6840.0,-6504852.48397698,3904.89158347629,1752769.00409036,-330810.418093084,-6496299.93608727,1753274.61507126,4869.11012710593,-1744.45147042928,-5718.11682152003,0.431666417701008,8.47708415571089,-2.29463432961162,6769025.98637176,1.52210014046327,1.10998474524547,0.960625863798304,0.646261341133283,-1.9791398044292,0.346120088598442,-1.59054696534175,4.611622635865E-4,1.195642244596E-4,-4.6332362734E-6,360179.469882352,1.11262E-11,1152.39852138718,0.431667686770607,8.47708365900885,-2.2946359805863
6900.0,-6580485.76497729,-264405.104978168,1406045.45985871,-38115.5921511087,-6585625.23584566,1406326.50989174,4883.56508052622,-1231.77579568443,-5842.30409056853,0.0497988058803356,8.60534206740201,-1.84307805120813,6769518.56696528,1.52647540971366,1.2292272399791,1.01720773896645,0.726335842959006,-1.95345633586617,0.342779686320566,-1.59866987343329,4.852256095469E-4,1.572311155193E-4,-2.492893022E-7,357015.411331664,1.18715E-11,1155.88886211645,0.049800163094997,8.60534168859908,-1.84307985194736
