time,gePosition_m_X,gePosition_m_Y,gePosition_m_Z,eiPosition_m_X,eiPosition_m_Y,eiPosition_m_Z,eiVelocity_m_s_X,eiVelocity_m_s_Y,eiVelocity_m_s_Z,eiAccel_m_s2_X,eiAccel_m_s2_Y,eiAccel_m_s2_Z,semiMajorAxis_m,gast_rad,eulerAngle_rad_Roll,eulerAngle_rad_Pitch,eulerAngle_rad_Yaw,eulerAngleWrtEi_rad_Roll,eulerAngleWrtEi_rad_Pitch,eulerAngleWrtEi_rad_Yaw,bodyAngularRateWrtEi_rad_s_Roll,bodyAngularRateWrtEi_rad_s_Pitch,bodyAngularRateWrtEi_rad_s_Yaw,altitudeMsl_m,airDensity_kg_m3,ambientTemperature_dgK,eiGravitation_m_s2_X,eiGravitation_m_s2_Y,eiGravitation_m_s2_Z
0.0,-1436381.46529,4185811.71036,5163944.67155,-4315967.74,960356.2,5167269.53,129.091037,-7491.513855,1452.515654,5.45458058414,-1.21387660795,-6.5491737391,6759053.07579,1.02334780893,3.400115586061947E-16,-0.2024581932313422,-1.522968439585956E-16,-2.4715939055627265,-0.03718896475792745,-1.428993135204757,0.0,-0.0011222300308754611,0.0,434989.540812,1.61790350067E-12,978.31253865,5.4545805924,-1.21387690587,-6.54917367881
60.0,-1794959.99455,3943151.68504,5239238.39583,-4298410.85826,509021.505678,5242566.81045,455.963946889,-7547.27724747,1056.38097207,5.43713965721,-0.644045714437,-6.65043709479,6758732.94454,1.02772307802,-4.010830948211971E-5,-0.2037469663072568,-1.9311727786989224E-4,-2.4720882986443935,0.016571282752130267,-1.3863030343249614,-1.8755107418420575E-6,-0.0011659328972118597,-3.4035863575339466E-6,433110.362827,1.72881367557E-12,985.412396291,5.43713967909,-0.6440460354,-6.65043704791
120.0,-2147590.36738,3685729.23603,5290614.55452,-4261287.54983,55369.4292787,5293931.37431,781.062754047,-7568.72051957,655.053630853,5.39544966702,-0.0702749456473,-6.72218257776,6758512.12277,1.03209834711,-1.7648101202971187E-4,-0.20762340677438207,-5.938099794179706E-4,-2.470282020313258,0.07223533550136958,-1.3417348001879785,-3.974313281364934E-6,-0.0012100327312846832,-7.075879850005899E-6,430971.619627,1.86034556582E-12,993.232103913,5.39544970451,-0.0702752923004,-6.72218254647
180.0,-2492788.9527,3414636.35781,5317814.95338,-4204747.87443,-398535.183786,5321105.06538,1102.93448249,-7555.68004169,250.317992205,5.32959157389,0.505004785121,-6.76398528206,6758393.58769,1.0364736162,-4.3371021634370225E-4,-0.2141183256159179,-0.00120731466949159,-2.465870683001017,0.1297033548427974,-1.2949579089758074,-6.326680402982078E-6,-0.0012548719162461758,-1.1037393401648461E-5,428579.639012,2.01482233957E-12,1001.72133777,5.32959162946,0.505004410001,-6.76398526911
240.0,-2829091.78249,3131015.00396,5320689.09137,-4129028.86889,-850622.064831,5323937.48822,1420.13380728,-7508.13896681,-156.019389504,5.23973990617,1.07933267453,-6.77553117175,6758378.61387,1.04084888529,-8.372573765271266E-4,-0.22328337173035465,-0.0020371844196543113,-2.458485989929455,0.18885909055010383,-1.245554489672407,-8.969509282296404E-6,-0.001300791497434512,-1.5312140968143763E-5,425943.217812,2.19454832113E-12,1010.79306958,5.23973998275,1.07933226815,-6.77553118055
300.0,-3155060.49716,2836052.72779,5299195.28989,-4034453.91802,-1298824.3787,5302387.13718,1731.22874794,-7426.22882224,-562.136566365,5.12616535262,1.65022500302,-6.75662197629,6758466.96652,1.04522415437,-0.001413695231435076,-0.23519096206070736,-0.0030849553140409164,-2.4476744260190877,0.2495602745789534,-1.1930008288148477,-1.1946743998547202E-5,-0.0013481293888472769,-1.9928353631863772E-5,423073.646519,2.40174378341E-12,1020.32814316,5.12616545366,1.65022456269,-6.756622011
360.0,-3469288.31054,2530978.15509,5253401.40551,-3921431.77956,-1741087.66261,5256522.10877,2034.80650459,-7310.23063875,-966.203285019,4.98923687335,2.21518355026,-6.7071798496,6758657.07082,1.04959942346,-0.002190991238234864,-0.24993407883263516,-0.00434978703007426,-2.4328704445878495,0.31162503413053694,-1.1366426110064543,-1.530985963061575E-5,-0.0013972175740120812,-2.4919216845526967E-5,419984.696873,2.6385181585E-12,1030.18611678,4.98923700282,2.2151830736,-6.70717991516
420.0,-3770405.97224,2217056.29647,5183485.10976,-3790455.25545,-2175378.81692,5186520.38072,2329.47939945,-7160.575539,-1366.38833597,4.82942307142,2.77170513298,-6.62725135851,6758946.11918,1.05397469255,-0.0031988528936786964,-0.26762586218237644,-0.005828060414026751,-2.4133627342032686,0.37481274004129006,-1.0756625116903737,-1.9118397121726686E-5,-0.0014483779026595116,-3.0323626217761752E-5,416692.568984,2.90688155252E-12,1040.21947056,4.82942323381,2.77170461804,-6.62725146072
480.0,-4057087.70257,1895583.7096,5089733.72153,-3642099.50475,-2599695.11345,5092669.64343,2613.89087592,-6977.84473195,-1760.86711514,4.64729274296,3.31729177816,-6.51701054473,6759330.09545,1.05834996164,-0.0044691612021533446,-0.2883989007135695,-0.007512910579228853,-2.388252409163158,0.43879704994954316,-1.009039017699365,-2.3440529460173298E-5,-0.001501916018082125,-3.618694930150292E-5,413215.796201,3.20877489167E-12,1050.28712981,4.64729294325,3.31729122361,-6.5170106902
540.0,-4328057.07452,1567883.52483,4972543.5811,-3477019.99597,-3012073.1852,4975366.67275,2886.72150823,-6762.76889065,-2147.82934011,4.44351470854,3.84946102825,-6.37676103524,6759803.71728,1.06272523073,-0.006036527289955592,-0.3124040924377864,-0.009393666972348442,-2.3564032267712274,0.5031280621519062,-0.9354966020692942,-2.8353628400134928E-5,-0.0015581128753578831,-4.256176752937261E-5,409575.107933,3.54608932446E-12,1060.26407346,4.4435149522,3.8494604336,-6.37676123145
600.0,-4582092.81716,1235300.34872,4832418.95828,-3295950.09957,-3410597.96005,4835116.23655,3146.69498515,-6516.22691748,-2525.48686884,4.21885716813,4.36575601194,-6.20693739389,6760360.31898,1.06710049981,-0.007939020136869578,-0.33980891394198603,-0.011455160709073516,-2.316387548348064,0.5671795736591727,-0.8534509798795018,-3.394478641879587E-5,-0.0016172132421104959,-4.9508553957317444E-5,405793.252626,3.92064953653E-12,1070.04581969,4.21885746104,4.36575537765,-6.20693764912
660.0,-4818034.51631,899195.060274,4669970.48947,-3099698.32266,-3793411.50268,4672529.53004,3392.58404821,-6239.24411583,-2892.08158482,3.97418687607,4.86375516078,-6.0081060469,6760991.71451,1.0714757689,-0.010219132874600474,-0.3707948973859259,-0.013676841924963688,-2.2664404811413674,0.6300768859276472,-0.7609618727788641,-4.031123032932356E-5,-0.0016794105331480725,-5.7096217020889795E-5,401894.784789,4.33414803137E-12,1079.5484843,3.97418722444,4.86375448851,-6.00810637022
720.0,-5034788.18844,560939.513995,4485913.14041,-2889145.18891,-4158721.72933,4488322.13634,3623.21638147,-5932.98978601,-3245.8933341,3.7104683826,5.3410817361,-5.78096613813,6761688.08829,1.07585103799,-0.012925084940486931,-0.4055540757185162,-0.016031621905384305,-2.204453392158852,0.6906017410525904,-0.6557244406897649,-4.756054062459867E-5,-0.0017448273499581866,-6.540240680143612E-5,397905.821149,4.78802995836E-12,1088.70606683,3.71046879292,5.3410810289,-5.78096653926
780.0,-5231331.70427,221911.162008,4281063.69131,-2665239.76637,-4504810.96112,4283311.50926,3837.48046086,-5598.77424571,-3585.24791818,3.42876344956,5.79541356514,-5.52635056861,6762437.96005,1.08022630708,-0.01611260422056409,-0.44428412084851254,-0.018484309458747867,-2.128073424136936,0.7470769878421236,-0.5351659504658416,-5.5810564724577454E-5,-0.0018134912209593955,-7.451343821991619E-5,393853.771506,5.28333595027E-12,1097.46663189,3.42876392841,5.79541282764,-5.52635105785
840.0,-5406720.03666,-116512.3931,4056337.74067,-2428995.84524,-4830044.28079,4058413.9745,4034.33137217,-5238.04524709,-3908.52515701,3.1302305567,6.22449350104,-5.24522727938,6763228.25804,1.08460157617,-0.01984740897294799,-0.4871818754403459,-0.020989436264243676,-2.035029147345435,0.7972507572319546,-0.39676772148303446,-6.518888491179664E-5,-0.0018853053301829293,-8.452363689657514E-5,389767.049774,5.82051338869E-12,1105.78854971,3.13023111065,6.2244927397,-5.24522786735
900.0,-5560090.30453,-452958.903319,3812746.22324,-2181487.76756,-5132877.65491,3814641.24461,4212.7965957,-4852.38373248,-4214.16703228,2.81612422809,6.62614108185,-4.93870060153,6764044.51712,1.08897684525,-0.024208735372965706,-0.5344349781594008,-0.02348813980971706,-1.923844091201022,0.8382364941057118,-0.23877395807620141,-7.583167734977661E-5,-0.0019600145575706576,-9.55338630402994E-5,385674.770097,6.39920837842E-12,1113.63745626,2.8161248634,6.6261403051,-4.93870129897
960.0,-5690666.58064,-786067.025115,3551391.4373,-1923845.91128,-5411865.7796,3553096.44311,4371.98173529,-4443.49884654,-4500.68590468,2.48779377548,6.99826567803,-4.60801229027,6764871.1962,1.09335211434,-0.029294473819258537,-0.5862113208448624,-0.02590355381745214,-1.7950167189455377,0.8666191540768304,-0.06136585037414827,-8.788178508262203E-5,-0.002037168014484367,-1.0764892654408692E-4,381606.43211,7.01804725306E-12,1120.98395778,2.48779449791,6.99826489645,-4.60801310771
1020.0,-5797764.42675,-1114491.89809,3273462.57779,-1657251.83344,-5665669.6024,3274969.63409,4511.07614329,-4013.22211405,-4766.67277112,2.14668101604,7.33888113696,-4.25454173564,6765692.09042,1.09772738343,-0.035228865996650316,-0.6426461739506082,-0.028133764099010902,-1.652345850363786,0.8788638187670074,0.13202029366129606,-1.0148583719717661E-4,-0.002116080506458887,-1.2097358902146333E-4,377591.598695,7.67442378372E-12,1127.80221109,2.14668183053,7.33888036336,-4.25454268298
1080.0,-5880795.11577,-1436910.73192,2980230.77462,-1382933.0807,-5893063.46764,2981532.85673,4629.35836798,-3563.50070062,-5010.80549676,1.79431658372,7.64612163228,-3.87980483218,6766490.7992,1.10210265252,-0.04217444017736525,-0.7038269942063063,-0.030040657306128423,-1.5034160555094955,0.8720524674961709,0.3342166748971042,-1.1679029394289174E-4,-0.002195796990811057,-1.356068801854061E-4,373659.569053,8.36430383586E-12,1134.06905226,1.79431749403,7.64612088175,-3.87980591826
1140.0,-5939269.4982,-1752028.37622,2673043.64029,-1102157.68067,-6092941.82849,2674134.66896,4726.20133119,-3096.38969937,-5231.85692826,1.43231459806,7.91825818357,-3.48545109126,6767251.20624,1.10647792161,-0.05035128162016345,-0.7697761986592665,-0.03143156381420383,-1.3581782012605634,0.844682020207956,0.5357546078868005,-1.3393640094917986E-4,-0.0022750659906850003,-1.516345678239052E-4,369839.049941,9.08206527498E-12,1139.76354283,1.43231560648,7.9182574733,-3.48545232333
1200.0,-5972801.46959,-2058582.8431,2353319.33745,-816228.3332,-6264325.46629,2354194.21067,4801.07713498,-2614.04342254,-5428.70277449,1.06236564129,8.15371518463,-3.07325875681,6767957.9305,1.11085319069,-0.06006966991703375,-0.8404325428473346,-0.03202765255948745,-1.2259845246605163,0.7970460325890633,0.7278432323619598,-1.530542079515245E-4,-0.002352329746368597,-1.6911984360903088E-4,366157.828318,9.82039133726E-12,1144.86674357,1.06236674824,8.15371453375,-3.07326014
1260.0,-5981110.99695,-2355350.7483,2022540.18384,-526476.326847,-6406367.15795,2023194.80412,4853.56139917,-2118.70571796,-5600.32913293,0.686228172563,8.35108628671,-2.64512788791,6768596.71816,1.11522845978,-0.07178859781601955,-0.915632117283986,-0.03140654365002799,-1.1130752973565599,0.7309666864544054,0.904899882389449,-1.7425604905157676E-4,-0.0024257400394607715,-1.8809263959729025E-4,362642.449411,1.0570235936E-11,1149.36155312,0.686229376281,8.35108571586,-2.64512942466
1320.0,-5964026.66532,-2641152.63434,1682245.81937,-234255.2114,-6518356.73443,1682677.11635,4883.33704289,-1612.69936539,-5745.83954306,0.305718636134,8.50914910436,-2.20307154301,6769154.7601,1.11960372887,-0.08622820102328714,-0.9950902047171188,-0.028891080377430545,-1.0220083580943295,0.6491412236255154,1.0651415582968982,-1.9763016779297918E-4,-0.002493208289475895,-2.085384579255411E-4,359317.905179,1.13208760728E-11,1153.23242557,0.305719932385,8.50914863517,-2.20307323257
1380.0,-5921487.70972,-2914858.13782,1334025.96728,59065.7380447,-6599725.47732,1334231.91536,4890.19744125,-1098.41463519,-5864.4614597,-0.0772994277056,8.62687839565,-1.74920530526,6769620.93431,1.12397899796,-0.10460516696629497,-1.0783848812876735,-0.023315155903847744,-0.9526471310375864,0.5545348783507761,1.2096226691300243,-2.2323544084742856E-4,-0.002552495817542851,-2.303881088219768E-4,356207.338973,1.20600830977E-11,1156.46550137,-0.0772980458292,8.62687805005,-1.74920714322
1440.0,-5853545.50295,-3175390.96352,979512.826641,352108.226351,-6650049.80631,979492.457531,4874.04890613,-578.29710637,-5955.55205476,-0.460926981097,8.70345755041,-1.28573541242,6769985.98419,1.12835426705,-0.1291836350351072,-1.1649410139722396,-0.012474039971754124,-0.9035199330760454,0.4500320479698253,1.3409069634659185,-2.5109831212463126E-4,-0.002601344539172704,-2.5351017177597694E-4,353331.77276,1.27744357775E-11,1159.04943918,-0.460925523271,8.70345734982,-1.28573739041
1500.0,-5760364.47405,-3421733.62893,620373.139008,643491.771246,-6669054.21603,620126.549115,4834.91245526,-54.8348473988,-6018.60327064,-0.843241580362,8.73828834609,-0.814945715358,6770242.64939,1.13272953613,-0.16477533389827353,-1.254004361890123,0.008374584121059753,-0.8728333851079085,0.3383190918254982,1.4620911890145842,-2.8121298989956285E-4,-0.0026376400629385542,-2.7770813558033417E-4,350709.863343,1.34497478623E-11,1160.97595393,-0.843240058998,8.7382883105,-0.814947820844
1560.0,-5642222.43781,-3652931.94478,258299.976111,931840.620383,-6656613.42724,257828.328574,4772.92484462,469.45493654,-6053.24606016,-1.22230983045,8.73099897408,-0.339183620966,6770385.76519,1.13710480522,-0.22384145206143208,-1.3445544518163,0.051611410902173034,-0.85902831168327,0.22189441871188967,1.5762914464490083,-3.135456020159058E-4,-0.002659589767291784,-3.0272385169207214E-4,348357.693605,1.40715943981E-11,1162.2400634,-1.22230826051,8.7309991211,-0.339185837313
1620.0,-5499510.31967,-3868099.199,-104995.700959,1215790.70773,-6612753.72349,-105690.179586,4688.33884432,992.039685349,-6059.25375505,-1.59620013592,8.68145030598,0.139154881263,6770412.34088,1.14148007431,-0.35152979652892535,-1.434824424803037,0.16229172513914128,-0.8610159417891488,0.10312417535450226,1.6864514936032466,-3.48042350308661E-4,-0.0026658906454902834,-3.2824807056348274E-4,346288.603934,1.46259118882E-11,1162.84014157,-1.59619853458,8.6814506499,0.139152574561
1680.0,-5332731.26571,-4066420.01378,-467793.657183,1493996.60344,-6537653.45065,-468707.685634,4581.52274169,1510.38558657,-6036.54451065,-1.96299570311,8.58974029446,0.617641024879,6770321.61915,1.1458553434,-0.8756186376231231,-1.51671546824069,0.6680884653250917,-0.8782415598710993,-0.015697690984824417,1.7953182428997767,-3.846408821101387E-4,-0.0026558587306462107,-3.539375316304E-4,344513.067756,1.50996357539E-11,1162.77784462,-1.96299408929,8.58974084544,0.617638651722
1740.0,-5142499.13207,-4247153.8472,-828373.11682,1765138.41029,-6431642.66352,-829502.373217,4452.95905835,2021.97188178,-5985.18278018,-2.32080772224,8.45620633376,1.09382978462,6770115.11074,1.15023061249,-2.60559250000103,-1.5039611352669473,2.378367425333404,-0.9106642848638857,-0.1322990408647677,1.9054792929568554,-4.232833340100115E-4,-0.0026294959586787726,-3.794366646715415E-4,343038.613788,1.54813304332E-11,1162.05796874,-2.32080611596,8.45620709708,1.09382737162
1800.0,-4929536.35413,-4409638.11384,-1185021.55505,2027928.5595,-6295201.91126,-1186360.69633,4303.24247402,2524.30524839,-5905.37978106,-2.66778860084,8.28142538225,1.56527691465,6769796.59365,1.15460588158,-2.9777038814358865,-1.421122565333253,2.7292486008554095,-0.9586868579867762,-0.24439078876311998,2.0193966820816462,-4.639290550926308E-4,-0.002587481287921909,-4.044008741675204E-4,341869.796247,1.57617638577E-11,1160.6882947,-2.66778702255,8.2814263579,1.56527449025
1860.0,-4694671.2016,-4553290.90113,-1536043.4868,2281118.45807,-6128960.16093,-1537586.17343,4133.07695937,3014.93411763,-5797.4929301,-3.00214505792,8.06621169321,2.02955623379,6769372.06567,1.15898115066,-3.0897045857379335,-1.335436579563934,2.818337394260071,-1.0230295909721656,-0.3496404978856407,2.1393871075095823,-5.065650451578715E-4,-0.00253108790335748,-4.2851799761785226E-4,341008.213052,1.59343798359E-11,1158.67946832,-3.00214352774,8.06621287567,2.02955382731
1920.0,-4438834.43258,-4677613.26202,-1879769.19072,2523504.94083,-5933691.86767,-1881508.11648,3943.27213321,3491.46278298,-5662.02424216,-3.32215084669,7.81161210183,2.48427682921,6768849.64258,1.16335641975,3.133213523973616,-1.252058207985811,2.8538508235788114,-1.1045146433944646,-0.4456656671940322,2.2674987309551455,-5.512126348833225E-4,-0.002462042771785498,-4.515249903109007E-4,340452.570961,1.59956291837E-11,1156.04495667,-3.32214938368,7.81161348014,2.48427446973
1980.0,-4163055.36577,-4782191.06847,-2214563.30641,2753936.48122,-5710313.20816,-2216490.23324,3734.73887341,3951.56515417,-5499.61770766,-3.62615886907,7.51889894521,2.9270998412,6768239.40077,1.16773168884,3.090496760805377,-1.1723201072508895,2.8697985242081634,-1.2037144812464347,-0.5300665064145867,2.405234769282333,-5.97929705499123E-4,-0.0023823543196202306,-4.7321801955952454E-4,340198.795693,1.59451325713E-11,1152.80110797,-3.6261574905,7.51890050337,2.92709755657
2040.0,-3868457.39637,-4866696.41449,-2538833.24473,2971319.11753,-5459877.50302,-2540939.04231,3508.48422444,4392.99801989,-5311.05568308,-3.91261247661,7.1895608085,3.35575453478,6767553.16985,1.17210695793,3.0550667142076775,-1.0969514986954547,2.87625832308245,-1.3204437151278399,-0.6005311134626182,2.5531042853269748,-6.468085293985439E-4,-0.0022941363249798763,-4.934555562865578E-4,340240.184226,1.57856634816E-11,1148.96732923,-3.91261119739,7.18956252608,3.35575235058
2100.0,-3556252.98625,-4930888.56231,-2851037.35332,3174622.05365,-5183569.86125,-2853312.04326,3265.60565519,4813.61369658,-5097.25434413,-4.18005580618,6.82529136031,3.76805344091,6766804.28582,1.17648222702,3.022739184715264,-1.0264345954482013,2.8772173259176848,-1.4531722326352,-0.6550458769241542,2.710080830134195,-6.979698837689943E-4,-0.002199451779467038,-5.121553017338706E-4,340567.59564,1.55229563278E-11,1144.56638132,-4.1800546384,6.8252932133,3.76805137965
2160.0,-3227738.16396,-4974614.42943,-3149692.78296,3362882.89746,-4882701.08687,-3152125.58725,3007.2847282,5211.37195703,-4859.25826195,-4.42714305273,6.42797655318,4.16190643439,6766007.31696,1.1808574961,2.9914459824717965,-0.96108970245403,2.874537152067097,-1.598610069807785,-0.6922081149789454,2.8732222753931036,-7.515543392994228E-4,-0.0021001920651158015,-5.292865896287474E-4,341169.676033,1.51653603895E-11,1139.62477685,-4.42714200536,6.42797851498,4.16190451485
2220.0,-2884286.57314,-4997808.61888,-3433383.00411,3535212.50327,-4558700.89374,-3435962.39762,2734.78024599,5584.35114804,-4598.2341684,-4.65264661751,5.999680432,4.53533367667,6765177.77282,1.18523276519,2.9600110181811234,-0.9011118831974588,2.869180100908906,-1.7518319550933408,-0.7115579825280353,3.037822349188184,-8.077115786343957E-4,-0.001997997491313676,-5.448601777338933E-4,342033.112212,1.47233727319E-11,1134.17325318,-4.65264569625,5.99968247455,4.53533191345
2280.0,-2527343.11157,-5000492.99875,-3700764.92705,3690799.38906,-4213110.47962,-3703478.69382,2449.42094347,5930.75841987,-4315.46398003,-4.8554640803,5.5426297452,4.88647737417,6764331.80249,1.18960803428,2.927686876721854,-0.8465960474283197,2.861675415596058,-1.9071325536298929,-0.7137709165168477,-3.0848982396450744,-8.665883607912692E-4,-0.001894217536375768,-5.589171824844107E-4,343142.908107,1.4209091199E-11,1128.24727981,-4.85546328765,5.54263183999,4.88647577748
2340.0,-2158417.20472,-4982775.84104,-3950575.58342,3828913.70346,-3847574.51482,-3953410.87623,2152.5977988,6248.93900061,-4012.33715369,-5.03462393578,5.05919752438,5.21361228749,6763485.88322,1.19398330337,2.893953221321308,-0.797558063570216,2.8523243373743603,-2.0593099363812555,-0.7005762990664056,-2.9337499327785515,-9.283154473787282E-4,-0.0017899042465873752,-5.715184976255224E-4,344482.677294,1.36356312099E-11,1121.88754469,-5.03462327121,5.05919964354,5.2136108632
2400.0,-1779075.76048,-4944850.53339,-4181638.33126,3948910.72191,-3463832.60445,-4184581.73433,1845.75603887,6537.38445874,-3690.34245131,-5.18929002418,4.55188581176,5.51515489491,6762656.49785,1.19835857246,2.858420071317909,-0.7539532014855743,2.8413009319618237,-2.2047168562940516,-0.6744159444462583,-2.795620242803866,-9.929935496315106E-4,-0.0016858301910831915,-5.827355513677314E-4,346034.944743,1.301654763E-11,1115.14034581,-5.18928948443,4.55188792894,5.51515364472
2460.0,-1390935.85223,-4886993.88107,-4392868.55072,4050233.85583,-3063710.28646,-4395906.14507,1530.3869197,6794.73990938,-3351.05919825,-5.31876459608,4.02330777012,5.78967109282,6761859.79932,1.20273384154,2.820778187773807,-0.7156917722628607,2.82870645768933,-2.341620497987398,-0.6380020792378511,-2.672359381811697,-0.0010606782081640737,-0.0015825224758168604,-5.926428227780172E-4,347781.451002,1.23652963802E-11,1108.05778846,-5.31876417556,4.0233098612,5.78967001468
2520.0,-995657.179116,-4809564.01977,-4583278.80261,4132417.16406,-2649109.62969,-4586396.23377,1208.01936453,7019.81013634,-2996.14812612,-5.42248999374,3.4761694851,6.0358823331,6761111.26466,1.20710911063,2.780772677865758,-0.682651637183317,2.814601137439425,-2.469927418662444,-0.5939487650749175,-2.564227379879768,-0.0011313635107521162,-0.0014803056814845178,-6.013122177687352E-4,349703.452477,1.16947612012E-11,1100.69765734,-5.42248968502,3.4761715288,6.03588142171
2580.0,-594934.351288,-4712997.96311,-4751983.42797,4195087.36033,-2221999.49744,-4755165.97554,880.21154131,7211.56462202,-2627.3418953,-5.50004900539,2.9132518267,6.2526701618,6760425.347,1.21148437972,2.7381890066122256,-0.6546873825119207,2.7990240759248635,-2.5906279293592394,-0.5445569152502049,-2.4704356326748456,-0.0012049646959534995,-0.0013793484245302032,-6.088092084973791E-4,351782.012133,1.10168609638E-11,1093.12280072,-5.50004879965,2.91325380489,6.25266940918
2640.0,-190489.047545,-4597808.81101,-4898202.57197,4237965.31543,-1784405.54165,-4901435.22083,548.54245539,7369.1415002,-2246.4353919,-5.55116403814,2.33739273928,6.43907922419,6759815.1417,1.21585964881,2.6928461594413124,-0.6316361330669518,2.782006454499932,-2.705265159253289,-0.49173912104585127,-2.389662126522559,-0.0012812999795899034,-0.0012797100016495701,-6.151905466658653E-4,353998.275852,1.03422440131E-11,1085.3998515,-5.55116392565,2.33739463718,6.4390786203
2700.0,215937.909842,-4464582.64668,-5021265.62157,4260867.05716,-1338399.99137,-5024533.1342,214.603621771,7491.85046684,-1855.27588615,-5.57569533204,1.75147025875,6.59431890993,6759292.08709,1.2202349179,2.6445942472150596,-0.6133201361712226,2.763580519832982,-2.8155569660792548,-0.4370317194529591,-2.3204115775865066,-0.0013600723663320976,-0.0011813849734559371,-6.205033392884091E-4,356333.730432,9.68006992914E-12,1077.59714977,-5.57569530261,1.7514720649,6.59431844331
2760.0,622594.520698,-4313975.15068,-5120614.05078,4263704.27412,-886091.296708,-5123901.04039,-120.009133143,7579.17469818,-1455.75312682,-5.57363847476,1.15838642025,6.71776389067,6758865.72168,1.22461018698,2.5933150886458116,-0.5995463861078378,2.7437855647658114,-2.923172298262529,-0.38164536377949426,-2.2612186097305473,-0.0014408527470710175,-0.0010843444627193569,-6.247852924965679E-4,358770.439893,9.03787668433E-12,1069.78186395,-5.5736385181,1.15838812635,6.71776354896
2820.0,1027725.57347,-4146707.95982,-5195803.67149,4246484.33255,-429613.686006,-5199094.67554,-453.703705855,7630.77183045,-1049.78942966,-5.54512145665,0.561052054828,6.80895382239,6758543.51503,1.22898545607,2.538924941823768,-0.5901036951854379,2.7226713876609554,-3.029617313459634,-0.3265231778080324,-2.210738891371194,-0.0015230661860421105,-9.885733969579235E-4,-6.28065957360497E-4,361291.25715,8.42153195613E-12,1062.0165514,-5.5451215627,0.561053655491,6.80895359286
2880.0,1429580.57586,-3963564.79813,-5246506.29097,4209309.81654,28883.3087777,-5249785.84477,-784.899563979,7646.47405056,-639.329802989,-5.4904014314,-0.0376276710414,6.86759243501,6758330.78027,1.23336072516,2.4813788919049053,-0.5847577691224186,2.700299319161436,-3.1361859990572496,-0.2723913161341402,-2.1677743969368715,-0.001605983883228083,-8.941029910990747E-4,-6.30368830914558E-4,363880.008306,7.83526877358E-12,1054.35570706,-5.49040159057,-0.0376261786867,6.86759230502
2940.0,1826421.61446,-3765387.40523,-5272510.77918,4152377.60324,487245.306502,-5275763.48912,-1112.03539296,7626.28733603,-226.332143099,-5.40986123914,-0.63476719611,6.89354612602,6758230.6648,1.23773599425,2.4206765768032166,-0.5832450197116141,2.676740697488582,3.039241539252287,-0.2197966132850073,-2.131266084967359,-0.001688723719198332,-8.010375613045034E-4,-6.317141615559259E-4,366521.646881,7.28180385259E-12,1046.84307745,-5.40986144248,-0.634765812789,6.89354608326
3000.0,2216531.1098,-3553071.28674,-5273723.55096,4075977.48588,943323.460777,-5276934.16713,-1433.576526,7570.38986867,187.242471214,-5.30400564063,-1.22751419141,6.88684204819,6758244.20345,1.24211126334,2.356869005389248,-0.5852660371614868,2.6520726124391887,2.929459249466636,-0.16913123520253998,-2.1002746435367636,-0.0017702623651335582,-7.095744333195975E-4,-6.321222741306865E-4,369202.375392,6.76252913099E-12,1039.51048162,-5.30400587994,-1.22751291611,6.88684208102
3060.0,2598219.43316,-3327561.31041,-5250168.4701,3980490.35778,1394984.72432,-5253321.9578,-1748.02213637,7479.12963713,599.439351497,-5.17345713921,-1.81306297526,6.8476655787,6758370.41096,1.24648653242,2.2900662171642256,-0.5904798171333919,2.6263708142349462,2.8170417814308037,-0.12064683555848399,-2.0739611479562425,-0.0018494614592826115,-6.200154313702765E-4,-6.31617168305337E-4,371909.732007,6.27775473008E-12,1032.37849372,-5.17345740707,-1.81306180561,6.84766567623
3120.0,2969832.35244,-3089847.17172,-5201986.18432,3866385.97281,1840121.94547,-5205067.79429,-2053.91216322,7353.02124191,1008.31959819,-5.01895125537,-2.38866766184,6.77635701395,6758606.38738,1.25086180151,2.2204454431229337,-0.5984999411059627,2.5996999041262696,2.701594110743477,-0.07446201798503961,-2.05157400274414,-0.0019251091363512226,-5.327683922186651E-4,-6.302300656797089E-4,374632.640612,5.82697123468E-12,1025.4587471,-5.01895154518,-2.38866659443,6.77635716615
3180.0,3329758.27466,-2840958.75271,-5129432.90311,3734220.2991,2276663.74956,-5132428.24003,-2349.83393518,7192.74192421,1411.96927445,-4.84133117209,-2.95165483815,6.67340737025,6758947.41475,1.2552370706,2.1482592461787826,-0.6088938763706715,2.5721012900322076,2.582923403916851,-0.030567535157805217,-2.032445052369187,-0.001995976193584869,-4.483375116963842E-4,-6.280025084410321E-4,377361.423623,5.40909763258E-12,1018.7571269,-4.84133147799,-2.95165386881,6.67340756802
3240.0,3676435.25413,-2581961.39827,-5032878.63367,3584632.4854,2702584.15962,-5035773.72267,-2634.42845393,6999.12685568,1808.50830037,-4.64154176855,-3.49943547499,6.53945327358,6759387.03319,1.25961233969,2.07384283913738,-0.621186329289288,2.5435798847055398,2.4610198714864175,0.01116625958164893,-2.0159951775265763,-0.002060883554783278,-3.6730219836689427E-4,-6.249885745654913E-4,380087.778158,5.02269001067E-12,1012.27697605,-4.64154208543,-3.49943459904,6.53945350869
3300.0,4008357.73765,-2313951.13438,-4912804.89303,3418341.46142,3115911.91365,-4915586.24396,-2906.39630452,6773.16374371,2196.09901604,-4.42062317245,-4.02951578608,6.37527105808,6759917.0976,1.26398760878,1.997619422105366,-0.6348671159922776,2.5140910869030035,2.3360307367393314,0.050975764064491315,-2.001747517822189,-0.0021187748987040395,-2.9028545356298696E-4,-6.212558019997359E-4,382804.717601,4.6661002764E-12,1006.02165004,-4.42062349591,-4.02951499848,6.3752713232
3360.0,4324083.02128,-2038049.8518,-4769801.91787,3236142.19541,3514739.43931,-4772456.5869,-3164.50316948,6515.98682168,2572.95437241,-4.17970404549,-4.53950685925,6.18177031512,6760527.82972,1.26836287786,1.9201020173725116,-0.6494033293622316,2.4835301115941646,2.20822717612405,0.08918167363834008,-1.9893446512229533,-0.002168786047454459,-2.1791442114421657E-4,-6.168845276872394E-4,385506.481974,4.33758689396E-12,999.996124342,-4.17970437174,-4.53950615476,6.18177060374
3420.0,4622237.39644,-1755400.47773,-4604565.39474,3038901.63298,3897231.45156,-4607081.04321,-3407.58493833,6228.87029845,2937.34572644,-3.91999484298,-5.02713306348,5.95998719806,6761207.88916,1.27273814695,1.8418900340976039,-0.6642547799093997,2.4517260650223935,2.0779654608733504,0.12615712590522607,-1.9785649155731577,-0.002210301736955758,-1.5077729248080972E-4,-6.119655461043874E-4,388188.421595,4.03538691187E-12,994.207680473,-3.91999516882,-5.0271324368,5.95998750448
3480.0,4901521.96674,-1467162.15577,-4417892.73504,2827554.34147,4261633.14263,-4420257.68521,-3634.55241678,5913.22133575,3287.61023424,-3.64278124423,-5.49023942877,5.71107776569,6761944.49084,1.27711341604,1.7636588326008764,-0.6788909481529705,2.418443112941,1.9456448190315037,0.1622881752279309,-1.9693329379912972,-0.002242991288663006,-8.938177135840657E-5,-6.065962464035298E-4,390846.859149,3.75776041212E-12,988.66587639,-3.642781567,-5.4902388746,5.71107808492
3540.0,5160718.1188,-1174505.4523,-4210678.91844,2603097.88337,4606277.93801,-4212882.2059,-3844.39564976,5570.57260525,3622.15785099,-3.34941784627,-5.92679833895,5.43631154214,6762723.59152,1.28148868513,1.6861410332473328,-0.6928072251453785,2.383390520724475,1.8116654349086776,0.19793039554005212,-1.9617204796094294,-0.002266817560817804,-3.412042460812712E-5,-6.008756423191545E-4,393478.935436,3.50301704145E-12,983.382054499,-3.34941816374,-5.92679785208,5.43631186988
3600.0,5398692.63222,-878607.605142,-3983911.92797,2366587.94158,4929594.79387,-3985943.35056,-4036.18787308,5202.574455,3939.4779517,-3.04132208066,-6.33491592316,5.13706531058,6763530.15768,1.28586395422,1.6100992893156494,-0.7055382238035511,2.3462422159612246,1.6763903667715858,0.23336663385035228,-1.955935652614898,-0.0022820178493626374,1.47526854919218E-5,-5.948988990893707E-4,396082.4437,3.26953164544E-12,978.368609391,-3.04132239105,-6.33491549853,5.13706564314
3660.0,5614402.41341,-580647.828878,-3738667.79914,2119133.2185,5230115.01311,-3740517.96215,-4209.08910321,4810.9866932,4238.14558323,-2.71996819296,-6.7128384603,4.81481699023,6764348.51207,1.2902392233,1.5362916183067503,-0.7166664930306836,2.3066649770045182,1.5401150050406716,0.2687709737570435,-1.9523008109429658,-0.002289060093476061,5.713151609277934E-5,-5.887520345507779E-4,398655.656784,3.05575352828E-12,973.638177192,-2.71996849486,-6.71283809306,4.81481732447
3720.0,5806898.83762,-281802.690426,-3476105.30521,1861890.13056,5506478.55682,-3477765.6627,-4362.34936178,4397.66998315,4516.82734483,-2.38688105281,-7.05895894064,4.47113932174,6765162.74041,1.29461449239,1.4654318880927126,-0.7258259671919552,2.264352696822582,1.4030471210300033,0.3041828718452217,-1.9512212399077926,-0.0022885816185127567,9.305342658899762E-5,-5.825074082599651E-4,401197.15055,2.86021198828E-12,969.202848273,-2.3868813451,-7.05895862615,4.47113965504
3780.0,5975331.6821,16758.4314269,-3197460.30143,1596057.32068,5757439.82745,-3198923.19348,-4495.31151792,3964.57684115,4774.28687594,-2.04362956343,-7.37182370875,4.10769304249,6765957.12756,1.29898976148,1.3981493074897244,-0.7327006793234145,2.219062811074409,1.2652997078562642,0.3394936294070078,-1.9531476447134868,-0.0022813197902849898,1.226823551194557E-4,-5.762204355813275E-4,403705.626306,2.68151957057E-12,965.073458112,-2.04362984529,-7.37182344263,4.10769337265
3840.00000001,6118952.63326,313877.787859,-2904039.75286,1322870.01239,5981872.90009,-2905298.43863,-4607.41371869,3513.74224003,5009.38991236,-1.69181951223,-7.65013890531,3.7262192846,6766716.58533,1.30336503057,1.3349514415793178,-0.7370203149877392,2.170650255829102,1.126897826447366,0.3744454747317188,-1.9585352561330942,-0.002268044012846159,1.462833486715417E-4,-5.699277276425572E-4,406179.734538,2.51837377188E-12,961.258978879,-1.69181978305,-7.65013868345,3.72621960982
3900.00000001,6237118.35067,608413.587491,-2597215.47315,1043594.23126,6178776.17857,-2598264.15964,-4698.19137276,3047.27384242,5221.10885906,-1.33308582777,-7.89277629168,3.32853106058,6767427.03496,1.30774029966,1.2761951873262218,-0.7385547760256579,2.119094399636841,0.987799630700151,0.4086421092177306,-1.9678014511392863,-0.0022494967676383796,1.6419280035926513E-4,-5.636466285902645E-4,408617.9022,2.36955755616E-12,957.766014623,-1.33308608716,-7.89277611025,3.3285313794
3960.00000001,6329293.073,899244.192878,-2278417.605,759520.921672,6347276.45571,-2279251.47131,-4767.27865383,2567.3419142,5408.52682541,-0.96908434724,-8.09877801731,2.91650387523,6768075.71534,1.31211556874,1.2220693341943711,-0.7371098966505357,2.0645152277401397,0.8479306634515217,0.4415689047763675,-1.9812827427730553,-0.0022263485996533855,1.7678868910034101E-4,-5.573759522428388E-4,411018.166106,2.23393885629E-12,954.598392214,-0.969084594963,-8.09877787275,2.91650418647
4020.00000001,6395050.75421,1185272.16915,-1949127.87578,471959.988359,6486632.36055,-1949743.09296,-4814.40950076,2076.16899274,5570.84107567,-0.60148331286,-8.26735997979,2.4920656703,6768651.40067,1.31649083783,1.1725909662658447,-0.7325258435434473,2.007176455898317,0.7072292715303367,0.4726209912672017,-1.9991915055601246,-0.0021991689594733545,1.84464396163539E-4,-5.510976375631709E-4,413378.015516,2.11046915798E-12,951.756835085,-0.601483548815,-8.26735986882,2.49206597305
4080.00000001,6434076.72228,1465428.16862,-1610872.66474,182234.293275,6596237.1806,-1611266.41098,-4839.41810621,1576.0194007,5707.36586395,-0.231954874948,-8.39791360216,2.05718642424,6769144.52701,1.32086610692,1.1276162541352308,-0.7246787462734409,1.9474749836071694,0.5656993756389916,0.5011379230444705,-2.0215734050106278,-0.0021684122959987327,1.8760857204055742E-4,-5.447790426845144E-4,415694.247666,1.99818123424E-12,949.238704989,-0.231955099143,-8.39791352177,2.0571867178
4140.00000001,6446168.8577,1738674.63672,-1265215.91873,-108326.361671,6675621.05266,-1265386.39002,-4842.2389025,1069.18870029,5817.53464395,0.137833130052,-8.49000605998,1.61386776423,6769547.24107,1.32524137601,1.0868643552267456,-0.7134850483405318,1.885917933821422,0.4234647102193643,0.5264439945443606,-2.0482683694914017,-0.0021344171292420736,1.8659231769521415E-4,-5.383756542845672E-4,417962.840488,1.89618609468E-12,947.037796601,0.13783291752,-8.49000600742,1.61386804809
4200.00000001,6431238.29316,2004009.3271,-913751.954008,-398391.2365,6724452.52129,-913698.370158,-4822.9060676,557.993175475,5900.90166359,0.506224929135,-8.54337917261,1.16413289918,6769853.39471,1.3296166451,1.0499514311532177,-0.6989072378002408,1.823090229449618,0.2808162330285823,0.5478931285040337,-2.078880693922724,-0.002097415055511391,1.8176382728543041E-4,-5.318340667595311E-4,420178.846954,1.80366921866E-12,945.144169919,0.506224728105,-8.54337914538,1.16413317297
4260.00000001,6389309.63933,2260468.61601,-558098.180172,-686634.611792,6742539.46895,-557820.786189,-4781.55258286,44.7594128061,5957.14297055,0.871584000355,-8.55794728271,0.710017068915,6770058.51227,1.33399191418,1.0164304871635914,-0.6809592115347949,1.7596169399698998,0.13824254111616485,0.5649163267638165,-2.112766390940891,-0.0020575465622922977,1.7344973011652407E-4,-5.250951507262509E-4,422336.315308,1.71988614374E-12,943.544005037,0.871583810616,-8.55794727851,0.71001733238
4320.00000001,6320520.74418,2507130.60901,-199887.780548,-971741.67817,6729829.42517,-199387.843491,-4718.40887602,-468.185968777,5986.05686203,1.23229972013,-8.53379446086,0.253558565396,6770159.75553,1.33836718327,0.9858321332796077,-0.6597096056607357,1.6961252138494902,-0.003566713603684178,0.5770680761337859,-2.149046493047284,-0.0020148808754515794,1.61961715402112E-4,-5.180973612048E-4,424428.238732,1.64415783464E-12,942.219506846,1.23229954144,-8.53379447765,0.253558818399
4380.00000001,6225121.99478,2743118.03471,159237.618588,-1252414.33269,6686409.26488,159957.817304,-4633.80107913,-978.526406937,5987.56381136,1.58679357412,-8.47117129622,-0.203209742438,6770155.90311,1.34274245236,0.9577016364542353,-0.6352818995138906,1.6332103203139736,-0.14375077932030586,0.5840664485637909,-2.18665202855637,-0.0019694375657850188,1.4760662864581433E-4,-5.107801272800173E-4,426446.536986,1.5759236857E-12,941.156211247,1.5867934062,-8.47117133215,-0.203209499953
4440.00000001,6103475.171,2967600.92207,517635.259452,-1527376.8597,6612504.30733,518572.436206,-4528.14892351,-1483.96528352,5961.70589779,1.93352506764,-8.37049140047,-0.658268523203,6770047.35005,1.34711772145,0.9316287243602669,-0.6078507876072774,1.5714092174964178,-0.28134013591209484,0.5858208778577852,-2.224399510052912,-0.0019212081306593642,1.3069807646792143E-4,-5.030872271092577E-4,428382.071253,1.51478978351E-12,940.351152723,1.93352491018,-8.37049145388,-0.658268291203
4500.00000001,5956051.86118,3179799.05826,873668.515593,-1795381.47494,6508476.82823,874818.401088,-4401.96328616,-1982.23559371,5908.64575639,2.27099744872,-8.2323276096,-1.10961988809,6769836.12241,1.35149299054,0.907268212883478,-0.577635005046806,1.511183447392145,-0.4153410931317615,0.5824425701928062,-2.261086946210754,-0.0018701761138014317,1.115676818366776E-4,-4.949699872959166E-4,430224.692077,1.46040579653E-12,939.799001634,2.27099730141,-8.23232767904,-1.10961966647
4560.00000001,5783431.45022,3378984.22491,1225714.07769,-2055213.71216,6374823.99881,1227071.43775,-4255.84339692,-2471.10937534,5828.66505721,2.5977632925,-8.05740776158,-1.55529518481,6769525.89298,1.35586825962,0.8843512226137115,-0.5448873253285891,1.4529114721982712,-0.5448254962666563,0.5742353385608038,-2.295593458973157,-0.001816334622487126,9.057439646344416E-5,-4.863901041600609E-4,431963.31909,1.41245024618E-12,939.49026654,2.59776315502,-8.05740784577,-1.55529497343
4620.00000001,5586298.69187,3564482.21059,1572169.03421,-2305697.63218,6212175.26703,1573727.69475,-4090.47371546,-2948.4068681,5722.16251972,2.9124299133,-7.84660988948,-1.99336268844,6769121.97987,1.36024352871,0.8626881224822855,-0.5098827488494078,1.396889209234433,-0.6690069321309753,0.5616684860959448,-2.3269641374293175,-0.0017597003647708295,6.811069085322338E-5,-4.7732187258147903E-4,433586.050207,1.37063080051E-12,939.411335601,2.91242978531,-7.8466099873,-1.99336248712
4680.00000001,5365440.87825,3735674.59814,1911457.8194,-2545700.8351,6021289.19832,1913210.69537,-3906.6204911,-3412.00536354,5589.65147082,3.21366450058,-7.6009567075,-2.42193510285,6768631.31119,1.3646187978,0.8421651630637561,-0.47290597067822926,1.3433367216031336,-0.7872897696278033,0.5453367557756278,-2.354466621999585,-0.001700323580881831,4.460496708062875E-5,-4.6775362604292156E-4,435080.297414,1.33468013408E-12,939.543923266,3.2136643818,-7.60095681801,-2.4219349114
4740.00000001,5121744.62186,3892000.32621,2242039.00144,-2774139.25692,5803049.79568,2243978.12974,-3705.12802625,-3859.84770204,5431.75696218,3.50019884013,-7.32160936408,-2.83917672129,6768062.34408,1.36899406689,0.8227370177315885,-0.43423911534389964,1.2924087983547248,-0.8992861464889441,0.5259141079530966,-2.377614579410605,-0.0016382935554017082,2.05200776010308E-5,-4.576882506854169E-4,436432.945897,1.30433522022E-12,939.862024738,3.5001987303,-7.32160948648,-2.83917653952
4800.00000001,4856192.26734,4032957.02577,2562411.88534,-2989981.73391,5558462.32163,2564528.46135,-3486.9146723,-4289.95037512,5249.21247236,3.77083349268,-7.00986055683,-3.24331007966,6767424.93511,1.37336933598,0.8044172682365958,-0.39415052837083037,1.2442073772348776,-1.0048045478368055,0.5041078517590479,-2.3961616536284773,-0.00157373975937812,-3.6516811443367747E-6,-4.471427243493621E-4,437630.533269,1.27936152792E-12,940.335429664,3.77083339155,-7.00986069046,-3.2433099074
4860.00000001,4569857.95173,4158102.13391,2871122.90646,-3192254.31949,5288648.6467,2873407.32416,-3252.96859316,-4700.4112002,5042.85622832,4.02444135559,-6.66712720667,-3.63262197577,6766730.16788,1.37774460506,0.7872684427794668,-0.3528851841169809,1.1987942302803818,-1.1038188745727682,0.480617987174996,-2.4100746440751473,-0.001506829121417,-2.7396423136395083E-5,-4.3614675339907343E-4,438659.445673,1.26012073844E-12,941.017201461,4.02444126292,-6.66712735105,-3.6326218128
4920.00000001,4263903.33307,4267053.78895,3166771.79304,-3380044.34094,4994842.15073,3169213.68849,-3004.34333362,-5089.41654879,4813.62718615,4.25997061049,-6.29494293965,-4.00546880652,6765990.15058,1.38211987415,0.7713927132295737,-0.3106570504610358,1.1562028710661696,-1.1964281416181437,0.456104435834285,-2.4194958547050986,-0.0014377601581385372,-5.018840144697602E-5,-4.247406378395359E-4,439506.127638,1.24705825706E-12,941.969151656,4.25997052606,-6.29494309452,-4.0054686526
4980.00000001,3939573.00743,4359491.51226,3448017.47865,-3552504.18521,4678382.20413,3450605.77661,-2742.15322765,-5455.24812371,4562.56071126,4.47644713578,-5.89495060686,-4.36028126849,6765217.79965,1.38649514324,0.7569239089870079,-0.26764356325754496,1.1164491403017607,-1.2828152730903641,0.4311629244796187,-2.424702892405526,-0.0013667551974752288,-7.150083098292784E-5,-4.129726389322857E-4,440157.302503,1.24688127866E-12,943.241131664,4.47644705902,-5.89495077298,-4.36028112263
5040.00000001,3598189.63406,4435156.68327,3713583.74745,-3708854.80516,4340708.25574,3716306.71095,-2467.56867465,-5796.28929292,4290.78399274,4.67297651082,-5.46889500066,-4.69556853501,6764426.62426,1.39087041233,0.7440211279570159,-0.22398223804023454,1.079540279473414,-1.3632105876658163,0.4063089735306687,-2.4260713090265456,-0.001294051308845022,-9.081641296462176E-5,-4.008959426890308E-4,440600.200034,1.24809242877E-12,944.87851597,4.67297644199,-5.46889517748,-4.69556839772
5100.00000001,3241148.78719,4493852.81473,3962264.59728,-3848388.93895,3983353.55376,3965109.87998,-2181.81130432,-6111.0309932,3999.51121895,4.84874575502,-5.01861579798,-5.00992206956,6763630.52141,1.39524568142,0.732864144717892,-0.1797692528303625,1.0454827392883739,-1.4378626285342606,0.3819688910420175,-2.42404292660488,-0.0012198898185797613,-1.0763569261976574E-4,-3.8856518726857814E-4,440822.787532,1.25685269727E-12,946.924953897,4.84874569407,-5.01861598584,-5.00992194069
5160.00000001,2869913.55254,4535445.63508,4192929.3068,-3970474.03632,3607938.52489,4195884.00782,-1886.14904238,-6398.07721632,3690.03853223,5.00302489853,-4.54604068337,-5.30201918808,6762843.58225,1.39962095051,0.7236504258421507,-0.13505994843028712,1.0142888227627784,-1.5070171055929995,0.35847629481348264,-2.4191003844070664,-0.0011445108983939582,-1.214879952667483E-4,-3.760342343746383E-4,440814.00034,1.27378073902E-12,949.42405502,5.00302484553,-4.54604088284,-5.30201906759
5220.00000001,2486008.88572,4559862.98473,4404527.19382,-4074554.88603,3216163.83679,4407577.91493,-1581.8910859,-6656.15008463,3363.73877527,5.13516843154,-4.05317851586,-5.57062644423,6762079.90401,1.40399621959,0.7165936961417076,-0.08987104828295908,0.9859825800956431,-1.5709032768015474,0.3360729480275835,-2.411747506907533,-0.0010681473785067563,-1.3193861392642254E-4,-3.633535268238473E-4,440563.967318,1.29963046623E-12,952.420537008,5.13516838664,-4.05317872773,-5.57062633216
5280.00000001,2091015.74962,4567094.53281,4596092.05267,-4160155.9393,2809803.16822,4599224.95753,-1270.38279575,-6884.0945149,3022.05604025,5.24461660266,-3.5421124229,-5.81460281277,6761353.39418,1.40837148868,0.7119239786184666,-0.04418443633796735,0.9606053647430182,-1.6297265126636313,0.31491286209100633,-2.40249456184761,-9.91022146830817E-4,-1.3859597932404152E-4,-3.505682253387224E-4,440064.226756,1.33532277991E-12,955.960815437,5.24461656618,-3.54211264819,-5.81460270931
5340.00000001,1686565.0481,4557191.32049,4766746.25915,-4226883.32459,2390695.7119,4769947.13446,-953.000517646,-7080.88246418,2666.500035,5.3308964922,-3.01499277121,-6.03290258174,6760677.55283,1.41274675777,0.7098890663301474,0.002047631466104972,0.9382214588986589,-1.6836656228365605,0.2950688291611394,-2.391847388021121,-9.133473459341152E-4,-1.4111681193575284E-4,-3.377167020335569E-4,439307.928341,1.37194168721E-12,960.092752344,5.33089646481,-3.01499300945,-6.03290248794
5400.00000001,1274331.37385,4530265.1375,4915704.53275,-4274426.54992,1960738.43531,4918958.85095,-631.146347408,-7245.61675099,2298.6402872,5.39362278133,-2.47403006566,-6.22457784237,6760065.22071,1.41712202686,0.7107573196870747,0.04889584009325379,0.9189240497823811,-1.7328736753433989,0.2765407366467927,-2.3802993175415326,-8.353325409591802E-4,-1.392184512319742E-4,-3.2483087888088606E-4,438290.017287,1.43034725904E-12,964.864096349,5.39362276343,-2.47403032,-6.22457775806
5460.00000001,856026.588062,4486487.73858,5042277.34709,-4302559.88982,1521878.125,5045570.33051,-306.242860543,-7377.53445344,1920.10021385,5.43249817685,-1.92148797719,-6.3887804856,6759528.29171,1.42149729595,0.7148218101640186,0.09644559532606178,0.9028419004595046,-1.7774811907872972,0.25926521574435,-2.3683250994258103,-7.571886027712426E-4,-1.3268294276970607E-4,-3.119355989339347E-4,437007.397511,1.50267954776E-12,970.319067743,5.43249816933,-1.92148824945,-6.3887804116
5520.00000001,433393.249613,4426089.90706,5145873.9816,-4311143.45562,1076103.23932,5149190.66767,20.272174451,-7476.00989779,1532.55108524,5.44731354172,-1.35967671217,-6.52476373101,6759077.39597,1.42587256503,0.7224060832220504,0.14478726133389713,0.890147217050338,-1.8176007173656055,0.24312628039591191,-2.3563764299981833,-6.791394753153725E-4,-1.2136858128271414E-4,-2.9904972604112546E-4,435459.071711,1.59077520719E-12,976.492689449,5.44731354575,-1.35967700445,-6.52476366847
5580.00000001,8197.90965307,4349360.37286,5226005.20856,-4300123.9483,625435.593551,5229330.51606,346.951084995,-7540.55726626,1137.70590842,5.43794787112,-0.79094698443,-6.63188331528,6758721.57442,1.43024783412,0.7338714840592971,0.19400445718103845,0.8810648236590205,-1.8533322598701025,0.227966670452885,-2.344878326200685,-6.014361769043009E-4,-1.0522316228027643E-4,-2.861877430301127E-4,433646.25712,1.69669021816E-12,983.402995395,5.43794788821,-0.790947299103,-6.63188326574
5640.00000001,-417775.714075,4256644.59185,5282285.61155,-4269535.09413,171921.898855,5285604.40738,672.341582771,-7570.83286474,737.313243262,5.40436833922,-0.21768471421,-6.70959860456,6758467.97393,1.43462310321,0.7496262038793475,0.24416010126550103,0.8758829090254616,-1.884769118279346,0.21359970561541305,-2.3342259397563985,-5.243730101628163E-4,-8.430002196230107E-5,-2.733619556764E-4,431572.476506,1.82264638172E-12,991.042215675,5.40436837127,-0.217685053875,-6.70959857006
5700.00000001,-842733.67141,4148343.39212,5314435.53087,-4219497.76272,-282374.825606,5317732.6973,994.992063412,-7566.63709371,333.150945654,5.34663067243,0.357693589855,-6.75747396726,6758321.59716,1.4389983723,0.7701360721975137,0.29527978068152566,0.8749654222044996,-1.9120039069891095,0.19982147447851495,-2.324781373985608,-4.4830521333486916E-4,-5.87770509843759E-5,-2.6058527745470214E-4,429243.624397,1.97095342472E-12,999.369185638,5.34663072175,0.357693222444,-6.75747395039
5760.00000001,-1264878.8127,4024911.49097,5322282.63103,-4150219.76613,-735383.950872,5325543.13316,1313.45694409,-7527.91615652,-72.9801879572,5.26488006959,0.932745025747,-6.775180743,6758285.13908,1.44337364139,0.7959368884524433,0.34733199760300126,0.8787659175158564,-1.9351346703239098,0.18642317731031394,-2.316870086001534,-3.7366669860406683E-4,-2.897808286875474E-5,-2.478745005425264E-4,426668.008546,2.14392276122E-12,1008.30588253,5.26488013898,0.932744627782,-6.77518074702
5820.00000001,-1682417.91185,3886855.88358,5305763.08321,-4061995.3357,-1185036.03137,5308972.03629,1626.30207601,-7454.7635178,-479.262918574,5.15935278603,1.50500452138,-6.76250005249,6758358.9327,1.44774891047,0.8276475839249633,0.4002049062176454,0.8878421103876414,-1.9542711041296434,0.1732033965479795,-2.3107764933151778,-3.0098598240316113E-4,4.6047514220442555E-6,-2.3525389899656276E-4,423856.366217,2.34379658697E-12,1017.74037061,5.1593528788,1.50500409013,-6.76250008135
5880.00000001,-2093568.87054,3734734.1019,5264922.35236,-3955204.27082,-1629271.67772,5268065.08885,1932.11027137,-7347.42109364,-883.870258855,5.03037834613,2.07198964839,-6.71932652384,6758541.01251,1.45212417956,0.8659825266478997,0.4536793664595281,0.9028693992737871,-1.9695409332415805,0.15997998176108397,-2.3067384816506857,-2.3089780238489153E-4,4.1290123088208076E-5,-2.2275892241043328E-4,420821.854181,2.57271253189E-12,1027.53635292,5.03037846609,2.07198918138,-6.71932658231
5940.00000001,-2496567.99228,3569152.33972,5199915.57585,-3830310.75189,-2066050.49174,5202977.71182,2229.48697732,-7206.28012121,-1284.9724156,4.87838218385,2.63120657977,-6.64567280235,6758827.28587,1.45649944865,0.9117595081688706,0.5073986149845826,0.9246498154842875,-1.9810964740096195,0.14660110973291002,-2.3049406492296,-1.6414733949160376E-4,8.019161332800974E-5,-2.1043962553030557E-4,417580.010517,2.83270820427E-12,1037.54692652,4.87838233537,2.63120607492,-6.64567289599
6000.00000001,-2889677.31097,3390763.43838,5111007.51721,-3687861.80791,-2493360.04192,5113975.018,2517.06611309,-7031.88162562,-1680.74401845,4.70388837553,3.18015760799,-6.54167451277,6759211.78666,1.46087471774,0.9658969497197226,0.5608357725713978,0.9541098509972802,-1.9891213230457516,0.13295493148444973,-2.305506339133384,-1.0158360732400979E-4,1.2021145043916113E-4,-1.983633561020833E-4,414148.685628,3.12574973654E-12,1047.6285833,4.70388856345,3.1801570638,-6.54167464801
6060.00000001,-3271191.95335,3200264.7274,4998572.07759,-3528485.42907,-2909224.85242,5001431.32222,2793.51606366,-6824.91638369,-2069.37164853,4.50752206022,3.71635040364,-6.40759520872,6759686.97249,1.46524998683,1.0293892234075144,0.6132620571882978,0.9922759716379933,-1.993836958809784,0.11897708015742246,-2.308488806244439,-4.4138698596334884E-5,1.6004917566094347E-4,-1.8661612023724411E-4,410547.939622,3.45375590053E-12,1057.65189682,4.50752228987,3.71634981937,-6.40759539281
6120.00000001,-3639447.50898,2998395.71485,4863091.347,-3352888.31575,-3311715.37219,4865829.19126,3057.54579955,-6586.22428182,-2449.06165092,4.29001116137,4.23730891526,-6.24383080862,6760244.02208,1.46962525591,1.1032428007767485,0.6637213408941749,1.0402104488881527,-1.9955088298937287,0.10465523908896057,-2.313862222412548,7.209513639877834E-6,1.9823039120196777E-4,-1.7530200841419115E-4,406799.903465,3.81859054042E-12,1067.50719646,4.29001143854,4.23730829111,-6.24383104965
6180.00000001,-3992827.37569,2785935.62474,4705154.17967,-3161853.25774,-3698956.88504,4707758.01745,3307.91107144,-6316.79297884,-2818.04818706,4.05218712518,4.74058556031,-6.05091309309,6760873.09299,1.474000525,1.1883500800517708,0.71102091337981,1.0988843014261467,-1.994451261439037,0.09003002288453371,-2.3215135971512386,5.14917077142893E-5,2.3315931912139764E-4,-1.645401503009036E-4,402928.602203,4.22200731303E-12,1077.1055541,4.05218745601,4.7405848976,-6.05091339993
6240.00000001,-4329770.04476,2563700.78106,4525454.28092,-2956236.14116,-4069138.3171,4527912.10362,3543.42061593,-6017.75581117,-3174.60146173,3.79498454988,5.22377420152,-5.82951200348,6761563.51149,1.47837579409,1.2852781084335465,0.7537537298543804,1.168964529961709,-1.9910302927627102,0.07519166544590457,-2.331237002552727,8.781603994777942E-5,2.6319590932621456E-4,-1.544589184461539E-4,398959.740007,4.66554382482E-12,1086.376602,3.79498494081,5.22377350292,-5.82951238571
6300.00000001,-4648776.28727,2332541.84101,4324787.79739,-2736962.58436,-4420520.89488,4327088.25092,3762.94230668,-5690.38890912,-3517.03605019,3.51943975272,5.68452338175,-5.58043669003,6762303.88418,1.48275106318,1.393968021788824,0.7903719064570907,1.2505114688672732,-1.9856634434308185,0.06027246409330194,-2.3427316395154656,1.1544566214950793E-4,2.867538013048342E-4,-1.4518752823758352E-4,394920.448644,5.15037140957E-12,1095.26489658,3.51944021035,5.68452265145,-5.5804371578
6360.00000001,-4948416.20242,2093340.88239,4104050.40665,-2505024.20785,-4751446.60665,4106182.846,3965.40919201,-5336.10752219,-3843.71925385,3.22668845968,6.12054940679,-5.3046354515,6763082.1406,1.48712633227,1.5133922873760939,0.8193291655920533,1.3426333790159053,-1.9788154783566996,0.04543556017953464,-2.3556051601529076,1.338754276928652E-4,3.0241029300672606E-4,-1.36845730999606E-4,390839.002939,5.67711096697E-12,1103.72612502,3.22668899062,6.12054865076,-5.30463601538
6420.00000001,-5227336.0891,1847008.35166,3864233.90653,-2261474.54657,-5060346.41986,3866188.44731,4149.8253738,-4956.46156931,-4153.07942554,2.91796286902,6.52964908148,-5.00319483075,6763885.53372,1.49150160135,1.641298184537798,0.8392926800013272,1.4432267933682486,-1.9709895720367128,0.030861324472010402,-2.369383201148401,1.4289626432939244E-4,3.090149244179035E-4,-1.2953284297555301E-4,386744.508615,6.24562637961E-12,1111.72387565,2.91796347966,6.52964830763,-5.00319550147
6480.00000001,-5484265.10307,1594479.87996,3606422.30711,-2007424.61499,-5345748.20893,3608189.87408,4315.27169736,-4553.1304347,-4443.61422234,2.59458831612,6.90971215351,-4.67733814818,6764700.63722,1.49587687044,1.7742256354813883,0.8493882154110151,1.5489908385509545,-1.9627138590255697,0.016733174348925493,-2.3835252964630307,1.4263589847423214E-4,3.0578093358341816E-4,-1.2331772278770928E-4,382666.569274,6.85480729946E-12,1119.22722752,2.59458901242,6.90971137187,-4.67733893635
6540.00000002,-5718021.66271,1336712.97419,3331787.43077,-1744038.13699,-5606284.34847,3333359.80284,4460.91123264,-4127.9170196,-4713.89875876,2.25797966277,7.25873372484,-4.32842366341,6765513.38094,1.50025213953,1.9079291072920972,0.8494016166616224,1.6558453926390457,-1.9545241128874122,0.0032248838007660056,-2.3974463494232734,1.335676366216926E-4,2.923449316938859E-4,-1.1823134533955085E-4,378634.940074,7.50235386293E-12,1126.20913236,2.25798044995,7.25873294767,-4.32842457911
6600.00000002,-5927519.56626,1074683.59007,3041584.02678,-1472526.45351,-5840698.92707,3042953.87841,4585.99453015,-3682.74104147,-4962.59363932,1.90963738114,7.57482698835,-3.95794238338,6766309.16056,1.50462740862,2.0381214954818203,0.8398510899099084,1.7596711470864865,-1.9469440395436008,-0.009508767616462976,-2.4105418754179704,1.1648429971069882E-4,2.687849167054908E-4,-1.1426325229025237E-4,374679.175805,8.18457744149E-12,1132.64543344,1.90963826337,7.57482623017,-3.95794343572
6660.00000002,-6111773.78179,809382.593797,2737144.40848,-1194143.12219,-6047854.53578,2738305.34703,4689.86462861,-3219.63155097,-5188.45284504,1.55114314911,7.8562366056,-3.56751533511,6767073.04315,1.50900267771,2.161236808493477,0.8218934101603019,1.857068557636173,-1.9404651868051501,-0.02133680864086795,-2.4222145358422393,9.244079722382796E-5,2.355941471974891E-4,-1.1136245748786993E-4,370828.280595,8.8962334762E-12,1138.51433107,1.55114412912,7.85623588311,-3.56751653177
6720.00000002,-6269905.8689,541812.119403,2419872.62279,-910178.224851,-6226738.58313,2420819.22176,4771.9617764,-2740.71862283,-5390.33143177,1.18415466406,8.10135286906,-3.15888995408,6767790.07194,1.51337794679,2.274894446828131,0.7971056312685648,1.945818638902437,-1.935528593527186,-0.032152068557674066,-2.4318992689886536,6.267440260272701E-5,1.9361637343579636E-4,-1.0944254424251678E-4,367110.365671,9.63040405761E-12,1143.79611371,1.18415574284,8.10135220093,-3.15889130071
6780.00000002,-6401148.98762,272981.830448,2091238.16539,-621952.401705,-6376469.08556,2091965.99321,4831.82781026,-2248.22417569,-5567.19297446,0.810399351646,8.30872653649,-2.73393515485,6768445.6544,1.51775321588,2.3779558641817724,0.7672313059003383,2.024936534924167,-1.9325099808916686,-0.04186698447312829,-2.439084641829353,2.8515014943761385E-5,1.439542202129695E-4,-1.0838995335846695E-4,363552.320542,1.03784483072E-11,1148.47299393,0.810400528081,8.30872594306,-2.73393665457
6840.00000002,-6504852.44802,3905.0969513,1752769.25924,-330810.634891,-6496299.8802,1753274.9034,4869.11011648,-1744.45189043,-5718.1166658,0.431666702126,8.4770839566,-2.29463467542,6769026.0024,1.52212848497,2.470287290160402,0.7339690399551676,2.0944316642484977,-1.9317096237905051,-0.05040654169127003,-2.443328788484945,-8.702091987109738E-6,8.786558946842696E-5,-1.0807401995405509E-4,360179.50208,1.11300356931E-11,1152.52885919,0.431667972699,8.47708345933,-2.29463632825
6900.00000002,-6580485.75195,-264404.898105,1406045.72056,-38115.8090716,-6585625.2055,1406326.80693,4883.5650871,-1231.77622683,-5842.3039561,0.049799094855,8.60534189524,-1.84307841366,6769518.5837,1.52650375406,2.55241773137249,0.6988375258470404,2.1549637407552513,-1.933347231582866,-0.05769996443621384,-2.4442692444043503,-4.7710943070175516E-5,2.666247062353332E-5,-1.0835724762593439E-4,357015.445249,1.18732848641E-11,1155.94915306,0.0498004534211,8.60534151608,-1.84308021608
6960.00000002,-6627642.07941,-530939.104937,1052691.44346,254757.917927,-6643983.59676,1052746.65056,4875.06098056,-712.630576688,-5939.08461052,-0.333318864023,8.69262137279,-1.38145166888,6769912.54379,1.53087902315,2.6252295530538317,0.6631131555985713,2.2075320185690175,-1.9375614296800374,-0.06367268801355627,-2.4416268784345245,-8.737079705612498E-5,-3.8376681543497345E-5,-1.0910455703604937E-4,354081.598885,1.25950444285E-11,1158.72163792,-0.333317426366,8.69262113338,-1.38145361347
7020.00000002,-6646041.17473,-794696.584488,694366.541822,546431.89611,-6671061.04679,694195.609966,4843.58010214,-189.494633218,-6007.92206049,-0.715772307381,8.73825985256,-0.912022411703,6770199.06297,1.53525429223,2.6897363462314354,0.6278192673595908,2.253252471476057,-1.944412924124063,-0.06823978061834843,-2.4352047837509887,-1.2670134506595642E-4,-1.0607440302339023E-4,-1.1019068033812943E-4,351397.089868,1.32812929308E-11,1160.83703603,-0.715770802293,8.73825977335,-0.912024486902
7080.00000002,-6635531.59254,-1054688.49323,332759.194223,835529.872931,-6666693.38798,332362.92936,4789.22023465,335.118907936,-6048.41793928,-1.09562907774,8.74182125798,-0.437126880148,6770371.62573,1.53962956132,2.7469476216317736,0.5937451539468528,2.2932224172113638,-1.953890207522852,-0.07130149860439913,-2.424883332118326,-1.6489857219941902E-4,-1.7539942106739934E-4,-1.1150534465337451E-4,348978.519168,1.39176398108E-11,1162.28933328,-1.09562751949,8.74182135728,-0.437129070284
7140.00000002,-6596092.27058,-1309942.04916,-30422.7564584,1120684.94497,-6630867.85998,-31042.4842376,4712.19526956,858.678174895,-6060.31571308,-1.4709533516,8.70310349445,0.0408460968131,6770426.19326,1.54400483041,2.7977984228733335,0.5614786437185055,2.3284506153989657,-1.96591669479392,-0.07274119213908899,-2.410612646075678,-2.0133482941908613E-4,-2.4549102681967015E-4,-1.1295628352682187E-4,346839.793372,1.44899067855E-11,1163.07587669,-1.47095175679,8.70310378748,0.0408438113564
7200.00000002,-6527833.4036,-1559504.452,-393460.392466,1400546.52273,-6563723.83574,-394300.655833,4612.83500958,1378.64631871,-6043.50334385,-1.83981957583,8.62214335316,0.519471625848,6770361.28226,1.5483800995,2.8431203314164764,0.531442314733627,2.3598292249279536,-1.980358376886945,-0.07242541603509393,-2.3924035812044724,-2.3554754859943025E-4,-3.1566619916167384E-4,-1.1447038034524795E-4,344991.995278,1.49847561697E-11,1163.19732924,-1.83981796293,8.62214385116,0.519469268205
7260.00000002,-6430996.6012,-1802446.73044,-754632.440281,1673787.25839,-6465552.68837,-755689.266968,4491.58413324,1892.49592872,-5998.01494478,-2.20032642631,8.4992188291,0.996305748702,6770177.96215,1.55275536859,2.883635912140358,0.5039280608462172,2.388129566031259,-1.9970313531186739,-0.07020587380701476,-2.3703180403713806,-2.6722094466144974E-4,-3.854139276865565E-4,-1.1599337798070339E-4,343443.296809,1.53903236717E-11,1162.65754234,-2.20032481508,8.49921953866,0.996303344889
