time,gePosition_m_X,gePosition_m_Y,gePosition_m_Z,eiPosition_m_X,eiPosition_m_Y,eiPosition_m_Z,eiVelocity_m_s_X,eiVelocity_m_s_Y,eiVelocity_m_s_Z,eiAccel_m_s2_X,eiAccel_m_s2_Y,eiAccel_m_s2_Z,semiMajorAxis_m,gast_rad,eulerAngle_rad_Roll,eulerAngle_rad_Pitch,eulerAngle_rad_Yaw,eulerAngleWrtEi_rad_Roll,eulerAngleWrtEi_rad_Pitch,eulerAngleWrtEi_rad_Yaw,bodyAngularRateWrtEi_rad_s_Roll,bodyAngularRateWrtEi_rad_s_Pitch,bodyAngularRateWrtEi_rad_s_Yaw,altitudeMsl_m,airDensity_kg_m3,ambientTemperature_dgK,eiGravitation_m_s2_X,eiGravitation_m_s2_Y,eiGravitation_m_s2_Z
0.0,-1436381.46541304,4185811.71030584,5163944.67156165,-4315967.74,960356.2,5167269.53,129.091037,-7491.513855,1452.515654,5.45458062216322,-1.21387690733748,-6.54917372128662,6759053.07578957,1.02331944621101,-0.0,-0.202458193231342,-0.0,-2.47159390556423,-0.0371889647578404,-1.42899313520437,0.0,-0.0011222300308759,0.0,434989.540811728,1.6157E-12,978.026450176724,5.45458062216322,-1.21387690733748,-6.54917372128662
60.0,-1794959.9950675,3943151.68507415,5239238.39553659,-4298410.85818097,509021.505129575,5242566.81047063,455.963949509552,-7547.27726591272,1056.38097273086,5.43713970676885,-0.644046030275351,-6.65043709071405,6758732.97673659,1.02769471546425,-3.1609307414E-6,-0.202437005172136,-9.15124077773E-5,-2.47204519440808,0.0156059020283289,-1.38719418368879,0.0,-0.0011222300308759,0.0,433110.362755824,1.7261E-12,985.077690379701,5.43713970676885,-0.644046030275351,-6.65043709071405
120.0,-2147590.3691775,3685729.23542694,5290614.55398329,-4261287.5494986,55369.4270452823,5293931.37436834,781.062760017553,-7568.72055747246,655.053631310338,5.39544972936953,-0.0702752794351111,-6.72218258885893,6758512.18931507,1.0320699847175,-1.26988827793E-5,-0.202371080926307,-1.826158568019E-4,-2.4702868220478,0.0683734663492738,-1.34532626635134,0.0,-0.0011222300308759,0.0,430971.61944914,1.8571E-12,992.845641303911,5.39544972936953,-0.0702752794351111,-6.72218258885893
180.0,-2492788.95674587,3414636.35574195,5317814.95260881,-4204747.87362472,-398535.188905713,5321105.06544186,1102.93449261441,-7555.68010019124,250.31799150227,5.32959165036945,0.505004431653347,-6.76398530983419,6758393.69120689,1.03644525395931,-2.86534762981E-5,-0.202257025178668,-2.724561284274E-4,-2.46629730751523,0.12102070149968,-1.30315482430808,0.0,-0.0011222300308759,0.0,428579.638856079,2.0109E-12,1001.28178836848,5.32959165036945,0.505004431653347,-6.76398530983419
240.0,-2829091.78971992,3131014.99959009,5320689.0903248,-4129028.86732478,-850622.074109271,5323937.48818079,1420.13382245239,-7508.13904714558,-156.019392413525,5.23973999822488,1.07933229938954,-6.7755312178244,6758378.7574952,1.04082052320969,-5.10060787507E-5,-0.202091649920131,-3.601842106203E-4,-2.46002784010144,0.173452091771071,-1.26044066321393,0.0,-0.0011222300308759,0.0,425943.217985218,2.1899E-12,1010.30123372715,5.23973999822488,1.07933229938954,-6.7755312178244
300.0,-3155060.50858432,2836052.72017587,5299195.28845189,-4034453.91537198,-1298824.39348435,5302387.13686824,1731.22876914182,-7426.22892577012,-562.136572631806,5.12616546185769,1.65022460392068,-6.75662204249055,6758467.15395163,1.04519579246293,-7.96790759202E-5,-0.201871991003749,-4.449610463878E-4,-2.45140153205805,0.225567630798527,-1.21693635378426,0.0,-0.0011222300308759,0.0,423073.647519577,2.3963E-12,1019.78707581063,5.12616546185769,1.65022460392068,-6.75662204249055
360.0,-3469288.32727884,2530978.14315566,5253401.40350657,-3921431.77542988,-1741087.68434483,5256522.10794944,2034.80653290086,-7310.23076699184,-966.203295910609,4.98923700157714,2.21518312464662,-6.70717993798775,6758657.30637578,1.04957106170188,-1.145354637179E-4,-0.2015953231917,-5.259630810237E-4,-2.44031230013045,0.277260684707756,-1.1723826141693,0.0,-0.0011222300308759,0.0,419984.699408785,2.6323E-12,1029.60103594406,4.98923700157714,2.21518312464662,-6.70717993798775
420.0,-3770405.99539407,2217056.27910511,5183485.10693736,-3790455.24938257,-2175378.84712475,5186520.37907639,2329.47943606452,-7160.57569362421,-1366.38835288863,4.82942322068192,2.77170467802091,-6.62725147147304,6758946.40782236,1.05394633095227,-1.55378839754E-4,-0.201259173842664,-6.023887340972E-4,-2.42662344889344,0.328415660266569,-1.12650470862727,0.0,-0.0011222300308759,0.0,416692.573989734,2.8998E-12,1039.59748371147,4.82942322068192,2.77170467802091,-6.62725147147304
480.0,-4057087.73335707,1895583.68556702,5089733.71753437,-3642099.49619931,-2599695.15377924,5092669.64054728,2613.89092217773,-6977.84491480795,-1760.86713963595,4.64729291561262,3.31729129073233,-6.5170106849974,6759330.44287152,1.05832160020265,-2.01953876701E-4,-0.200861335499781,-6.734656935304E-4,-2.41016608239322,0.378905419131066,-1.07900895141219,0.0,-0.0011222300308759,0.0,413215.804857517,3.2008E-12,1049.63684772994,4.64729291561262,3.31729129073233,-6.5170106849974
540.0,-4328057.11421662,1567883.49277274,4972543.57549914,-3477019.98432183,-3012073.23739114,4975366.66812475,2886.7215656059,-6762.76910379471,-2147.82937391206,4.44351490727048,3.8494605049792,-6.3767612059756,6759804.12991207,1.06269686945303,-2.53947346121E-4,-0.200399877674995,-7.384587025047E-4,-2.39073755366846,0.428588383753805,-1.02957949034328,0.0,-0.0011222300308759,0.0,409575.121689945,3.5373E-12,1059.59518610674,4.44351490727048,3.8494605049792,-6.3767612059756
600.0,-4582092.86714926,1235300.3071523,4832418.95052004,-3295950.08410721,-3410598.02599611,4835116.22957721,3146.69505529643,-6516.22716316507,-2525.48691387629,4.2188573960351,4.36575544915701,-6.20693759874407,6760360.80405043,1.06707213870913,-3.109897329299E-4,-0.199873158078496,-7.966773315683E-4,-2.36810028788341,0.477305292218586,-0.977875673880646,0.0,-0.0011222300308759,0.0,405793.273225236,3.9111E-12,1069.36868923137,4.2188573960351,4.36575544915701,-6.20693759874407
660.0,-4818034.57806828,899195.007505119,4669970.47888461,-3099698.30255785,-3793411.58440783,4672529.51997502,3392.58413298652,-6239.24439654249,-2892.08164327146,3.9741871366768,4.86375455456995,-6.00810629008289,6760992.28007422,1.0714474079538,-3.726574421722E-4,-0.199279833422407,-8.474831353663E-4,-2.34198150063523,0.524875583926551,-0.923530494777508,0.0,-0.0011222300308759,0.0,401894.814292578,4.324E-12,1078.87378190652,3.9741871366768,4.86375455456995,-6.00810629008289
720.0,-5034788.26353152,560939.44823844,4485913.12618799,-2889145.16323362,-4158721.82901353,4488322.12230146,3623.21648295232,-5932.99010448899,-3245.89340839751,3.71046867996074,5.34108108233086,-5.78096642444496,6761688.74329385,1.07582267720419,-4.384755569383E-4,-0.198618869762362,-8.902956104518E-4,-2.31207459618586,0.571093444366587,-0.866150869914795,0.0,-0.0011222300308759,0.0,397905.861965118,4.7774E-12,1088.04445683805,3.71046867996074,5.34108108233086,-5.78096642444496
780.0,-5231331.79438754,221911.081256155,4281063.67247985,-2665239.73404309,-4504811.08112114,4283311.49022191,3837.48058139051,-5598.77460492758,-3585.24801108085,3.42876378824501,5.79541285950563,-5.52635090353986,6762438.71430734,1.08019794645171,-5.079210678992E-4,-0.197889552165057,-9.245965001951E-4,-2.27804338383753,0.615723617558486,-0.805320872515965,0.0,-0.0011222300308759,0.0,393853.826420662,5.2723E-12,1096.82849503127,3.42876378824501,5.79541285950563,-5.52635090353986
840.0,-5406720.14360698,-116512.491089054,4056337.71608862,-2428995.80504301,-4830044.42365122,4058413.94925007,4034.3315143732,-5238.04565030077,-3908.52527160086,3.13023094187037,6.2244927391356,-5.24522766907436,6763229.12230155,1.08457321569067,-5.804264676368E-4,-0.197091493342561,-9.49932217352E-4,-2.23953068907121,0.658497225379113,-0.740609474166217,0.0,-0.0011222300308759,0.0,389767.121984258,5.8093E-12,1105.18373510438,3.13023094187037,6.2244927391356,-5.24522766907436
900.0,-5560090.43023699,-452959.020903726,3812746.19155844,-2181487.71810493,-5132877.82337291,3814641.21174696,4212.79676254051,-4852.38418318767,-4214.16717205267,2.81612466547552,6.62614025923164,-4.93870105282046,6764045.50304347,1.08894848494105,-6.553835929955E-4,-0.196224640805832,-9.659144364961E-4,-2.196173409611,0.699108032028696,-0.67158483010693,0.0,-0.0011222300308759,0.0,385674.863243625,6.3881E-12,1113.07505555283,2.81612466547552,6.62614025923164,-4.93870105282046
960.0,-5690666.727194,-786067.164961035,3551391.39695455,-1923845.85099666,-5411865.97662295,3553096.40100848,4371.98193009257,-4443.49934852646,-4500.6860735571,2.48779427138655,6.99826479028572,-4.60801281066825,6764872.31635078,1.09332375419143,-7.321476083485E-4,-0.195289282078568,-9.722191978064E-4,-2.14762643769659,0.737209873135493,-0.597837514579657,0.0,-0.0011222300308759,0.0,381606.550318816,7.0073E-12,1120.4720991794,2.48779427138655,6.99826479028572,-4.60801281066825
1020.0,-5797764.59639075,-1114492.0630967,3273462.52696651,-1657251.76053673,-5665669.83117403,3274969.58087306,4511.07636976397,-4013.22267134738,-4766.67297348282,2.14668157734891,7.33888017977804,-4.25454233325161,6765693.35820235,1.09769902344753,-8.100410512243E-4,-0.194286047578003,-9.685851055859E-4,-2.09359785573924,0.772416327370421,-0.519015100770587,0.0,-0.0011222300308759,0.0,377591.746609918,7.6642E-12,1127.34787673679,2.14668157734891,7.33888017977804,-4.25454233325161
1080.0,-5880795.31087502,-1436910.92535732,2980230.71120369,-1382932.99315345,-5893063.73162095,2981532.79024799,4629.35863027115,-3563.50131753896,-5010.80573750533,1.79431721783084,7.64612060148189,-3.87980551567673,6766492.22881959,1.10207429269791,-8.883579046549E-4,-0.193215910895443,-9.548113529211E-4,-2.03389693995749,0.804304094033324,-0.43486960893458,0.0,-0.0011222300308759,0.0,373659.751878139,8.355E-12,1133.67792461845,1.79431721783084,7.64612060148189,-3.87980551567673
1140.0,-5939269.72129735,-1752028.60173701,2673043.56186982,-1102157.57619946,-6092942.13138879,2674134.58674975,4726.20163389477,-3096.39038043407,-5231.85721281159,1.43231531290702,7.9182570750754,-3.48545186974245,6767252.81257696,1.10644956193401,-9.663677102166E-4,-0.192080186367396,-9.307563250717E-4,-1.96849415270044,0.832421822232592,-0.345316993749331,0.0,-0.0011222300308759,0.0,369839.273482934,9.0739E-12,1139.43988744835,1.43231531290702,7.9182570750754,-3.48545186974245
1200.0,-5972801.72342836,-2058583.10448855,2353319.24127216,-816228.209228396,-6264325.81209374,2354194.10992641,4801.07748321061,-2614.04417254855,-5428.70310883206,1.06236644529674,8.15371399444134,-3.07325963978907,6767959.72897932,1.11082483119011,-0.0010433197831207,-0.190880523984165,-8.963374196554E-4,-1.89758795589182,0.856306076248994,-0.25050349481431,0.0,-0.0011222300308759,0.0,366158.099023062,9.8136E-12,1144.61333592286,1.06236644529674,8.15371399444134,-3.07325963978907
1260.0,-5981111.28441427,-2355351.04989825,2022540.06674104,-526476.180476768,-6406367.55095192,2023194.68165528,4853.5617985348,-2118.70654192695,-5600.32952362902,0.686229074688011,8.35108501079387,-2.64512888521385,6768598.72457729,1.11520010044049,-0.001118447626521,-0.189618901806764,-8.51532486734E-4,-1.82166713533876,0.875505392693571,-0.150867532462496,0.0,-0.0011222300308759,0.0,362642.77440666,1.05651E-11,1149.17965798872,0.686229074688011,8.35108501079387,-2.64512888521385
1320.0,-5964026.98944063,-2641152.98092892,1682245.67779965,-234255.039381446,-6518357.17921814,1682676.96857756,4883.33749955693,-1612.70026859082,-5745.83999728098,0.305719645908611,8.50914773851206,-2.20307266480262,6769156.99039759,1.11957536967945,-0.0011909736590601,-0.188297616134232,-7.963829746563E-4,-1.74155113754674,0.889611721282009,-0.0471796437190514,0.0,-0.0011222300308759,0.0,359318.292310886,1.13175E-11,1153.12182833045,0.305719645908611,8.50914773851206,-2.20307266480262
1380.0,-5921488.07380888,-2914858.53448624,1334025.79722163,59065.9393506431,-6599725.97881766,1334231.73823319,4890.19796199719,-1098.4156231487,-5864.46198523148,-0.077298300039766,8.62687693536054,-1.74920656212671,6769623.4043353,1.12395063893269,-0.0012601143631735,-0.186919269676637,-7.309985225301E-4,-1.65838836912129,0.898296021828842,0.0594595977067839,0.0,-0.0011222300308759,0.0,356207.796841587,1.20587E-11,1156.42452305235,-0.077298300039766,8.62687693536054,-1.74920656212671
1440.0,-5853545.91045144,-3175391.41592055,979512.623576354,352108.461007328,-6650050.36977133,979492.246524385,4874.04949835212,-578.298184905852,-5955.55266003639,-0.460925724386876,8.70345599072131,-1.28573681556525,6769988.70942652,1.12832590818593,-0.001325085931481,-0.18548675795273,-6.555624280214E-4,-1.57359783702492,0.90134214126671,0.167678304848855,0.0,-0.0011222300308759,0.0,353332.310749163,1.27751E-11,1159.07500393032,-0.460925724386876,8.70345599072131,-1.28573681556525
1500.0,-5760364.92862044,-3421734.14326745,620372.897895274,643492.043781343,-6669054.84706722,620126.299172198,4834.91312707584,-54.8360226347101,-6018.6039648146,-0.843240182258938,8.738286681522,-0.814947276941521,6770245.64464965,1.13270117743631,-0.0013851104388396,-0.18400325406609,-5.703371958608E-4,-1.48875448812949,0.89867165379596,0.27594829126598,0.0,-0.0011222300308759,0.0,350710.491644681,1.34525E-11,1161.06373123327,-0.843240182258938,8.738286681522,-0.814947276941521
1560.0,-5642222.94329788,-3652932.5278257,258299.691329208,931840.935834668,-6656614.13185532,257828.034068435,4772.92560492203,469.453658136169,-6053.2468531395,-1.22230827704163,8.73099719866464,-0.339185354585793,6770389.04431856,1.13707644668384,-0.0014394225053073,-0.182472191944353,-4.756692778226E-4,-1.40543846448675,0.890353388948961,0.382736163904844,0.0,-0.0011222300308759,0.0,348358.423239586,1.40764E-11,1162.38466895703,-1.22230827704163,8.73099719866464,-0.339185354585793
1620.0,-5499510.88013226,-3868099.85819922,-104996.035661432,1215791.07170047,-6612754.50807892,-105690.524901184,4688.33970289371,992.038296943089,-6059.25465761206,-1.59619841130781,8.68144841350901,0.139152959953092,6770415.91643977,1.14145171592279,-0.0014872763510564,-0.180897248075843,-3.719921666952E-4,-1.32508311261187,0.876595054569608,0.486655661784708,0.0,-0.0011222300308759,0.0,346289.446756132,1.46326E-11,1163.03538335071,-1.59619841130781,8.68144841350901,0.139152959953092
1680.0,-5332731.88552495,-4066420.75709846,-467794.048738871,1493997.02213219,-6537654.32201446,-468708.088683213,4581.52370934809,1510.38408096287,-6036.54553460433,-1.96299378895967,8.58973827895317,0.617638897433673,6770325.50212484,1.14582698517889,-0.0015279530873182,-0.179282321761665,-2.598271957883E-4,-1.24885711271871,0.857719239760861,0.586585879597361,0.0,-0.0011222300308759,0.0,344514.036454856,1.51081E-11,1163.01699977144,-1.96299378895967,8.58973827895317,0.617638897433673
1740.0,-5142499.81577046,-4247154.68349607,-828373.572913998,1765138.89061293,-6431643.62892997,-829502.841667462,4452.96014709295,2021.97025143261,-5985.18393853697,-2.32080559731381,8.45620419021832,1.09382742900642,6770119.31027551,1.15020225442927,-0.0015607680481232,-0.177631513921788,-1.397816881284E-4,-1.17760219101806,0.834129904159382,0.681733918249246,0.0,-0.0011222300308759,0.0,343039.721873901,1.54913E-11,1162.33407622836,-2.32080559731381,8.45620419021832,1.09382742900642
1800.0,-4929537.10647934,-4409639.05275199,-1185022.08419524,2027929.10910821,-6295202.97842279,-1186361.23867524,4303.24369720769,2524.30348552149,-5905.38108829564,-2.66778624064796,8.28142310776248,1.56527430442993,6769801.11684325,1.15457752367966,-0.0015850779507781,-0.175949104543126,-1.25444447823E-5,-1.11182802207591,0.806276688012864,0.771640360705789,0.0,-0.0011222300308759,0.0,341871.058028588,1.5773E-11,1160.99444844318,-2.66778624064796,8.28142310776248,1.56527430442993
1860.0,-4694672.02758976,-4553291.95319475,-1536044.09844206,2281119.08547865,-6128961.33804191,-1537586.7990696,4133.07833194354,3014.93221438109,-5797.49440239943,-3.00214243447251,8.06620928840673,2.02955333743656,6769376.91739903,1.15895279293004,-0.0016002876817956,-0.174239528919879,1.211211001638E-4,-1.05175040534472,0.774623067764722,0.856141494719548,0.0,-0.0011222300308759,0.0,341009.643595222,1.59466E-11,1159.00909585762,-3.00214243447251,8.06620928840673,2.02955333743656
1920.0,-4438835.33734193,-4677614.43883159,-1879769.89533212,2523505.6554837,-5933693.16337828,-1881508.8358596,3943.27367189871,3491.46073169197,-5662.02589778115,-3.32214792847189,7.81160957259946,2.48427360952749,6768854.82539217,1.16332806216899,-0.0016058565365887,-0.172507352893239,2.603854560715E-4,-0.997352736796528,0.739621767094906,0.935308267672067,0.0,-0.0011222300308759,0.0,340454.186038175,1.60085E-11,1156.39206955834,-3.32214792847189,7.81160957259946,2.48427360952749
1980.0,-4163056.35471187,-4782192.38258343,-2214564.11564661,2753937.29364516,-5710314.63156617,-2216491.05796689,3734.74059692879,3951.56294773344,-5499.61956727836,-3.62615562124642,7.51889630473652,2.92709625508144,6768244.91484504,1.16770333142223,-0.0016013037902117,-0.170757247334165,4.043626143387E-4,-0.948452948061588,0.701698275210321,1.00937980788817,0.0,-0.0011222300308759,0.0,340200.611717863,1.59584E-11,1153.16051170877,-3.62615562124642,7.51889630473652,2.92709625508144
2040.0,-3868458.47488028,-4866697.87971519,-2538834.17157113,2971320.03941964,-5459879.06362355,-2540939.98531707,3508.48615367391,4392.99565225862,-5311.05777011513,-3.91260886155988,7.18955807943434,3.35575053325734,6767559.01303758,1.17207860067547,-0.0015862135339596,-0.168993962122613,5.521197422197E-4,-0.904764166288559,0.661241595862606,1.0787032667268,0.0,-0.0011222300308759,0.0,340242.218174364,1.57992E-11,1149.33478273268,-3.91260886155988,7.18955807943434,3.35575053325734
2100.0,-3556254.15961855,-4930890.19377466,-2851038.41225152,3174623.09804072,-5183571.56886494,-2853313.11896231,3265.60781335423,4813.61116342227,-5097.25668510942,-4.18005178435077,6.8252885769883,3.76804896968135,6766810.45372154,1.17645386991157,-0.0015602387695082,-0.167222299861625,7.026863159677E-4,-0.865943568733983,0.618600566254632,1.14368551589143,0.0,-0.0011222300308759,0.0,340569.86495673,1.55365E-11,1144.9386984406,-4.18005178435077,6.8252885769883,3.76804896968135
2160.0,-3227739.43741372,-4974616.2435171,-3149693.99016455,3362884.0788504,-4882702.95149601,-3152126.81176461,3007.28714091603,5211.3692564582,-4859.26088679905,-4.42713858384753,6.4279737637931,4.16190143478239,6766013.80307985,1.1808291391591,-0.0015231047999095,-0.1654470895359,8.550621741337E-4,-0.831628391105232,0.574083990424427,1.2047577505117,0.0,-0.0011222300308759,0.0,341172.198528854,1.51788E-11,1139.99986554692,-4.42713858384753,6.4279737637931,4.16190143478239
2220.0,-2884287.95151833,-4997810.63343996,-3433384.37766991,3535213.83775459,-4558702.92539489,-3435963.78897853,2734.78294126889,5584.34828152469,-4598.23711065454,-4.65264166209697,5.99967770055782,4.53532808709542,6765184.5687947,1.18520440840948,-0.0014746119882345,-0.163673160295311,0.0010082242330784,-0.801460521907291,0.527963099871423,1.26235157666594,0.0,-0.0011222300308759,0.0,342035.905950176,1.47366E-11,1134.55009104219,-4.65264166209697,5.99967770055782,4.53532808709542
2280.0,-2527344.59908235,-5000495.23312201,-3700766.48718703,3690800.89448304,-4213112.68811291,-3703480.27215193,2449.42395162254,5930.75539324884,-4315.46727697275,-4.85545860151824,5.54262715306381,4.88647113202489,6764338.89828831,1.18957967766558,-0.0014146379674106,-0.161905315527071,0.0011611318847328,-0.775102065187421,0.480475238081555,1.31688421346132,0.0,-0.0011222300308759,0.0,343145.991279808,1.42221E-11,1128.62582809433,-4.85545860151824,5.54262715306381,4.88647113202489
2340.0,-2158418.80462414,-4982778.31610428,-3950577.35270564,3828915.39957061,-3847576.90944648,-3953412.66403218,2152.60115221675,6248.93582515145,-4012.34084631657,-5.03461790146973,5.05919517138966,5.21360533152536,6763493.26743301,1.1939549469131,-0.0013431393785482,-0.160148307381785,0.0013127313428288,-0.752244307992972,0.43182802798837,1.36875038773097,0.0,-0.0011222300308759,0.0,344486.068091144,1.36483E-11,1122.26860671042,-5.03461790146973,5.05919517138966,5.21360533152536
2400.0,-1779077.47474227,-4944853.27153037,-4181640.33484276,3948912.63042937,-3463835.19364233,-4184583.7566721,1845.7597716793,6537.3811522508,-3690.34658419133,-5.18928340905159,4.55188381674108,5.51514716788581,6762664.15796087,1.19833021615206,-0.001260153193691,-0.15840681193614,0.0014619593796112,-0.732612172484441,0.38220356820847,1.41831885794459,0.0,-0.0011222300308759,0.0,346038.661216893,1.3029E-11,1115.52537870573,-5.18928340905159,4.55188381674108,5.51514716788581
2460.0,-1390937.68129646,-4886996.90607266,-4392870.81650724,4050236.0005792,-3063713.07734904,-4395908.42978192,1530.39106728539,6794.73649738959,-3351.06381919996,-5.3187573840075,4.02330627071572,5.78966254445287,6761867.72199792,1.2027054854053,-0.0011657976479114,-0.156685405198569,0.0016077469777369,-0.715965760350194,0.331762408032719,1.46593197870658,0.0,-0.0011222300308759,0.0,347785.510932304,1.23775E-11,1108.44868098264,-5.3187573840075,4.02330627071572,5.78966254445287
2520.0,-995659.121186233,-4809567.35683165,-4583281.36149082,4132419.57100923,-2649112.62762844,-4586398.81163539,1208.02396290403,7019.80665316091,-2996.15328566877,-5.42248218001772,3.47616863691162,6.03587292315543,6761119.43599082,1.20708075465283,-0.0010602727720189,-0.154988540178902,0.0017490234055488,-0.702100154233332,0.280647185724941,1.51190716295666,0.0,-0.0011222300308759,0.0,349707.873224299,1.17067E-11,1101.0964888166,-5.42248218001772,3.47616863691162,6.03587292315543
2580.0,-594936.401950541,-4713001.63865159,-4751986.31390936,4195090.05760043,-2222002.70543008,-4755168.88044618,880.216626383252,7211.56111180241,-2627.34764603888,-5.50004059888013,2.91325180170484,6.25265986316399,6760433.75278441,1.21145602389464,-9.438604873675E-4,-0.153320525236092,0.0018847211213061,-0.69084428134148,0.228985897808989,1.55653946163294,0.0,-0.0011222300308759,0.0,351786.810503561,1.10286E-11,1093.5315984298,-5.50004059888013,2.91325180170484,6.25265986316399
2640.0,-190491.199291101,-4597812.85246547,-4898205.82213892,4237968.33329079,-1784408.9597181,-4901438.48985601,548.548062073315,7369.13801785354,-2246.44178755336,-5.55115506324274,2.33739372354308,6.43906802593508,6759823.76764064,1.21583129314788,-8.169242036937E-4,-0.151685503880987,0.0020137817475315,-0.682059375567982,0.176894815150407,1.60010475273611,0.0,-0.0011222300308759,0.0,354003.467957902,1.03539E-11,1085.82036420959,-5.55115506324274,2.33739372354308,6.43906802593508
2700.0,215935.668342992,-4464587.08227616,-5021269.27637635,4260870.4278937,-1338403.61591839,-5024536.80766381,214.609783006292,7491.84707878438,-1855.28298055312,-5.5756858303996,1.75147244945345,6.5943068201434,6759300.9190103,1.22020656239826,-6.799078526706E-4,-0.150087436146691,0.0021351631641318,-0.675637384064731,0.124481087420281,1.64286322554053,0.0,-0.0011222300308759,0.0,356339.331556409,9.6915E-12,1078.0306538741,-5.5756858303996,1.75147244945345,6.5943068201434
2760.0,622592.20511882,-4313980.00907709,-5120618.15382339,4263708.03192103,-886095.119777098,-5123905.16179763,-120.002387465044,7579.17148292237,-1455.76097268177,-5.57362850662502,1.15839002214388,6.71775093897689,6758874.74569874,1.22458183164864,-5.333342948108E-4,-0.148530081557803,0.0022478475812582,-0.671499534654954,0.0718450898757015,1.6850629784742,0.0,-0.0011222300308759,0.0,358776.464359682,9.0492E-12,1070.22901495903,-5.57362850662502,1.15839002214388,6.71775093897689
2820.0,1027723.2044456,-4146713.26979407,-5195808.26947221,4246488.51328665,-429617.694565704,-5199099.29151181,-453.69635004217,7630.76887888797,-1049.7980772107,-5.54511110185451,0.561057276128107,6.80894006213717,6758552.71766935,1.22895710090188,-3.778030542224E-4,-0.147016983650804,0.0023508502998504,-0.669595195020969,0.0190825712130007,1.72694363719356,0.0,-0.0011222300308759,0.0,361297.718199349,8.4326E-12,1062.47728768147,-5.54511110185451,0.561057276128107,6.80894006213717
2880.0,1429578.17966882,-3963570.58808004,-5246511.43349196,4209314.45744355,28879.1335884566,-5249791.00481535,-784.891577731515,7646.47146608866,-639.339298516109,-5.49039078992573,-0.0376206231837013,6.86757794498019,6758340.14860217,1.23333237013798,-2.1398736107E-4,-0.145551455940727,0.0024432287685078,-0.669901099476331,-0.0337133377077282,1.76873995557692,0.0,-0.0011222300308759,0.0,363886.917977841,7.8461E-12,1054.82920568273,-5.49039078992573,-0.0376206231837013,6.86757794498019
2940.0,1826419.22345191,-3765393.70276018,-5272516.51845236,4152382.74260032,487240.990118676,-5275769.24537427,-1112.02676258448,7626.28523432011,-226.342527357338,-5.40985043119009,-0.634758120433372,6.89353101156146,6758240.1864659,1.23770763938837,-4.26305118239E-5,-0.144136569209385,0.0025240915094829,-0.672420983678877,-0.0864501949295728,1.81068539611183,0.0,-0.0011222300308759,0.0,366529.015903618,7.2924E-12,1047.32775584561,-5.40985043119009,-0.634758120433372,6.89353101156146
3000.0,2216528.76309282,-3553078.11807124,-5273729.94144549,4075983.16255181,943319.035931598,-5276940.57395725,-1433.56724561138,7570.38837715956,187.231164600884,-5.30399480623257,-1.22750289757255,6.88682644185779,6758253.86676408,1.24208290863875,1.354584126368E-4,-0.142775140014143,0.002592606511495,-0.677185643697231,-0.139034339584327,1.85301570355693,0.0,-0.0011222300308759,0.0,369210.213080501,6.7728E-12,1040.00403519928,-5.30399480623257,-1.22750289757255,6.88682644185779
3060.0,2598217.17715758,-3327568.69981941,-5250175.56801729,3980496.61072049,1394980.23172684,-5253329.07134459,-1748.01220905836,7479.12889423051,599.427097675528,-5.17344643732698,-1.81304928892635,6.8476496402143,6758380.2048913,1.2464581778777,3.194094044699E-4,-0.141469720377056,0.002648008762215,-0.68425341688471,-0.191368946745571,1.89597249013494,0.0,-0.0011222300308759,0.0,371918.046169258,6.2876E-12,1032.8779601265,-5.17344643732698,-1.81304928892635,6.8476496402143
3120.0,2969830.24116478,-3089855.14100344,-5201994.04706067,3866392.84049261,1840117.43444571,-5205075.67186236,-2053.90160214991,7353.02139587953,1008.30638269413,-5.0189408625725,-2.38865142968471,6.7763409296027,6758616.30157111,1.25083344713094,5.082968758432E-4,-0.140222588695124,0.0026896067017282,-0.693711062268095,-0.243351986118898,1.93980684271281,0.0,-0.0011222300308759,0.0,374641.437465094,5.8363E-12,1025.96059027474,-5.0189408625725,-2.38865142968471,6.7763409296027
3180.0,3329756.37026479,-2840967.32041704,-5129441.58859636,3734227.81888793,2276659.27857683,-5132436.93947933,-2349.82276458987,7192.74313176659,1411.95509474597,-4.84132128072541,-2.95163593271642,6.67339135170798,6758957.43953383,1.25520871638133,7.011453984712E-4,-0.139035741989838,0.002716787500785,-0.705674991732336,-0.29487402504251,1.98478294093244,0.0,-0.0011222300308759,0.0,377370.707719597,5.4179E-12,1019.25733752468,-4.84132128072541,-2.95163593271642,6.67339135170798
3240.0,3676433.62710583,-2581970.57913745,-5032888.19955356,3584640.6928361,2702579.79677213,-5035783.30159211,-2634.41671003234,6999.12928028068,1808.49316736312,-4.64153258458865,-3.4994137992791,6.53943755609503,6759397.15955275,1.25958398563171,8.969357368536E-4,-0.137910889663415,0.002729021185648,-0.720292763285782,-0.34581581606222,2.03118163602426,0.0,-0.0011222300308759,0.0,380097.55232022,5.0309E-12,1012.771186993,-4.64153258458865,-3.4994137992791,6.53943755609503
3300.0,4008356.46703096,-2313960.93863841,-4912815.395898,3418350.38950043,3115907.73698194,-4915596.75886093,-2906.38403620755,6773.16755363296,2196.08295537596,-4.42061491291609,-4.02949127775602,6.37525589818046,6759927.31721122,1.26395925488209,0.0010946110828038,-0.136849448932807,0.0027258637301268,-0.73774468535195,-0.396045611154824,2.07930387610962,0.0,-0.0011222300308759,0.0,382814.982868492,4.6737E-12,1006.50526581512,-4.42061491291609,-4.02949127775602,6.37525589818046
3360.0,4324082.19470926,-2038060.28447273,-4769813.41226481,3236151.87379648,3514735.53707157,-4772468.09227026,-3164.49043895637,6515.99218779194,2572.93742572806,-4.17969693555471,-4.53947949445005,6.18175598783063,6760538.13487908,1.26833452412105,0.0012930834116902,-0.135852542063886,0.0027069593037823,-0.758245284877159,-0.445416151127975,2.12947376484071,0.0,-0.0011222300308759,0.0,385517.237560588,4.3446E-12,1000.46446317107,-4.17969693555471,-4.53947949445005,6.18175598783063
3420.0,4622237.11007155,-1755411.53814142,-4604577.93221125,3038912.08720592,3897227.92224769,-4607093.59054666,-3407.57182144178,6228.87739181553,2937.32795232282,-3.91998911280196,-5.02710286019386,5.95997399360208,6761218.27283553,1.27270979337429,0.0014912398977338,-0.134920995434725,0.0026720418984242,-0.78204424740676,-0.493761294091219,2.18204089227361,0.0,-0.0011222300308759,0.0,388199.664857037,4.0417E-12,994.65612628359,-3.91998911280196,-5.02710286019386,5.95997399360208
3480.0,4901522.32509414,-1467173.83673145,-4417906.36308943,2827565.59209192,4261630.0949709,-4420271.3219516,-3634.53900327879,5913.23032502216,3287.59170906854,-3.6427771255334,-5.49020644961236,5.71106598579031,6761954.94664564,1.27708506262181,0.0016879493442231,-0.134055340337886,0.0026209365527411,-0.80942622685008,-0.540892277825619,2.23738136302071,0.0,-0.0011222300308759,0.0,390858.585568118,3.7633E-12,989.090036586845,-3.6427771255334,-5.49020644961236,5.71106598579031
3540.0,5160719.2344237,-1174517.73957722,-4210693.67943312,2603109.94513919,4606275.49068532,-4212896.97436094,-3844.38204323249,5570.58365393668,3622.13866948199,-3.34941556866786,-5.9267626933655,5.43630149593629,6762734.11371548,1.28146033186077,0.0018820686015306,-0.133255815313887,0.0025535603607506,-0.840708629415237,-0.586593667267027,2.29589665020645,0.0,-0.0011222300308759,0.0,393491.138611242,3.5079E-12,983.777917934244,-3.34941556866786,-5.9267626933655,5.43630149593629
3600.0,5398694.62517178,-878620.477028446,-3983927.85802206,2366600.82263488,4929593.07515597,-3985959.28681099,-4036.17419075387,5202.58771859958,3939.4582272268,-3.04132186789378,-6.33487776897239,5.13705731015354,6763540.74118814,1.28583560110829,0.0020724489598778,-0.132522369719182,0.0024699233915784,-0.876236091451201,-0.630619133920394,2.35800901598008,0.0,-0.0011222300308759,0.0,396095.115353359,3.2737E-12,978.732697704177,-3.04132186789378,-6.33487776897239,5.13705731015354
3660.0,5614405.41068421,-580661.255625205,-3738684.9269974,2119146.91953868,5230114.16031082,-3740535.09490124,-4209.07547543722,4811.00231626014,4238.12544787833,-2.71997025897058,-6.71279800449386,4.81481134587205,6764359.1524353,1.29021087036154,0.0022579425127825,-0.131854668193174,0.0023701295747872,-0.916369911527124,-0.672687366096196,2.42415177721563,0.0,-0.0011222300308759,0.0,398668.78677803,3.0593E-12,973.967682080716,-2.71997025897058,-6.71279800449386,4.81481134587205
3720.0,5806902.97233623,-281816.633760699,-3476123.65113967,1861904.64408738,5506478.71549029,-3477784.01218108,-4362.33593138564,4397.68809632345,4516.80694911502,-2.38688559776976,-7.05891643935267,4.47113633699034,6765173.4338205,1.29458613960906,0.0024374084905637,-0.131252095709937,0.0022543775279537,-0.961470237110089,-0.712478635094879,2.49475223266762,0.0,-0.0011222300308759,0.0,401210.726918865,2.8631E-12,969.49574729687,-2.38688559776976,-7.05891643935267,4.47113633699034
3780.0,5975337.09261132,16744.0184946003,-3197479.87612338,1596072.63028847,5757441.1505085,-3198942.77035108,-4495.29843919927,3964.59755827206,4774.26638826725,-2.04363676984788,-7.37177946641385,4.10769300899935,6765967.87080415,1.29896140886516,0.0026097195613801,-0.130713762977175,0.0021229612317709,-1.01186852629559,-0.749632852328495,2.5702047858661,0.0,-0.0011222300308759,0.0,403719.635296806,2.6838E-12,965.328602385031,-2.04363676984788,-7.37177946641385,4.10769300899935
3840.0,6118959.46206518,313862.961540714,-2904060.55638138,1322886.09207635,5981875.54670004,-2905319.24292965,-4607.40115628656,3513.76565526211,5009.36951812743,-1.69182954115738,-7.65009327291637,3.72622247704987,6766727.37574449,1.30333667810126,0.0027737680905115,-0.130238512060682,0.0019762704020687,-1.0678280504324,-0.783750328974919,2.65083204163611,0.0,-0.0011222300308759,0.0,406194.160667063,2.5201E-12,961.476147327372,-1.69182954115738,-7.65009327291637,3.72622247704987
3900.0,6237126.74322583,608398.413004132,-2597237.49396808,1043611.04487932,6178780.31289206,-2598286.17979347,-4698.17950023439,3047.30002753021,5221.08875953092,-1.33309881524071,-7.89272966420072,3.32853773162095,6767437.87043164,1.30771194735164,0.0029284723390525,-0.129824922241331,0.0018147903754318,-1.12949151109671,-0.814396819756921,2.73683296022074,0.0,-0.0011222300308759,0.0,408632.728320657,2.3708E-12,957.945931261001,-1.33309881524071,-7.89272966420072,3.32853773162095
3960.0,6329303.17642413,899228.744799238,-2278440.81904057,759538.422439951,6347282.24546967,-2279274.68323126,-4767.26765208115,2567.37091601984,5408.50723622789,-0.969100400982904,-8.09873083027572,2.91651425062886,6768086.59422198,1.31208721660202,0.0030727825718782,-0.129471316225817,0.0016391013199863,-1.19681784475794,-0.841114629553798,2.82822015159297,0.0,-0.0011222300308759,0.0,411033.373485439,2.2348E-12,954.742704884069,-0.969100400982904,-8.09873083027572,2.91651425062886
4020.0,6395062.71579707,1185256.53137741,-1949152.24566879,471978.118458302,6486639.97548137,-1949767.45924478,-4814.39955622442,2076.20083086077,5570.82222508229,-0.60150250938021,-8.26731270512815,2.49207994443316,6768662.32173358,1.31646248583812,0.0032056870348034,-0.129175766907721,0.001449876606755,-1.26951533539914,-0.863441309578601,2.92475343839384,0.0,-0.0011222300308759,0.0,413393.583928024,2.111E-12,951.868056223583,-0.60150250938021,-8.26731270512815,2.49207994443316
4080.0,6434090.68802096,1465412.4339386,-1610898.13905157,182252.983585473,6596246.79074432,-1611291.88019711,-4839.4094089075,1576.05406540799,5707.347990843,-0.231977257007288,-8.39786674341375,2.05720475588043,6769155.48938972,1.3208377550885,0.0033262177529057,-0.128936104898218,0.0012478802268507,-1.34698461078544,-0.880936440031098,3.0258832704839,0.0,-0.0011222300308759,0.0,415710.155493561,1.9984E-12,949.320116995931,-0.231977257007288,-8.39786674341375,2.05720475588043
4140.0,6446184.97063637,1738658.9068363,-1265242.43144629,-108307.191726584,6675632.82654282,-1265412.8961393,-4842.23164395165,1069.22615085282,5817.51799555522,0.137807555515863,-8.48996014690427,1.61389027283242,6769558.24423031,1.32521302433889,0.0034334560986312,-0.128749927013883,0.0010339632096108,-1.42829053635188,-0.893215002224432,3.13072301165977,0.0,-0.0011222300308759,0.0,417979.064829932,1.8961E-12,947.093326265668,0.137807555515863,-8.48996014690427,1.61389027283242
4200.0,6431256.69170281,2003993.7121299,-913779.424090713,-398371.678981209,6724466.62403997,-913725.832117075,-4822.90043863236,558.033338745165,5900.88649304721,0.506196192637094,-8.54333475530781,1.1641596615883,6769864.43836778,1.32958829359213,0.0035265380794682,-0.128614605833514,8.090590768999E-4,-1.5121822731229,-0.899983160543951,-3.04511593621487,0.0,-0.0011222300308759,0.0,420195.363749023,1.8034E-12,945.17823787922,0.506196192637094,-8.54333475530781,1.1641596615883
4260.0,6389330.45550527,2260453.2340776,-558126.511275502,-686614.770129265,6742556.06029608,-557849.107638051,-4781.54877131112,44.8021821620728,5957.12953427881,0.871552171015476,-8.55790492533919,0.710048116610607,6770069.59634908,1.33396356284251,0.0036046593014145,-0.128527300336579,5.741784482953E-4,-1.59717197381131,-0.90106987197157,-2.93670384884979,0.0,-0.0011222300308759,0.0,422353.099459722,1.7195E-12,943.561357445543,0.871552171015476,-8.55790492533919,0.710048116610607
4320.0,6320544.10187771,2507115.58565398,-199916.860911797,-971721.666916771,6729848.65742723,-199416.912663989,-4718.40706440149,-468.140734060659,5986.04541689905,1.23226490633521,-8.53375473506204,0.253593882297952,6770170.88011987,1.33833883208147,0.003667079575366,-0.128484967536949,3.304029789657E-4,-1.68166505609305,-0.896447043017631,-2.82877389835283,0.0,-0.0011222300308759,0.0,424445.26424323,1.6437E-12,942.224999053843,1.23226490633521,-8.53375473506204,0.253593882297952
4380.0,6225148.00804753,2743103.50201505,159207.91608249,-1252394.27712747,6686431.28088909,159928.127528917,-4633.80144227063,-978.478881934232,5987.55461180424,1.58675592367751,-8.4711347742079,-0.203170221617966,6770167.06838864,1.34271410133185,0.0037131271476445,-0.128484374949928,7.88788569093E-5,-1.76411567120849,-0.886232965669857,-2.72282510839837,0.0,-0.0011222300308759,0.0,426463.777094812,1.5754E-12,941.15296415783,1.58675592367751,-8.4711347742079,-0.203170221617966
4440.0,6103503.94222089,2967587.01805038,517605.077042953,-1527356.8953214,6612529.23840246,518542.268069295,-4528.15162620424,-1483.91567747992,5961.6991928394,1.93348476737705,-8.37045864796778,-0.658224913958916,6770058.55624426,1.34708937058509,0.0037422025513915,-0.128522113693522,-1.791898984967E-4,-1.84317052155382,-0.870678089088003,-2.62016349474791,0.0,-0.0011222300308759,0.0,428399.498569946,1.5142E-12,940.341145846282,1.93348476737705,-8.37045864796778,-0.658224913958916
4500.0,5956083.47934071,3179785.92597806,873638.010226371,-1795361.74675918,6508504.79211203,874787.91153307,-4401.96848083124,-1982.1841494534,5908.64178662319,2.27095472361041,-8.23229917871686,-1.10957235649196,6769847.36974528,1.35146463983547,0.0037537820906793,-0.128594612032225,-4.425481114567E-4,-1.91776909584021,-0.850136948458757,-2.52180147441151,0.0,-0.0011222300308759,0.0,430242.27872917,1.4598E-12,939.783821069565,2.27095472361041,-8.23229917871686,-1.10957235649196
4560.0,5783465.98929985,3378972.01143949,1225683.42041642,-2055194.37389622,6374855.09769013,1227040.79782324,-4255.85122139686,-2471.05636822729,5828.66405172861,2.59771840419484,-8.0573841836697,-1.55524394720526,6769537.18158519,1.35583990908586,0.003747420981718,-0.128698149218093,-7.098959201008E-4,-1.98718556628101,-0.825033102458864,-2.42841560096889,0.0,-0.0011222300308759,0.0,431981.036855093,1.4119E-12,939.470924924127,2.59771840419484,-8.0573841836697,-1.55524394720526
4620.0,5586336.20916665,3564471.06607973,1572138.40942543,-2305678.84535501,6212209.58563465,1573697.08882875,-4090.48429080903,-2948.35260457518,5722.16469315298,2.91238315813046,-7.84659166815675,-1.99330801044817,6769133.30976599,1.36021517832195,0.0037227561838205,-0.128828869554761,-9.798949342332E-4,-2.05101696053448,-0.795824203051893,-2.34035800786376,0.0,-0.0011222300308759,0.0,433603.870654772,1.37E-12,939.388087196146,2.91238315813046,-7.84659166815675,-1.99330801044817
4680.0,5365481.41303505,3735664.67445803,1911427.42384983,-2545682.76792592,6021326.80210365,1913180.3202042,-3906.63391962597,-3411.95017925463,5589.65702042674,3.21361620712677,-7.60094431192899,-2.42187729770514,6768642.68221469,1.36459044757234,0.0036795089558839,-0.12898279668637,-0.0012511740558157,-2.10913471816501,-0.76297239657394,-2.2577044440694,0.0,-0.0011222300308759,0.0,435098.192034995,1.3341E-12,939.516038185996,3.21361620712677,-7.60094431192899,-2.42187729770514
4740.0,5121788.19387225,3891991.77604142,2242009.0431378,-2774122.08315088,5803090.72914361,2243948.19331394,-3705.14438964842,-3859.79195961473,5431.76606505532,3.50014936627612,-7.32160322265805,-2.8391161475116,6768073.7558418,1.36896571681986,0.0036174871712673,-0.129155848175173,-0.0015223350208944,-2.16161960390336,-0.726922527686513,-2.18031892349548,0.0,-0.0011222300308759,0.0,436450.886233929,1.3037E-12,939.827277627498,3.50014936627612,-7.32160322265805,-2.8391161475116
4800.0,4856238.87556224,4032950.00134997,2562382.58225833,-2989965.63153433,5558506.60677023,2564499.18161555,-3486.93403000744,-4289.89446150537,5249.2252828025,3.77078322227897,-7.00986105132352,-3.24324713817492,6767436.3869612,1.37334098605596,0.0035365874157305,-0.129343850464378,-0.0017919577928911,-2.20869593669395,-0.688088294298325,-2.10791902214426,0.0,-0.0011222300308759,0.0,437648.491037701,1.2787E-12,940.292095769099,3.77078322227897,-7.00986105132352,-3.24324713817492
4860.0,4569907.57345075,4158096.78559304,2871094.48507316,-3192239.46936282,5288696.2816264,2873378.92757161,-3252.99098087412,-4700.35552371678,5042.87287537205,4.02439069482212,-6.667134666955,-3.632557106373,6766741.6588927,1.37771625531206,0.0034367968806278,-0.129542554320046,-0.0020586059855673,-2.25067462690249,-0.646845110069897,-2.04013232282362,0.0,-0.0011222300308759,0.0,438677.392880087,1.2594E-12,940.966574036278,4.02439069482212,-6.667134666955,-3.632557106373
4920.0,4263955.92271856,4267050.26424259,3166744.48677019,-3380030.92531113,4994893.1085125,3169186.40843727,-3004.36876212482,-5089.36153587125,4813.64777142036,4.25991998392372,-6.29495763903578,-4.00540248401032,6766001.6795627,1.38209152455673,0.0033181950481697,-0.129747650810523,-0.0023208325120786,-2.28790877446868,-0.603527920650212,-1.97654024581901,0.0,-0.0011222300308759,0.0,439524.036689074,1.2463E-12,941.911592737388,4.25991998392372,-6.29495763903578,-4.00540248401032
4980.0,3939628.49607637,4359489.9543115,3447991.52614134,-3552492.38620058,4678436.43178236,3450579.8516975,-2742.18168177789,-5455.19421541831,4562.585306917,4.47639698192844,-5.89497275882172,-4.3602139976066,6765229.36517465,1.38646679380997,0.0031809551499055,-0.129954787825819,-0.0025771856429753,-2.32076181037777,-0.558432284164131,-1.91670927313945,0.0,-0.0011222300308759,0.0,440175.146303064,1.2398E-12,943.17632352975,4.47639698192844,-5.89497275882172,-4.3602139976066
5040.0,3598247.92869551,4435157.22977517,3713559.39075892,-3708844.80318718,4340765.67348102,3716282.38319998,-2467.6001126145,-5796.23694117678,4290.81263984537,4.67292727896949,-5.46892475302505,-4.69550084800214,6764438.22475061,1.39084206306035,0.0030253453651559,-0.13015958707917,-0.0028262156127243,-2.34958628449517,-0.511817356427778,-1.86021145185691,0.0,-0.0011222300308759,0.0,440617.952082527,1.2403E-12,944.805390094695,4.67292727896949,-5.46892475302505,-4.69550084800214
5100.0,3241209.77041171,4493855.59663427,3962242.07996486,-3848380.91111768,3983414.05444323,3965087.39289149,-2181.84565717485,-6110.98065681845,3999.54392598978,4.84869789967247,-5.01865323238752,-5.00985451900611,6763642.15497409,1.3952173322993,0.0028517297152399,-0.130357661487061,-0.0030664818494721,-2.37471082650679,-0.463909808362295,-1.80663663667852,0.0,-0.0011222300308759,0.0,440840.422010631,1.2483E-12,946.841610980638,4.84869789967247,-5.01865323238752,-5.00985451900611
5160.0,2869977.08256323,4535450.77525157,4192908.87192859,-3970468.15476999,3608001.97375638,4195863.6044077,-1886.18621387051,-6398.02935695657,3690.07527402032,5.00297887528188,-4.54608581251751,-5.30195234238206,6762855.24684565,1.39959260154969,0.0026605686029956,-0.130544632805128,-0.0032965608259222,-2.39643293827761,-0.414908042555697,-1.7555987983571,0.0,-0.0011222300308759,0.0,440831.492187875,1.2645E-12,949.327717010269,5.00297887528188,-4.54608581251751,-5.30195234238206
5220.0,2486074.7963119,4559870.59692052,4404509.08192573,-4074551.31630551,3216230.07139188,4407559.8356632,-1581.93095249572,-6656.10516258848,3363.77949221013,5.13512469250202,-4.05323128220218,-5.57056088209624,6762091.59747411,1.40396787080293,0.0024524189459844,-0.130716149412996,-0.0035150544527038,-2.41501569647568,-0.364986333714939,-1.70673830173939,0.0,-0.0011222300308759,0.0,440581.292304525,1.2896E-12,952.307547706225,5.13512469250202,-4.05323128220218,-5.57056088209624
5280.0,2091083.85032896,4567104.72050248,4596076.49966576,-4160154.83872636,2809871.9986363,4599209.43826478,-1270.42520703573,-6884.05298491393,3022.10063782416,5.24457559192947,-3.54217269812351,-5.81453911761163,6761365.1143107,1.40834314003902,0.0022279338557947,-0.130867904186538,-0.0037205988697928,-2.43068691717078,-0.314298696084716,-1.65972158179622,0.0,-0.0011222300308759,0.0,440081.361547048,1.3246E-12,955.826701991474,5.24457559192947,-3.54217269812351,-5.81453911761163
5340.0,1686635.12502634,4557204.17573047,4766733.49424079,-4226884.84068577,2390766.92119722,4769934.40431573,-953.045296884606,-7080.8447710901,2666.54838366174,5.33085864160441,-3.01506035479244,-6.03284133670738,6760689.29725964,1.41271840928941,0.0019878618239471,-0.130995652459825,-0.0039118734452796,-2.4436397514285,-0.262982395796315,-1.61423922575474,0.0,-0.0011222300308759,0.0,439324.850557937,1.3704E-12,959.932359495841,5.33085864160441,-3.01506035479244,-6.03284133670738
5400.0,1274403.19012888,4530280.74001231,4915694.77632078,-4274430.81881206,1960811.7802738,4918949.13023236,-631.193292465216,-7245.58332566689,2298.69222265308,5.39358850548918,-2.47410469102194,-6.22451962261684,6760076.98735108,1.41709367853979,0.0017330453856495,-0.131095230141768,-0.0040876097680838,-2.45403400877071,-0.211161095556299,-1.57000313840719,0.0,-0.0011222300308759,0.0,438306.705560103,1.4286E-12,964.67180494725,5.39358850548918,-2.47410469102194,-6.22451962261684
5460.0,856099.884908501,4486506.15480743,5042270.80866962,-4302567.03479102,1521953.33707529,5045563.82864414,-306.291744997767,-7377.5057086602,1920.15553759577,5.43246786983963,-1.92156930851465,-6.38872585495587,6759540.07872008,1.42146894779017,0.0014644192444921,-0.131162572094132,-0.0042466004228562,-2.46199774545597,-0.15894765832032,-1.52674322420157,0.0,-0.0011222300308759,0.0,437023.831535207,1.5006E-12,970.089106063794,5.43246786983963,-1.92156930851465,-6.38872585495587
5520.0,433467.74742262,4426111.18932531,5145870.85777807,-4311153.58565873,1076180.02584567,5149187.58117129,20.2215999451676,-7475.98622419011,1532.60956543245,5.44728757303166,-1.35976434842225,-6.5247132360091,6759089.2019014,1.4258442170377,0.0011830078524893,-0.131193730881365,-0.0043877073578323,-2.46762882203645,-0.106446656936347,-1.48420384882451,0.0,-0.0011222300308759,0.0,435475.232295041,1.5883E-12,976.219537158267,5.44728757303166,-1.35976434842225,-6.5247132360091
5580.0,8273.30933954179,4349384.55863346,5226005.68107885,-4300137.15679378,625513.639166349,5229331.02654378,346.899091127069,-7540.5390285338,1137.76728107559,5.43792658214599,-0.791040462289759,-6.63183748013531,6758733.39833953,1.43021948627666,8.899224490694E-4,-0.131184895959723,-0.004509869692788,-2.47099624731994,-0.05375664596693,-1.44214022725442,0.0,-0.0011222300308759,0.0,433662.126235869,1.6937E-12,983.081863026939,5.43792658214599,-0.791040462289759,-6.63183748013531
5640.0,-417699.729426621,4256671.70309757,5282289.84538395,-4269551.45762564,172000.867200247,5285608.67970096,672.28845979003,-7570.82039801189,737.377213722824,5.40435204002784,-0.217783511446054,-6.70955792642308,6758479.81557309,1.4345947555299,5.863575695863E-4,-0.131132413286013,-0.0046121108578182,-2.4721411995293,-9.722550902671E-4,-1.40031480944433,0.0,-0.0011222300308759,0.0,431588.037335361,1.8191E-12,990.669557589024,5.40435204002784,-0.217783511446054,-6.70955792642308
5700.0,-842657.435013873,4148373.43479296,5314443.67243744,-4219517.33981193,-282295.290027704,5317740.87776427,994.938119155321,-7566.63070008322,333.217190368513,5.34661963874119,0.357590050643584,-6.7574389116392,6758333.45710543,1.43897002478028,2.735870379245E-4,-0.131032805208611,-0.0046935449964234,-2.47107766277147,0.0518138361923478,-1.35849368717507,0.0,-0.0011222300308759,0.0,429258.861382893,1.9667E-12,998.943178327307,5.34661963874119,0.357590050643584,-6.7574389116392
5760.0,-1264802.67215256,4024944.45453567,5322294.80654037,-4150242.59647258,-735304.220611543,5325555.34783779,1313.40250183891,-7527.91610189906,-72.9120194165927,5.26487453997855,0.932637373009929,-6.77515173944277,6758297.01883741,1.44334529401923,-4.70405404004E-5,-0.13088279037764,-0.0047533826033763,-2.46779264761457,0.104508983454506,-1.31644301801337,0.0,-0.0011222300308759,0.0,426682.90744114,2.1389E-12,1007.82678611262,5.26487453997855,0.932637373009929,-6.77515173944277
5820.0,-1682342.2270034,3886891.74075384,5305779.39708761,-4062021.43913206,-1184956.49376956,5308988.3894734,1626.24747217288,-7454.77002896118,-479.193201222577,5.15935295932258,1.50489343008121,-6.76247749034868,6758370.83486363,1.44772056326676,-3.741067679299E-4,-0.130679303304519,-0.0047909353964091,-2.46224598612697,0.157018663318342,-1.27392544961713,0.0,-0.0011222300308759,0.0,423870.914132868,2.338E-12,1017.21070306375,5.15935295932258,1.50489343008121,-6.76247749034868
5880.0,-2093494.01144895,3734772.80841247,5264942.88588228,-3955233.6466763,-1629192.73250092,5268085.66166098,1932.05585303404,-7347.43435560258,-883.799389760391,5.03038437899044,2.07187583500003,-6.71931074824194,6758552.94077638,1.45209583251429,-7.061289114671E-4,-0.130419513137872,-0.0048056204407785,-2.45436971032264,0.209244501985605,-1.2306965274089,0.0,-0.0011222300308759,0.0,420836.039641853,2.566E-12,1026.96084667449,5.03038437899044,2.07187583500003,-6.71931074824194
5940.0,-2496494.33685566,3569193.83423447,5199940.38585892,-3830343.37841938,-2065972.54839765,5203002.56096828,2229.4330996662,-7206.30027489333,-1284.90081111113,4.87839418864941,2.6310907966643,-6.64566411033245,6758839.24513054,1.45647110176467,-0.0010415658090091,-0.130100841220521,-0.004796963560043,-2.44406704429905,0.261082187264383,-1.18650108084227,0.0,-0.0011222300308759,0.0,417593.823512986,2.8251E-12,1036.93229025521,4.87839418864941,2.6310907966643,-6.64566411033245
6000.0,-2889605.24261615,3390807.64254106,5111036.63508848,-3687897.64187448,-2493283.51704019,5114004.17469506,2517.01313664519,-7031.9087658721,-1680.67211122187,4.70390641852019,3.18004063723411,-6.54167314977403,6759223.78298884,1.46084637101505,-0.0013788242115447,-0.129720977055306,-0.0047646020787716,-2.43121107058204,0.312419204378758,-1.1410696104703,0.0,-0.0011222300308759,0.0,414162.117675018,3.1173E-12,1046.98313333788,4.70390641852019,3.18004063723411,-6.54167314977403
6060.0,-3271121.8585259,3200311.54592719,4998605.50834894,-3528524.40551298,-2909150.16685858,5001464.79131695,2793.46435152296,-6824.95055771984,-2069.29988429099,4.50754616023201,3.71623305019909,-6.40760136546827,6759699.01313234,1.46522164025686,-0.0017162655438644,-0.129277892426527,-0.0047082869560856,-2.41564317774309,0.363132336113698,-1.09411474478204,0.0,-0.0011222300308759,0.0,410560.983825898,3.4444E-12,1056.98513451585,4.50754616023201,3.71623305019909,-6.40760136546827
6120.0,-3639379.77454922,2998445.03588954,4863129.06860274,-3352930.34791346,-3311642.94816077,4865866.95055213,3057.49571450928,-6586.26548802958,-2448.99048515604,4.29004128902186,4.23719199966785,-6.2438446186289,6760256.11545835,1.46959690949868,-0.0020522130683443,-0.128769853576346,-0.0046278843853013,-2.39717146884318,0.413084870885244,-1.04532791036772,0.0,-0.0011222300308759,0.0,406812.554589958,3.8084E-12,1066.82939280392,4.29004128902186,4.23719199966785,-6.2438446186289
6180.0,-3992762.38636021,2785987.32027086,4705196.14254368,-3161898.23718729,-3698887.1431967,4707800.01720728,3307.86297304884,-6316.84116612815,-2817.97808149945,4.05222320269919,4.74046991100475,-6.05093463084486,6760885.24868408,1.47397217874906,-0.0023849594365626,-0.128195431491227,-0.0045233769528698,-2.37556942123042,0.462123471253142,-0.994376472985886,0.0,-0.0011222300308759,0.0,402940.856745709,4.2111E-12,1076.42737434906,4.05222320269919,4.74046991100475,-6.05093463084486
6240.0,-4329708.18054474,2563754.70729354,4525500.40770377,-2956283.93805826,-4069071.67352605,4527958.2662895,3543.3748576535,-6017.81087867853,-3174.53288076821,3.7950264515897,5.22366064701682,-5.82954128336401,6761575.74024512,1.47834744799087,-0.0027127746152448,-0.127553510480027,-0.0043948644660387,-2.35057525339123,0.510074675203802,-0.94090177566458,0.0,-0.0011222300308759,0.0,398971.596278538,4.654E-12,1085.70877820659,3.7950264515897,5.22366064701682,-5.82954128336401
6300.0,-4648717.92078802,2332597.83913627,4324837.98285785,-2737013.04791414,-4420457.75813523,4327138.47112138,3762.89923302933,-5690.45070648997,-3516.96945727305,3.51948730611876,5.68441274288256,-5.58047366603819,6762316.1979016,1.4827227172384,-0.0030339141761494,-0.1268432952959,-0.0042425645666735,-2.32189269165748,0.556741040894256,-0.884518740462148,0.0,-0.0011222300308759,0.0,394931.906855721,5.1384E-12,1094.61794140054,3.51948730611876,5.68441274288256,-5.58047366603819
6360.0,-4948361.69636173,2093398.77923772,4104104.51790421,-2505077.1669299,-4751387.37478287,4106236.9906395,3965.36913576947,-5336.17585021109,-3843.65510786491,3.2267414470648,6.12044248917504,-5.30468001766266,6763094.55234092,1.48709798648878,-0.0033466279429004,-0.126064317053984,-0.0040668132423737,-2.28919415402687,0.601897013634929,-0.82481802817322,0.0,-0.0011222300308759,0.0,390850.065294077,5.6649E-12,1103.11007635735,3.2267414470648,6.12044248917504,-5.30468001766266
6420.0,-5227285.79371003,1847067.96051391,3864291.78335068,-2261529.81050132,-5060291.47753375,3866246.35601051,4149.78865339518,-4956.53618109358,-4153.01817723701,2.9180210295677,6.52954666829502,-5.00324682218085,6763898.05773167,1.49147325573631,-0.0036491689906305,-0.125216438126164,-0.003868065319292,-2.25212778266186,0.64528470679188,-0.761372167496456,0.0,-0.0011222300308759,0.0,386755.179401012,6.2333E-12,1111.14806436987,2.9180210295677,6.52954666829502,-5.00324682218085
6480.0,-5484219.35365034,1594541.00151265,3606483.76256657,-2007481.97448885,-5345697.92461301,3608251.35973157,4315.23861433503,-4553.21103719599,-4443.55631085984,2.59465134836277,6.90961499867683,-4.67739734267954,6764713.28886744,1.49584852498669,-0.0039398029947618,-0.124299856069274,-0.0036468949719327,-2.21033022875957,0.68660996396631,-0.693747539913747,0.0,-0.0011222300308759,0.0,382676.854955979,6.8427E-12,1118.70006536477,2.59465134836277,6.90961499867683,-4.67739734267954
6540.0,-5717980.77729722,1336775.39743609,3331852.25201269,-1744097.3652393,-5606239.07170185,3333424.65243508,4460.8820692887,-4128.00327557249,-4713.84460822495,2.25804722731233,7.25864254656045,-4.32848978350915,6765526.1766787,1.50022379422564,-0.0042168179214487,-0.123315106492064,-0.0034039962158622,-2.16344751917117,0.725539324498509,-0.621524534499032,0.0,-0.0011222300308759,0.0,378644.849388685,7.4907E-12,1125.73792217829,2.25804722731233,7.25864254656045,-4.32848978350915
6600.0,-5927483.84330564,1074747.09358472,3041651.97605112,-1472587.30739175,-5840658.98588293,3043021.85400755,4585.96954736107,-3682.83257181426,-4962.54365561939,1.90970910374115,7.57474246298839,-3.95801509881757,6766322.11782125,1.50459906347603,-0.0044785340427979,-0.122263064622794,-0.0031401832667654,-2.11116648256364,0.761698851106885,-0.544328337264744,0.0,-0.0011222300308759,0.0,374688.719845798,8.1736E-12,1132.23620719271,1.90970910374115,7.57474246298839,-3.95801509881757
6660.0,-6111743.49812611,809446.946657217,2737215.22426991,-1194205.34362,-6047820.23428556,2738376.1869674,4689.84406384322,-3219.727937392,-5188.40741273656,1.55121862397966,7.8561593618533,-3.56759426577385,6767086.18017656,1.50897433272355,-0.0047233142442958,-0.121144945235804,-0.0028563905666771,-2.05325867240195,0.794676165023202,-0.46187228083006,0.0,-0.0011222300308759,0.0,370837.472894693,8.8863E-12,1138.17172275566,1.55121862397966,7.8561593618533,-3.56759426577385
6720.0,-6269881.27769724,541877.08244915,2419946.02123449,-910241.542256481,-6226710.1992253,2420892.64202375,4771.94584190607,-2740.81941090502,-5390.29091119833,1.18423345753055,8.10128348244624,-3.1589746734002,6767803.40755222,1.51334960196536,-0.0049495745698935,-0.119962300554214,-0.0025536722096682,-1.98963690421063,0.824027369037257,-0.374013861810901,0.0,-0.0011222300308759,0.0,367119.222267563,9.6217E-12,1143.5232748853,1.18423345753055,8.10128348244624,-3.1589746734002
6780.0,-6401130.31662745,273047.157607223,2091313.84178496,-622016.531565198,-6376446.86888617,2092041.6889482,4831.81669154754,-2248.32887815445,-5567.15769908572,0.81048100618701,8.30866552424442,-2.73402519377413,6768459.20775572,1.51772487121575,-0.0051557949242097,-0.118717015775813,-0.0022332004609553,-1.92042083050487,0.849290618027287,-0.280819840467736,0.0,-0.0011222300308759,0.0,363560.860038899,1.03713E-11,1148.27155932086,0.81048100618701,8.30866552424442,-2.73402519377413
6840.0,-6504839.89791895,3970.53635197909,1752846.88973163,-330875.283392073,-6496284.05025571,1753352.55062763,4869.10397098378,-1744.55999087676,-5718.08693976196,0.431750740738294,8.47703177304307,-2.29472952696558,6769039.79261744,1.52210014046327,-0.0053405298237886,-0.117411301962882,-0.0018962630673065,-1.84600229841212,0.870007613278932,-0.18263115978018,0.0,-0.0011222300308759,0.0,360187.745689566,1.11246E-11,1152.39897297935,0.431750740738294,8.47703177304307,-2.29472952696558
6900.0,-6580479.49492823,-264339.602741237,1406124.96397282,-38180.6738230481,-6585615.95003732,1406406.06434139,4883.56404318732,-1231.88718356912,-5842.28005211738,0.0498850258237057,8.6052989278676,-1.84317753811795,6769532.62955517,1.52647540971366,-0.0055024190639632,-0.11604768617397,-0.001544259109166,-1.76709475097341,0.885752941326899,-0.0801119379063742,0.0,-0.0011222300308759,0.0,357023.416818148,1.18698E-11,1155.88948877614,0.0498850258237057,8.6052989278676,-1.84317753811795
6960.0,-6627642.25796403,-530874.213068628,1052771.94322436,254693.146127183,-6643981.07037236,1052827.16147611,4875.06513676512,-712.743826870834,-5939.06676808955,-0.333231542070142,8.69258793922786,-1.38155449956525,6769926.8633191,1.53085067896118,-0.0056401981488695,-0.114628998867681,-0.0011786932446219,-1.68474675269414,0.896168883908508,0.0257373917740218,0.0,-0.0011222300308759,0.0,354089.324901113,1.25936E-11,1158.72944707246,-0.333231542070142,8.69258793922786,-1.38155449956525
7020.0,-6646047.90063247,-794632.35746012,694447.928023537,546367.531468251,-6671065.36975332,694277.004368814,4843.58952675183,-189.609597074893,-6007.91048445171,-0.715684100207211,8.7382361986074,-0.912128361197122,6770213.6730875,1.53522594820014,-0.0057527083221993,-0.113158358746583,-8.011683309588E-4,-1.60030225774512,0.90100059527837,0.133620180487741,0.0,-0.0011222300308759,0.0,351404.599446338,1.32819E-11,1160.90827437898,-0.715684100207211,8.7382361986074,-0.912128361197122
7080.0,-6635544.94611773,-1054625.19282165,332841.085711905,835466.232843399,-6666704.64540429,332444.82601449,4789.23496563242,335.002822740103,-6048.41279878325,-1.09554049015724,8.74180755679264,-0.437235346927175,6770386.54187812,1.53960121745052,-0.0058389060385572,-0.111639155309902,-4.133765633329E-4,-1.51530238754908,0.900124562500357,0.242042142502341,0.0,-0.0011222300308759,0.0,348985.84401489,1.39202E-11,1162.41884980872,-1.09554049015724,8.74180755679264,-0.437235346927175
7140.0,-6596112.30011136,-1309879.93652663,-30340.7499067618,1120622.3482073,-6630886.10115928,-30960.4756305713,4712.21531473332,858.561568916604,-6060.31714091355,-1.47086488222028,8.70309984702678,0.0407357216214892,6770441.42905681,1.54397648670376,-0.0058978717292436,-0.110075029435518,-1.70894172104E-5,-1.43134273028483,0.893563437366592,0.349454404842998,0.0,-0.0011222300308759,0.0,346846.967723929,1.44945E-11,1163.25765086282,-1.47086488222028,8.70309984702678,0.0407357216214892
7200.0,-6527860.12500657,-1559443.78648321,-393378.667963668,1400485.28762766,-6563749.07379181,-394218.932442968,4612.86034717769,1378.5297964388,-6043.51143623098,-1.83973171200819,8.62214979006633,0.519359951695553,6770376.84922559,1.54835175594557,-0.0059288177415518,-0.108469852315439,3.858532019669E-4,-1.34991762923107,0.881483265049363,0.454409566428832,0.0,-0.0011222300308759,0.0,344999.055814366,1.49911E-11,1163.42474261483,-1.83973171200819,8.62214979006633,0.519359951695553
7260.0,-6431029.99796779,-1802387.76821694,-754551.399633547,1673727.70112591,-6465584.90012612,-755608.230641731,4491.61471269068,1892.38009444221,-5998.02976150448,-2.20023963943862,8.49923531347854,0.996193379047213,6770193.86941291,1.5527270251931,-0.0059310953637411,-0.106827703036705,7.935541347012E-4,-1.27228841016143,0.86417387064224,0.555693821438793,0.0,-0.0011222300308759,0.0,343450.282532066,1.53982E-11,1162.92366950586,-2.20023963943862,8.49923531347854,0.996193379047213
