time,gePosition_m_X,gePosition_m_Y,gePosition_m_Z,eiPosition_m_X,eiPosition_m_Y,eiPosition_m_Z,eiVelocity_m_s_X,eiVelocity_m_s_Y,eiVelocity_m_s_Z,eiAccel_m_s2_X,eiAccel_m_s2_Y,eiAccel_m_s2_Z,semiMajorAxis_m,gast_rad,eulerAngle_rad_Roll,eulerAngle_rad_Pitch,eulerAngle_rad_Yaw,eulerAngleWrtEi_rad_Roll,eulerAngleWrtEi_rad_Pitch,eulerAngleWrtEi_rad_Yaw,bodyAngularRateWrtEi_rad_s_Roll,bodyAngularRateWrtEi_rad_s_Pitch,bodyAngularRateWrtEi_rad_s_Yaw,altitudeMsl_m,airDensity_kg_m3,ambientTemperature_dgK,eiGravitation_m_s2_X,eiGravitation_m_s2_Y,eiGravitation_m_s2_Z
0.0,-1436381.48862739,4185811.47756286,5163944.85376219,-4315967.73999999,960356.199999999,5167269.52999999,129.091036999934,-7491.51385500013,1452.51565399991,5.45458046544858,-1.21387570674601,-6.54917497501085,6759052.98367584,1.02331933954551,0.0,-0.202458193231342,-1.0E-16,-2.47159390556422,-0.0371889647578316,-1.42899313520438,0.0,-0.0011222299538715,0.0,434991.318347183,1.782E-12,992.872619628906,5.45458046544858,-1.21387570674601,-6.54917497501085
60.0,-1794960.01171894,3943151.44506785,5239238.56934389,-4298410.858804,509021.507392175,5242566.80861955,455.963923319727,-7547.2771896239,1056.38091816125,5.43713900966922,-0.644044743114794,-6.65043763364352,6758732.73494699,1.02769460895833,-3.1611301094E-6,-0.202437000924691,-9.15181207296E-5,-2.47204519445283,0.0156058984055744,-1.38719418655663,0.0,-0.0011222299538715,0.0,433112.192476412,1.7267E-12,986.205932617187,5.43713900966922,-0.644044743114794,-6.65043763364352
120.0,-2147590.37678481,3685728.99386956,5290614.71661495,-4261287.55320543,55369.4361053299,5293931.36872911,781.06267961163,-7568.72040958269,655.053567319769,5.39544865313966,-0.070274231585136,-6.7221823632299,6758511.8126108,1.03206987837114,-1.26996567777E-5,-0.202371073135661,-1.826264564952E-4,-2.4702868224414,0.0683734591138526,-1.3453262721125,0.0,-0.0011222299538715,0.0,430973.485136253,1.8565E-12,994.004028320312,5.39544865313966,-0.070274231585136,-6.7221823632299
180.0,-2492788.95416418,3414636.11910193,5317815.10403217,-4204747.88421997,-398535.169357318,5321105.05679828,1102.93434191338,-7555.67990356336,250.317962119334,5.32959042521033,0.505004972144332,-6.76398440921408,6758393.21597033,1.03644514778395,-2.8655119842E-5,-0.202257014432107,-2.724700048662E-4,-2.46629730856899,0.121020690681026,-1.30315483303669,0.0,-0.0011222299538715,0.0,428581.525637643,2.0097E-12,1002.47467041015,5.32959042521033,0.505004972144332,-6.76398440921408
240.0,-2829091.77764043,3131014.77385417,5320689.23293239,-4129028.88914266,-850622.042172025,5323937.4797085,1420.13360010021,-7508.1388374033,-156.019352752644,5.23973887596075,1.07933218329691,-6.77552986156454,6758378.2356431,1.04082041719676,-5.10087614223E-5,-0.202091636629357,-3.601992922821E-4,-2.46002784214147,0.173452077418911,-1.26044067503454,0.0,-0.0011222299538715,0.0,425945.112175429,2.1885E-12,1011.53186035156,5.23973887596075,1.07933218329691,-6.77552986156454
300.0,-3155060.48945209,2836052.50989231,5299195.42629214,-4034453.95238582,-1298824.34957569,5302387.13336092,1731.2284882079,-7426.228743042,-562.136445162069,5.12616466283657,1.65022383265213,-6.75662052324958,6758466.64415211,1.04519568660958,-7.96828210992E-5,-0.201871975373426,-4.449751842694E-4,-2.45140153543319,0.225567612984537,-1.2169363688748,0.0,-0.0011222299538715,0.0,423075.536241594,2.3956E-12,1021.05725097656,5.12616466283657,1.65022383265213,-6.75662052324958
360.0,-3469288.30490126,2530977.95083224,5253401.54125469,-3921431.83047299,-1741087.63119652,5256522.11478545,2034.80621753338,-7310.23064682823,-966.203079979652,4.98923666816839,2.2151818455299,-6.70717855552,6758656.86419348,1.04957095602238,-1.145401541615E-4,-0.201595305221422,-5.259744256427E-4,-2.4403123052206,0.277260663528004,-1.17238263276538,0.0,-0.0011222299538715,0.0,419986.570115788,2.633E-12,1030.91076660156,4.98923666816839,2.2151818455299,-6.70717855552
420.0,-3770405.97439205,2217056.10490512,5183485.24883959,-3790455.32364452,-2175378.78926445,5186520.40115907,2329.47911583282,-7160.57565926848,-1366.38806441262,4.82942338828841,2.77170314495668,-6.62725046867106,6758946.07659196,1.0539462254352,-1.553842473355E-4,-0.201259153362238,-6.023960410872E-4,-2.42662345611852,0.328415635844809,-1.1265047310276,0.0,-0.0011222299538715,0.0,416694.41401345,2.9032E-12,1040.94494628906,4.82942338828841,2.77170314495668,-6.62725046867106
480.0,-4057087.71825902,1895583.52776487,5089733.86655117,-3642099.58909993,-2599695.09663579,5092669.68144465,2613.89062538301,-6977.84497262428,-1760.86680616451,4.64729350793431,3.31728980065541,-6.51701020097947,6759330.24693406,1.05832149484801,-2.019597099627E-4,-0.200861312231468,-6.734685094632E-4,-2.41016609222267,0.378905391623042,-1.0790089779852,0.0,-0.0011222299538715,0.0,413217.601103348,3.2081E-12,1051.0185546875,4.64729350793431,3.31728980065541,-6.51701020097947
540.0,-4328057.10873994,1567883.34845452,4972543.73281348,-3477020.09377967,-3012073.18624735,4975366.72957482,2886.72131307321,-6762.76924283755,-2147.82902765707,4.44351575671416,3.84945932630529,-6.3767612562656,6759804.071377,1.06269676426082,-2.539533065977E-4,-0.200399851311392,-7.384574071678E-4,-2.39073756663118,0.428588353352696,-1.02957952153461,0.0,-0.0011222299538715,0.0,409576.860565436,3.5502E-12,1061.00622558593,4.44351575671416,3.84945932630529,-6.3767612562656
600.0,-4582092.87368371,1235300.17314382,4832419.11548077,-3295950.20713059,-3410597.98504121,4835116.3114288,3146.69485603112,-6516.22735883593,-2525.48658446008,4.21885828414401,4.36575475992889,-6.20693808561339,6760360.86356758,1.06707203367362,-3.109955704599E-4,-0.199873128361918,-7.966730405023E-4,-2.36810030457777,0.477305259161748,-0.977875710221154,0.0,-0.0011222299538715,0.0,405794.940840314,3.9313E-12,1070.802734375,4.21885828414401,4.36575475992889,-6.20693808561339
660.0,-4818034.59746856,899194.881424506,4669970.6493495,-3099698.43601593,-3793411.55610789,4672529.62052862,3392.58398261959,-6239.24461728368,-2892.08135190894,3.97418784475513,4.8637544050902,-6.00810703871718,6760992.42135098,1.07144730308643,-3.726630002504E-4,-0.199279800211571,-8.474774920282E-4,-2.34198152173847,0.524875548503723,-0.923530536890918,0.0,-0.0011222299538715,0.0,401896.396916887,4.3536E-12,1080.32360839843,3.97418784475513,4.8637544050902,-6.00810703871718
720.0,-5034788.2953555,560939.329069882,4485913.29913928,-2889145.30462891,-4158721.81393174,4488322.23892289,3623.21636522884,-5932.99031975775,-3245.89316477568,3.71046903784718,5.34108139055684,-5.7809672346003,6761688.92041311,1.07582257249925,-4.384808018791E-4,-0.198618833074659,-8.902905156149E-4,-2.31207462246155,0.571093406929628,-0.866150918523769,0.0,-0.0011222299538715,0.0,397907.346677709,4.8186E-12,1089.50219726562,3.71046903784718,5.34108139055684,-5.7809672346003
780.0,-5231331.83737734,221910.969834155,4281063.84473062,-2665239.88211323,-4504811.07820459,4283311.62004686,3837.48047224011,-5598.77479244405,-3585.24781346686,3.42876370994522,5.79541343913305,-5.52635160316185,6762438.88042092,1.08019784191205,-5.079260989913E-4,-0.197889512187412,-9.245938338802E-4,-2.27804341613892,0.615723578532658,-0.805320928444332,0.0,-0.0011222299538715,0.0,393855.201851499,5.3278E-12,1098.28649902343,3.42876370994522,5.79541343913305,-5.52635160316185
840.0,-5406720.19638763,-116512.592146642,4056337.88489108,-2428995.96006589,-4830044.43088561,4058414.08979072,4034.331387517,-5238.04580081597,-3908.52510988822,3.130230440238,6.22449335225738,-5.24522815661387,6763229.23807306,1.08457311132487,-5.80431509298E-4,-0.197091450409558,-9.49933604579E-4,-2.23953072833746,0.658497185275644,-0.740609538334227,0.0,-0.0011222299538715,0.0,389768.379030439,5.8818E-12,1106.6337890625,3.130230440238,6.22449335225738,-5.24522815661387
900.0,-5560090.49200013,-452959.107772296,3812746.3549648,-2181487.88185509,-5132877.83861974,3814641.36125104,4212.79659527226,-4852.38430169208,-4214.16703274987,2.81612384340643,6.62614067971564,-4.93870131845671,6764045.54332074,1.08894838073768,-6.553889730638E-4,-0.196224595349686,-9.659210940171E-4,-2.19617345685161,0.699107991457945,-0.671584903514905,0.0,-0.0011222299538715,0.0,385675.995648247,6.4802E-12,1114.50952148437,2.81612384340643,6.62614067971564,-4.93870131845671
960.0,-5690666.79820996,-786067.233126493,3551391.55385524,-1923846.02638377,-5411865.99841592,3553096.55849593,4371.98170789325,-4443.4994517348,-4500.68594529801,2.48779329270935,6.99826486189989,-4.6080129323311,6764872.27393157,1.09332365015049,-7.321537285899E-4,-0.195289234560284,-9.722318777632E-4,-2.14762649395811,0.73720983281946,-0.597837598274158,0.0,-0.0011222299538715,0.0,381607.555026056,7.1218E-12,1121.8837890625,2.48779329270935,6.99826486189989,-4.6080129323311
1020.0,-5797764.67821664,-1114492.10820047,3273462.6768194,-1657251.95102837,-5665669.85926979,3274969.74586358,4511.07608874975,-4013.22278221607,-4766.67285158419,2.14668062533783,7.33887985498341,-4.25454244972551,6765693.24413284,1.0976989195633,-8.100483566376E-4,-0.194285998411977,-9.686041292931E-4,-2.0935979220477,0.772416288152419,-0.519015195786379,0.0,-0.0011222299538715,0.0,377592.623849442,7.8039E-12,1128.73071289062,2.14668062533783,7.33887985498341,-4.25454244972551
1080.0,-5880795.40622777,-1436910.94373324,2980230.85354853,-1382933.20212849,-5893063.7671669,2981532.96227427,4629.35829704255,-3563.50145827338,-5010.80562640704,1.79431645189887,7.64611995207955,-3.87980578457673,6766492.06932075,1.10207418897612,-8.883668569854E-4,-0.193215860380414,-9.548367082008E-4,-2.0338970172306,0.80430405688161,-0.434869716206493,0.0,-0.0011222299538715,0.0,373660.504978343,8.5221E-12,1135.02661132812,1.79431645189887,7.64611995207955,-3.87980578457673
1140.0,-5939269.83359501,-1752028.59079995,2673043.6957758,-1102157.80638471,-6092942.17667051,2674134.76480407,4726.20126299974,-3096.39056576071,-5231.85712581568,1.43231483398683,7.91825627309362,-3.48545242148466,6767252.64330272,1.10644945838892,-9.663787689432E-4,-0.192080134634827,-9.307877885392E-4,-1.96849424162766,0.832421788233729,-0.345317113992177,0.0,-0.0011222299538715,0.0,369839.90845719,9.2705E-12,1140.75036621093,1.43231483398683,7.91825627309362,-3.48545242148466
1200.0,-5972801.85602726,-2058583.06303343,2353319.3648804,-816228.462340676,-6264325.86992876,2354194.29200271,4801.07709299833,-2614.04440490116,-5428.70306525302,1.06236627779613,8.15371326893383,-3.07326053914067,6767959.58776165,1.11082472780174,-0.001043333394325,-0.190880470971666,-8.963746633276E-4,-1.8975880567891,0.856306046586332,-0.250503628377508,0.0,-0.0011222299538715,0.0,366158.624006791,1.00411E-11,1145.88317871093,1.06236627779613,8.15371326893383,-3.07326053914067
1260.0,-5981111.43996346,-2355350.97747218,2022540.17703797,-526476.457134441,-6406367.6238822,2023194.86452265,4853.56140652278,-2118.706809676,-5600.32954410458,0.686229168463638,8.35108459179471,-2.6451301096385,6768598.64403277,1.11519999721455,-0.0011184642174908,-0.189618847259306,-8.515751364804E-4,-1.82166724799808,0.875505368607211,-0.150867679179676,0.0,-0.0011222299538715,0.0,362643.199042392,1.0824E-11,1150.40747070312,0.686229168463638,8.35108459179471,-2.6451301096385
1320.0,-5964027.16922011,-2641152.87745468,1682245.77069749,-234255.339278727,-6518357.26869867,1682677.14786139,4883.33711848828,-1612.70054767599,-5745.84009841942,0.305719896611411,8.50914780197794,-2.20307410434371,6769156.99172357,1.11957526662736,-0.0011909936346537,-0.188297559631092,-7.964306040871E-4,-1.74155126111542,0.889611704009718,-0.0471798027874684,0.0,-0.0011222299538715,0.0,359318.627178119,1.16078E-11,1154.3076171875,0.305719896611411,8.50914780197794,-2.20307410434371
1380.0,-5921488.27724813,-2914858.399879,1334025.86794669,59065.6170779486,-6599726.08459546,1334231.90880467,4890.19759752618,-1098.4158816545,-5864.46217489526,-0.0772980183374636,8.62687756203474,-1.74920804019127,6769623.4933377,1.12395053604017,-0.0012601380994361,-0.186919210677722,-7.310505857746E-4,-1.65838850205414,0.898296012532675,0.0594594277738313,0.0,-0.0011222299538715,0.0,356208.053011513,1.2379E-11,1157.56982421875,-0.0772980183374636,8.62687756203474,-1.74920804019127
1440.0,-5853546.13515652,-3175391.24936094,979512.667292225,352108.117339458,-6650050.48960031,979492.403125279,4874.04914883893,-578.298389449974,-5955.55293437108,-0.460925523084514,8.70345714787759,-1.28573812504162,6769988.87536086,1.12832580545299,-0.0013251137629352,-0.185486695855213,-6.556181536413E-4,-1.57359797714451,0.901342140956061,0.167678126161451,0.0,-0.0011222299538715,0.0,353332.499514312,1.31231E-11,1160.18249511718,-0.460925523084514,8.70345714787759,-1.28573812504162
1500.0,-5760365.17060791,-3421733.94300014,620372.910433547,643491.679422783,-6669054.97682363,620126.437147509,4834.91278541993,-54.8361450730455,-6018.60430768755,-0.84324012781707,8.73828823064033,-0.814948222772858,6770245.86191666,1.13270107486579,-0.0013851426377421,-0.184003188261408,-5.70395476955E-4,-1.48875463280141,0.898671663261705,0.275948106381844,0.0,-0.0011222299538715,0.0,350710.624436084,1.38247E-11,1162.13720703125,-0.84324012781707,8.73828823064033,-0.814948222772858
1560.0,-5642223.19751122,-3652932.29120079,258299.669877624,931840.550980186,-6656614.26602724,257828.150056742,4772.92526186058,469.45363517704,-6053.24723807838,-1.22230837349235,8.73099892582246,-0.339185792929464,6770389.27654583,1.1370763442786,-0.0014394592539967,-0.182472121866507,-4.757285971204E-4,-1.40543861087806,0.890353408722482,0.382735975570324,0.0,-0.0011222299538715,0.0,348358.511707498,1.44683E-11,1163.42895507812,-1.22230837349235,8.73099892582246,-0.339185792929464
1620.0,-5499511.14113871,-3868099.58196472,-104996.092051759,1215790.66602089,-6612754.64052265,-105690.432458155,4688.33935086198,992.038376840911,-6059.25505177239,-1.59619859924599,8.68145007422238,0.139153094437601,6770416.12209522,1.14145161369142,-0.001487317710882,-0.180897173234548,-3.720505890644E-4,-1.3250832579708,0.87659508491412,0.486655472654379,0.0,-0.0011222299538715,0.0,346289.502960051,1.50387E-11,1164.05590820312,-1.59619859924599,8.68145007422238,0.139153094437601
1680.0,-5332732.14808053,-4066420.43812869,-467794.138923856,1493996.59498378,-6537654.44682009,-468708.019308462,4581.52334591496,1510.38425272764,-6036.54590387863,-1.96299396022741,8.58973964654178,0.617639581333955,6770325.64061252,1.14582688310422,-0.0015279989697093,-0.179282241757231,-2.598824452276E-4,-1.24885725461018,0.857719280693578,0.586585691997715,0.0,-0.0011222299538715,0.0,344514.07309114,1.55221E-11,1164.01940917968,-1.96299396022741,8.58973964654178,0.617639581333955
1740.0,-5142500.07558043,-4247154.31919589,-828373.693741198,1765138.44141895,-6431643.74122486,-829502.792930625,4452.95977715319,2021.9704920694,-5985.18425273335,-2.3208056207306,8.45620509698252,1.09382855789464,6770119.34748216,1.15020215251704,-0.0015608181937618,-0.177631428442251,-1.398313060578E-4,-1.17760232747199,0.834129955495516,0.68173373402934,0.0,-0.0011222299538715,0.0,343039.752465063,1.59066E-11,1163.32434082031,-2.3208056207306,8.45620509698252,1.09382855789464
1800.0,-4929537.36045431,-4409638.641865,-1185022.23087584,2027928.6378221,-6295203.07496751,-1186361.20656164,4303.24333347187,2524.3037644398,-5905.38132538065,-2.6677859917524,8.28142347103669,1.56527571552076,6769801.02931498,1.15457742192984,-0.0015851319220558,-0.175949013347155,-1.25860058498E-5,-1.11182815163961,0.80627674941942,0.771640181183789,0.0,-0.0011222299538715,0.0,341871.097009162,1.61825E-11,1161.97802734375,-2.6677859917524,8.28142347103669,1.56527571552076
1860.0,-4694672.27398183,-4553291.49627118,-1536044.26513056,2281118.59302412,-6128961.41752556,-1537586.77855667,4133.07799371079,3014.93249881274,-5797.49455107755,-3.00214182187012,8.06620911793128,2.02955484123934,6769376.69466588,1.15895269134266,-0.0016003448714286,-0.174239431810942,1.210897541996E-4,-1.05175052705713,0.774623138813344,0.856141320707125,0.0,-0.0011222299538715,0.0,341009.706249183,1.63435E-11,1159.9912109375,-3.00214182187012,8.06620911793128,2.02955484123934
1920.0,-4438835.57566936,-4677613.9384377,-1879770.07580186,2523505.14407853,-5933693.22638668,-1881508.82158888,3943.27338250216,3491.46099200763,-5662.02595808174,-3.32214691098091,7.81160896030388,2.48427502343065,6768854.47034532,1.16332796075546,-0.0016059161922857,-0.172507249691069,2.603660104941E-4,-0.997352850114571,0.73962184730683,0.935308099546529,0.0,-0.0011222299538715,0.0,340454.288270487,1.63864E-11,1157.37719726562,-3.32214691098091,7.81160896030388,2.48427502343065
1980.0,-4163056.58526513,-4782191.84345315,-2214564.30394238,2753936.76694798,-5710314.68025782,-2216491.04489261,3734.74038050764,3951.56316173092,-5499.61954923464,-3.6261542130083,7.51889540168857,2.92709743243161,6768244.44241517,1.16770323016828,-0.0016013650520405,-0.170757137848893,4.043561456411E-4,-0.948453052767025,0.701698364090558,1.00937964568383,0.0,-0.0011222299538715,0.0,340200.769669024,1.63116E-11,1154.15197753906,-3.6261542130083,7.51889540168857,2.92709743243161
2040.0,-3868458.69846727,-4866697.30829535,-2538834.36253542,2971319.50248095,-5459879.10119468,-2540939.9692281,3508.48603199393,4392.99580784611,-5311.05769095217,-3.91260712567473,7.18955706652682,3.35575138342995,6767558.44765683,1.17207849958109,-0.0015862754784585,-0.168993846135307,5.52126679858E-4,-0.904764262395779,0.661241692923337,1.07870311022515,0.0,-0.0011222299538715,0.0,340242.447709979,1.61228E-11,1150.33483886718,-3.91260712567473,7.18955706652682,3.35575138342995
2100.0,-3556254.37710747,-4930889.59776753,-2851038.60185273,3174622.55708017,-5183571.5989072,-2853313.09680568,3265.60780327547,4813.61125951717,-5097.25656555446,-4.18004981840043,6.82528763571746,3.7680494671387,6766809.82613704,1.1764537689939,-0.0015603004534167,-0.167222177113048,7.02706508142E-4,-0.865943656409797,0.618600671029557,1.14368536469901,0.0,-0.0011222299538715,0.0,340570.181078731,1.5827E-11,1145.94836425781,-4.18004981840043,6.82528763571746,3.7680494671387
2160.0,-3227739.64906593,-4974615.63148156,-3149694.17559433,3362883.54091087,-4882702.97735046,-3152126.78173792,3007.28725285325,5211.36930225555,-4859.26074717634,-4.42713650211601,6.42797305169174,4.16190161740349,6766013.14703186,1.18082903840671,-0.0015231652964987,-0.165446959723435,8.550950404791E-4,-0.831628470604744,0.574084102476163,1.20475760412149,0.0,-0.0011222299538715,0.0,341172.614760787,1.54339E-11,1141.01928710937,-4.42713650211601,6.42797305169174,4.16190161740349
2220.0,-2884288.156815,-4997810.01406308,-3433384.55721523,3535213.31029578,-4558702.94959023,-3435963.75039688,2734.78317869936,5584.34829449002,-4598.23696735919,-4.65263957911022,5.99967733339971,4.53532804559537,6765183.91791802,1.18520430781953,-0.0014746704112463,-0.163673023076832,0.0010082689674896,-0.801460593525618,0.527963218794046,1.26235143450256,0.0,-0.0011222299538715,0.0,342036.43374739,1.49552E-11,1135.5771484375,-4.65263957911022,5.99967733339971,4.53532804559537
2280.0,-2527344.79644028,-5000494.61473601,-3700766.65991403,3690800.38497279,-4213112.71195192,-3703480.22512646,2449.42431145984,5930.7553962508,-4315.46713978583,-4.8554566199747,5.54262719386392,4.88647099290439,6764338.28340832,1.18957957723233,-0.0014146934805499,-0.161905170530183,0.0011611876601119,-0.775102129224934,0.480475363499946,1.31688407491215,0.0,-0.0011222299538715,0.0,343146.639507876,1.44043E-11,1129.65856933593,-4.8554566199747,5.54262719386392,4.88647099290439
2340.0,-2158418.99140196,-4982777.70623402,-3950577.51801592,3828914.91511723,-3847576.93278076,-3953412.60902102,2152.6016257499,6248.93584311386,-4012.34071687716,-5.0346161054212,5.05919562520077,5.21360523593644,6763492.71427775,1.19395484664514,-0.0013431911920061,-0.160148154217113,0.001312797469293,-0.752244364731159,0.431828159555619,1.36875025216611,0.0,-0.0011222299538715,0.0,344486.842606965,1.37956E-11,1123.30322265625,-5.0346161054212,5.05919562520077,5.21360523593644
2400.0,-1779077.6472478,-4944852.67666748,-4181640.49197759,3948912.17747982,-3463835.21485416,-4184583.69397921,1845.76034578809,6537.38120864457,-3690.34645580551,-5.18928186120392,4.55188463045732,5.51514724853715,6762663.68524403,1.19833011605796,-0.0012602005522262,-0.158406650214172,0.0014620353792284,-0.732612222169497,0.382203705602165,1.41831872472849,0.0,-0.0011222299538715,0.0,346039.564577599,1.31434E-11,1116.5576171875,-5.18928186120392,4.55188463045732,5.51514724853715
2460.0,-1390937.83491393,-4886996.33157904,-4392870.96408211,4050235.58469355,-3063713.09354111,-4395908.35908627,1530.39172574783,6794.73661086549,-3351.06367804242,-5.31875612496572,4.02330733809505,5.78966290265882,6761867.33986519,1.20270538547076,-0.0011658398170357,-0.156685234550028,0.0016078325590381,-0.715965803182059,0.331762550950647,1.46593184720343,0.0,-0.0011222299538715,0.0,347786.542250464,1.24622E-11,1109.47387695312,-5.31875612496572,4.02330733809505,5.78966290265882
2520.0,-995659.250973922,-4809566.80686845,-4583281.49714212,4132419.19671467,-2649112.63500283,-4586398.73163232,1208.0246877421,7019.80683466806,-2996.15311329554,-5.42248122752172,3.47616980998457,6.03587360856196,6761119.14493564,1.20708065488357,-0.001060309029169,-0.154988360278891,0.0017491183459086,-0.702100190358212,0.280647333880532,1.51190703253136,0.0,-0.0011222299538715,0.0,349709.028182157,1.17652E-11,1102.10961914062,-5.42248122752172,3.47616980998457,6.03587360856196
2580.0,-594936.503035247,-4713001.11635089,-4751986.43412529,4195089.7283279,-2222002.69981535,-4755168.78867305,880.21739927597,7211.56136261525,-2627.34742295708,-5.50003994635093,2.91325290977736,6.25266085937864,6760433.54327387,1.21145592429638,-9.438901236384E-4,-0.15332033583148,0.0018848250882964,-0.690844310846548,0.228986050926655,1.55653933164893,0.0,-0.0011222299538715,0.0,351788.081533708,1.10647E-11,1094.52783203125,-5.50003994635093,2.91325290977736,6.25266085937864
2640.0,-190491.26733005,-4597812.36016038,-4898205.92232514,4237968.05139904,-1784408.93717576,-4901438.38275275,548.548865856608,7369.1383289686,-2246.4414973842,-5.55115467863778,2.33739459964037,6.43906924573408,6759823.62077321,1.2158311937092,-8.169465388854E-4,-0.151685304819272,0.0020138941065398,-0.682059398477153,0.176894972960839,1.60010462255091,0.0,-0.0011222299538715,0.0,354004.844589209,1.03716E-11,1086.79516601562,-5.55115467863778,2.33739459964037,6.43906924573408
2700.0,215935.636512067,-4464586.62177456,-5021269.3511726,4260870.19478425,-1338403.5733346,-5024536.68088451,214.610603177859,7491.84743206577,-1855.28261411132,-5.57568565761788,1.75147296145897,6.59430811348848,6759300.80849446,1.220206463122,-6.799222628312E-4,-0.150087227402825,0.0021352828244746,-0.675637400334763,0.124481249655684,1.64286309449952,0.0,-0.0011222299538715,0.0,356340.800912011,9.6949E-12,1078.98059082031,-5.57568565761788,1.75147296145897,6.59430811348848
2760.0,622592.211197762,-4313979.58199502,-5120618.19764171,4263707.8482382,-886095.055329117,-5123905.01074393,-120.001561462684,7579.17185412033,-1455.76053114638,-5.57362847182551,1.15839010291543,6.71775211530401,6758874.64126505,1.22458173253482,-5.333402479932E-4,-0.14852986325406,0.0022479729257371,-0.671499544171357,0.0718452562649063,1.68506284590302,0.0,-0.0011222299538715,0.0,358778.011777068,9.042E-12,1071.15087890625,-5.57362847182551,1.15839010291543,6.71775211530401
2820.0,1027723.24854455,-4146712.87784451,-5195808.27717712,4246488.37917978,-429617.607957097,-5199099.11200845,-453.695524098165,7630.76924224085,-1049.79757356154,-5.54511112580702,0.561056944787385,6.80894092530343,6758552.58972333,1.22895700194763,-3.778001475128E-4,-0.147016756064206,0.0023509792243212,-0.669595197593234,0.0190827414763376,1.72694350238929,0.0,-0.0011222299538715,0.0,361299.327923617,8.4184E-12,1063.36926269531,-5.54511112580702,0.561056944787385,6.80894092530343
2880.0,1429578.26037094,-3963570.2333064,-5246511.40109816,4209314.37284692,28879.2411981368,-5249790.79380339,-784.890753242686,7646.4717997383,-639.338756618804,-5.4903908052334,-0.0376212565786358,6.86757833549408,6758339.97355889,1.23333227136044,-2.139753510113E-4,-0.145551219493267,0.0024433588329404,-0.66990109483224,-0.0337131638638819,1.76873981779806,0.0,-0.0011222299538715,0.0,363888.573861215,7.8279E-12,1055.69079589843,-5.4903908052334,-0.0376212565786358,6.86757833549408
2940.0,1826419.33846373,-3765393.38753709,-5272516.44369091,4152382.70747019,487241.116505002,-5275769.00147294,-1112.02593772468,7626.285525372,-226.341978507649,-5.40985040071999,-0.634758871876142,6.89353084737871,6758239.95188202,1.23770754077325,-4.26093310401E-5,-0.144136324438668,0.0025242201756284,-0.672420971457565,-0.0864500178187577,1.81068525456716,0.0,-0.0011222299538715,0.0,366530.702034477,7.2729E-12,1048.1591796875,-5.40985040071999,-0.634758871876142,6.89353084737871
3000.0,2216528.90970679,-3553077.84504222,-5273729.82405451,4075983.17699574,943319.178456041,-5276940.29775045,-1433.5664176108,7570.3886250619,187.231687278381,-5.30399473739368,-1.22750354760925,6.88682574737498,6758253.57519918,1.24208281018606,1.35488657187E-4,-0.142774887525556,0.0025927314208549,-0.677185623440863,-0.139034159546657,1.85301555739309,0.0,-0.0011222299538715,0.0,369211.914265369,6.7544E-12,1040.806640625,-5.30399473739368,-1.22750354760925,6.88682574737498
3060.0,2598217.35299143,-3327568.47162345,-5250175.40965583,3980496.67496916,1394980.38811057,-5253328.76529057,-1748.01137707668,7479.12911134495,599.427565973218,-5.17344638678381,-1.81304963615613,6.84764855410733,6758379.87548004,1.24645807959887,3.194484525297E-4,-0.141469460782681,0.0026481279965234,-0.684253388028604,-0.191368764155272,1.89597233842272,0.0,-0.0011222299538715,0.0,371919.748207838,6.2721E-12,1033.65454101562,-5.17344638678381,-1.81304963615613,6.84764855410733
3120.0,2969830.44489387,-3089854.95976532,-5201993.85081909,3866392.95469838,1840117.60347748,-5205075.33980014,-2053.90077005032,7353.02160468455,1008.30677975377,-5.01894092790581,-2.3886513471332,6.77633968611258,6758615.96859675,1.25083334901168,5.083443509884E-4,-0.140222322548332,0.0026897189692424,-0.693711024129251,-0.243351801392966,1.93980668443215,0.0,-0.0011222299538715,0.0,374643.127188669,5.8253E-12,1026.71447753906,-5.01894092790581,-2.3886513471332,6.77633968611258
3180.0,3329756.60179555,-2840967.18739505,-5129441.35817049,3734227.98277999,2276659.46055661,-5132436.58579893,-2349.82194281166,7192.74335896634,1411.95541957494,-4.84132157907022,-2.9516354120774,6.67339023621072,6758957.14783081,1.2552086184245,7.012008545417E-4,-0.139035469726742,0.00271689220546,-0.705674943496457,-0.29487383865079,1.9847827749562,0.0,-0.0011222299538715,0.0,377372.372804971,5.4124E-12,1019.99267578125,-4.84132157907022,-2.9516354120774,6.67339023621072
3240.0,3676433.88755447,-2581970.4942894,-5032887.9382399,3584640.90530799,2702579.99353538,-5035782.930226,-2634.4159158849,6999.12954897821,1808.49343609285,-4.64153322239216,-3.49941296923616,6.53943684279632,6759396.95722774,1.2595838878373,8.969987047272E-4,-0.137910611562541,0.0027291183600069,-0.720292703993083,-0.345815628539167,2.03118146110106,0.0,-0.0011222299538715,0.0,380099.180935899,5.0316E-12,1013.49267578125,-4.64153322239216,-3.49941296923616,6.53943684279632
3300.0,4008356.7581845,-2313960.90042558,-4912815.10563023,3418350.64823643,3115907.95144112,-4915596.37231718,-2906.38329226547,6773.16787540834,2196.08319857634,-4.42061595432794,-4.02949038809255,6.37525578356939,6759927.24681408,1.26395915725012,0.0010946811081163,-0.136849165101868,0.0027259538409823,-0.737744613882404,-0.396045423113264,2.07930369084637,0.0,-0.0011222299538715,0.0,382816.563249105,4.6811E-12,1007.21795654296,-4.42061595432794,-4.02949038809255,6.37525578356939
3360.0,4324082.51811648,-2038060.28996485,-4769813.09292611,3236152.17504802,3514735.772332,-4772467.69094179,-3164.48976974056,6515.99255677648,2572.93768201031,-4.1796983783726,-4.53947886626636,6.1817565362474,6760538.22462168,1.26833442666293,0.0012931600757291,-0.135852252457961,0.002707042967214,-0.758245199936343,-0.445415963275185,2.12947356768601,0.0,-0.0011222299538715,0.0,385518.757629094,4.3588E-12,1001.17370605468,-4.1796983783726,-4.53947886626636,6.1817565362474
3420.0,4622237.46606528,-1755411.5831927,-4604577.58141346,3038912.42580223,3897228.18047403,-4607093.17248783,-3407.57124908377,6228.87778254729,2937.32825942225,-3.91999087967143,-5.02710281200167,5.95997510978659,6761218.52961455,1.27270969607574,0.0014913228170605,-0.134920699904091,0.0026721195606562,-0.782044147514375,-0.493761107247541,2.182040681504,0.0,-0.0011222299538715,0.0,388201.112015275,4.0627E-12,995.367431640625,-3.91999087967143,-5.02710281200167,5.95997510978659
3480.0,4901522.71171976,-1467173.91673603,-4417905.97651556,2827565.96171531,4261630.37626503,-4420270.88321872,-3634.5385432264,5913.23069503938,3287.59209433888,-3.64277907437834,-5.49020721662786,5.71106742359025,6761955.35241568,1.27708496548855,0.0016880381488161,-0.134055038697557,0.0026210082022806,-0.809426110334321,-0.540892092945705,2.23738113673301,0.0,-0.0011222299538715,0.0,390859.946753164,3.791E-12,989.808471679687,-3.64277907437834,-5.49020721662786,5.71106742359025
3540.0,5160719.64684349,-1174517.85007641,-4210693.25171116,2603110.33882797,4606275.79225995,-4212896.50988453,-3844.38170114025,5570.58395090233,3622.13914203457,-3.34941752107257,-5.92676436060021,5.43630290372027,6762734.62619408,1.28146023490136,0.0018821628958046,-0.133255507421976,0.0025536253328142,-0.840708494418044,-0.586593485463479,2.29589640632107,0.0,-0.0011222299538715,0.0,393492.400668623,3.5418E-12,984.508544921875,-3.34941752107257,-5.92676436060021,5.43630290372027
3600.0,5398695.05557718,-878620.614236919,-3983927.38396976,2366601.23341353,4929593.39103916,-3985958.7916395,-4036.17396146234,5202.58789055326,3939.45877369654,-3.04132364888026,-6.33488023647305,5.13705830409511,6763541.29906061,1.28583550431417,0.0020725482745591,-0.132522055548631,0.0024699803088894,-0.87623593595159,-0.630618956489031,2.35800875226265,0.0,-0.0011222299538715,0.0,396096.265718196,3.3133E-12,979.480102539062,-3.04132364888026,-6.33488023647305,5.13705830409511
3660.0,5614405.84876431,-580661.416963115,-3738684.40297898,2119147.34103529,5230114.48170333,-3740534.56555703,-4209.07534442992,4811.00232269358,4238.12603302602,-2.71997173793131,-6.71280099562951,4.81481159469361,6764359.68432924,1.29021077372699,0.0022580462578614,-0.131854347881962,0.0023701764429996,-0.916369733392621,-0.672687194541328,2.42415149132678,0.0,-0.0011222299538715,0.0,398669.81439197,3.104E-12,974.735595703125,-2.71997173793131,-6.71280099562951,4.81481159469361
3720.0,5806903.40632487,-281816.818032435,-3476123.07623582,1861905.07099447,5506479.03174594,-3477783.44782993,-4362.33587845543,4397.68791743562,4516.80752135863,-2.38688671942313,-7.05891955224775,4.47113563814252,6765173.86953095,1.29458604313979,0.0024375159197744,-0.131251769578577,0.0022544119742201,-0.961470034188901,-0.712478471151579,2.49475192225359,0.0,-0.0011222299538715,0.0,401211.623257694,2.9123E-12,970.287353515625,-2.38688671942313,-7.05891955224775,4.47113563814252
3780.0,5975337.51069588,16743.8114712705,-3197479.25284581,1596073.05855827,5757441.45055542,-3198942.1735164,-4495.29844344136,3964.59720009753,4774.26688905145,-2.0436375663761,-7.37178225738152,4.10769133773028,6765968.15274461,1.29896131255261,0.0026098297568623,-0.130713431508495,0.0021229808473266,-1.01186829656376,-0.749632697977078,2.57020444870444,0.0,-0.0011222299538715,0.0,403720.395351314,2.7368E-12,966.146423339843,-2.0436375663761,-7.37178225738152,4.10769133773028
3840.0,6118959.85384288,313862.731212711,-2904059.89075919,1322886.51880816,5981875.82060898,-2905318.6195787,-4607.40120114211,3513.76514931221,5009.36989309632,-1.69183012160574,-7.65009535216302,3.72621999613103,6766727.46849745,1.30333658196542,0.0027738799729185,-0.130238175844204,0.0019762731294675,-1.06782779220836,-0.783750186440593,2.65083167584888,0.0,-0.0011222299538715,0.0,406194.783717356,2.5762E-12,962.3212890625,-1.69183012160574,-7.65009535216302,3.72621999613103
3900.0,6237127.10091558,608398.159170312,-2597236.79497169,1043611.4679364,6178780.55325391,-2598285.5387611,-4698.17957725712,3047.29942490567,5221.0889690106,-1.3330993344458,-7.89273078056798,3.32853475904823,6767437.76659995,1.30771185137822,0.0029285847037918,-0.12982458189173,0.0018147748721013,-1.12949122332751,-0.814396691485516,2.7368325645593,0.0,-0.0011222299538715,0.0,408633.218370074,2.4292E-12,958.81884765625,-1.3330993344458,-7.89273078056798,3.32853475904823
3960.0,6329303.49558738,899228.468031162,-2278440.09745709,759538.83990535,6347282.44828347,-2279274.03509548,-4767.26776241296,2567.37027729972,5408.50726267661,-0.969101015988433,-8.09873092436955,2.91651119290503,6768086.31547949,1.31208712079104,0.0030728941477108,-0.12947097229011,0.0016390672336644,-1.19681752736287,-0.841114518153451,2.82821972578027,0.0,-0.0011222299538715,0.0,411033.739272733,2.2948E-12,955.64306640625,-0.969101015988433,-8.09873092436955,2.91651119290503
4020.0,6395062.99543125,1185256.23354616,-1949151.51266406,471978.528083078,6486640.14036544,-1949766.81488917,-4814.39970936437,2076.20021409502,5570.82207588842,-0.601503334851273,-8.26731191817271,2.49207721135969,6768661.91489483,1.31646239020385,0.0032057965569588,-0.129175419778261,0.0014498247140834,-1.26951498962715,-0.863441217719235,2.92475298348053,0.0,-0.0011222299538715,0.0,413393.838504012,2.172E-12,952.794555664062,-0.601503334851273,-8.26731191817271,2.49207721135969
4080.0,6434090.92995286,1465412.11869787,-1610897.40471937,182253.382386136,6596246.92043904,-1611291.2493609,-4839.40961907724,1576.05351497303,5707.34769595642,-0.231978331535459,-8.39786538038249,2.05720267698733,6769155.01826919,1.32083765961666,0.0033263240404606,-0.128935754747466,0.0012478124108607,-1.3469842395072,-0.880936370299907,3.02588278913901,0.0,-0.0011222299538715,0.0,415710.315418182,2.0598E-12,950.270629882812,-0.231978331535459,-8.39786538038249,2.05720267698733
4140.0,6446185.17851516,1738658.57916951,-1265241.70363974,-108306.807602794,6675632.92583494,-1265412.28625012,-4842.23192500236,1069.22568966735,5817.51760064383,0.13780628323025,-8.48995860387994,1.61388903463725,6769557.77884836,1.32521292902947,0.0034335581251156,-0.128749573762782,0.0010338822801347,-1.4282901441823,-0.893214956947386,3.13072250829182,0.0,-0.0011222299538715,0.0,417979.149104723,1.9573E-12,948.065185546875,0.13780628323025,-8.48995860387994,1.61388903463725
4200.0,6431256.86969117,2003993.37791679,-913778.707757452,-398371.314074596,6724466.69836386,-913725.247628071,-4822.9007988252,558.032965468909,5900.88604987146,0.506194854103181,-8.54333342957898,1.16415927917853,6769864.04352058,1.32958819844228,0.0035266350269488,-0.128614249158753,8.089684649326E-4,-1.51218186627839,-0.899983141597871,-3.04511645560203,0.0,-0.0011222299538715,0.0,420195.392636359,1.8638E-12,946.168090820312,0.506194854103181,-8.54333342957898,1.16415927917853
4260.0,6389330.60705563,2260452.89924788,-558125.8083977,-686614.429203516,6742556.11432942,-557848.549970322,-4781.54920933186,44.8018737553132,5957.12909053193,0.871550947449007,-8.55790413027054,0.710048444214966,6770069.32161056,1.33396346785509,0.0036047505911284,-0.128526939714691,5.740818258913E-4,-1.59717155966514,-0.901069880622736,-2.93670437710318,0.0,-0.0011222299538715,0.0,422353.093349123,1.7787E-12,944.56591796875,0.871550947449007,-8.55790413027054,0.710048444214966
4320.0,6320544.22881511,2507115.25530429,-199916.171014424,-971721.35431971,6729848.69398124,-199416.380717775,-4718.40756763668,-468.14101532227,5986.04500775102,1.23226398548551,-8.53375463954351,0.253594657953138,6770170.75298723,1.33833873726791,0.0036671648719005,-0.128484602316475,3.303038670256E-4,-1.68166464249026,-0.896447079823538,-2.82877442785696,0.0,-0.0011222299538715,0.0,424445.242704496,1.7012E-12,943.240417480468,1.23226398548551,-8.53375463954351,0.253594657953138
4380.0,6225148.11004307,2743103.179855,159208.595011901,-1252393.99612871,6686431.30030757,159928.636451251,-4633.80198777475,-978.479178889032,5987.5542548455,1.58675545528681,-8.47113537933642,-0.20316931000943,6770167.09160758,1.34271400668071,0.0037132063378824,-0.128484004438044,7.87802824525E-5,-1.76411526569327,-0.886233030467036,-2.72282563184964,0.0,-0.0011222299538715,0.0,426463.758213878,1.6308E-12,942.17578125,1.58675545528681,-8.47113537933642,-0.20316931000943
4440.0,6103504.01694587,2967586.70571956,517605.747455611,-1527356.64758372,6612529.23855271,518542.757161139,-4528.15218409203,-1483.9160283215,5961.69888721118,1.93348482860299,-8.37045980367596,-0.658224158053486,6770058.70951044,1.34708927609353,0.0037422757033127,-0.12852173724153,-1.792856456008E-4,-1.84317013069429,-0.870678181065375,-2.62016400583171,0.0,-0.0011222299538715,0.0,428399.49860583,1.5672E-12,941.367980957031,1.93348482860299,-8.37045980367596,-0.658224158053486
4500.0,5956083.52300193,3179785.62294921,873638.673983507,-1795361.53206579,6508504.76891015,874788.383451347,-4401.96901922608,-1982.18458000872,5908.64151609573,2.27095530274681,-8.23230063310334,-1.10957196899268,6769847.6151523,1.35146454550634,0.0037538493998168,-0.128594229105477,-4.426395923396E-4,-1.91776872478978,-0.850137066293647,-2.52180196824281,0.0,-0.0011222299538715,0.0,430242.312070836,1.5102E-12,940.81201171875,2.27095530274681,-8.23230063310334,-1.10957196899268
4560.0,5783465.997434,3378971.71532533,1225684.07803743,-2055194.19019118,6374855.04598725,1227041.25393303,-4255.85171171112,-2471.05688782217,5828.6637906067,2.59771940594373,-8.05738565040913,-1.55524402764211,6769537.47154227,1.35583981491915,0.0037474827142665,-0.128697759439589,-7.099825255361E-4,-1.98718521862234,-0.825033244481229,-2.42841607425059,0.0,-0.0011222299538715,0.0,431981.116206631,1.4594E-12,940.498107910156,2.59771940594373,-8.05738565040913,-1.55524402764211
4620.0,5586336.17758208,3564470.77308513,1572139.05973446,-2305678.68907895,6212209.50022722,1573697.52884631,-4090.48471210912,-2948.35320604458,5722.16441335493,2.91238442798927,-7.8465928943019,-1.99330854051456,6769133.59576179,1.36021508433196,0.0037228126250412,-0.128828472717255,-9.799767463451E-4,-2.05101663836419,-0.795824367404183,-2.3403584588044,0.0,-0.0011222299538715,0.0,433604.007346209,1.4145E-12,940.41259765625,2.91238442798927,-7.8465928943019,-1.99330854051456
4680.0,5365481.33839973,3735664.38033392,1911428.06403834,-2545682.63456116,6021326.67862816,1913180.74225601,-3906.63426113092,-3411.95084262176,5589.65669799652,3.21361756773547,-7.600945130108,-2.4218781638435,6768642.92279927,1.36459035374478,0.0036795603704907,-0.128982392733775,-0.0012512516303494,-2.10913442233121,-0.762972581344679,-2.25770487214837,0.0,-0.0011222299538715,0.0,435098.396346079,1.3754E-12,940.537353515625,3.21361756773547,-7.600945130108,-2.4218781638435
4740.0,5121788.07431618,3891991.47653849,2242009.66916448,-2774121.96784817,5803090.56467124,2243948.59433288,-3705.14465092892,-3859.79265815489,5431.76568470309,3.50015065603771,-7.32160357722903,-2.83911718225353,6768073.92251392,1.36896562315758,0.0036175337796077,-0.129155437159428,-0.0015224091388499,-2.16161933430516,-0.726922731008363,-2.1803193291666,0.0,-0.0011222299538715,0.0,436451.167632329,1.3418E-12,940.846313476562,3.50015065603771,-7.32160357722903,-2.83911718225353
4800.0,4856238.71073858,4032949.69284865,2562383.18944128,-2989965.52968513,5558506.4000081,2564499.55792916,-3486.93421904142,-4289.89516850666,5249.22483969577,3.77078432676303,-7.00986099562968,-3.24324816836634,6767436.46718127,1.37334089257039,0.0035366293861844,-0.129343432487516,-0.001792029231898,-2.2086956925759,-0.688088514411159,-2.10791940654478,0.0,-0.0011222299538715,0.0,437648.858263142,1.3135E-12,941.309143066406,3.77078432676303,-7.00986099562968,-3.24324816836634
4860.0,4569907.3641252,4158096.46562965,2871095.06870429,-3192239.37700599,5288696.03273381,2873379.27551231,-3252.99111061496,-4700.35621830644,5042.8723741293,4.02439156412448,-6.66713433619981,-3.63255799637718,6766741.65606662,1.37771616198321,0.0034368343354759,-0.129542129472592,-0.0020586753533986,-2.25067440710655,-0.646845345354836,-2.04013268752609,0.0,-0.0011222299538715,0.0,438677.853846258,1.291E-12,941.979064941406,4.02439156412448,-6.66713433619981,-3.63255799637718
4920.0,4263955.67054034,4267049.9312641,3166745.04259921,-3380030.83931235,4994892.81862691,3169186.72482191,-3004.36884652644,-5089.36220671884,4813.6472228996,4.25992063335691,-6.29495720854002,-4.00540316485525,6766001.61041428,1.38209143139601,0.0033182280778332,-0.129747219116489,-0.0023209001691974,-2.28790857763048,-0.603528169642263,-1.97654059263943,0.0,-0.0011222299538715,0.0,439524.598215743,1.2747E-12,942.917602539062,4.25992063335691,-6.29495720854002,-4.00540316485525
4980.0,3939628.20278845,4359489.60773377,3447992.05062566,-3552492.30420161,4678436.10240171,3450580.13407242,-2742.18173224287,-5455.19486179021,4562.5847238001,4.47639747787062,-5.89497239941356,-4.36021447766938,6765229.25533566,1.38646670080883,0.0031809838292367,-0.129954349201888,-0.0025772517210982,-2.32076163506881,-0.558432545550576,-1.91670960400008,0.0,-0.0011222299538715,0.0,440175.81372429,1.265E-12,944.174682617187,4.47639747787062,-5.89497239941356,-4.36021447766938
5040.0,3598247.59573018,4435156.86949802,3713559.88104079,-3708844.7233741,4340765.30586009,3716282.6298131,-2467.60013561031,-5796.23757149632,4290.81203213375,4.67292771515791,-5.4689245939881,-4.69550120572768,6764438.10357897,1.39084197022164,0.0030253697656637,-0.130159141312137,-0.0028262801162427,-2.34958612931966,-0.511817629037988,-1.86021176869509,0.0,-0.0011222299538715,0.0,440618.728797463,1.2624E-12,945.795471191406,4.67292771515791,-5.4689245939881,-4.69550120572768
5100.0,3241209.39849744,4493855.22266113,3962242.53360049,-3848380.83189146,3983413.64913497,3965087.60241627,-2181.84565338704,-6110.98128540836,3999.54329737413,4.84869837085319,-5.0186533386398,-5.00985488201478,6763642.05056288,1.39521723963445,0.0028517499086059,-0.130357208229671,-0.0030665448097654,-2.37471069016366,-0.463910091153025,-1.80663694139116,0.0,-0.0011222299538715,0.0,440841.309049071,1.2674E-12,947.823974609375,4.84869837085319,-5.0186533386398,-5.00985488201478
5160.0,2869976.67141511,4535450.38742985,4192909.28644257,-3970468.07441219,3608001.53038022,4195863.77549228,-1886.18617885034,-6398.02999989947,3690.07461975504,5.00297945469324,-4.54608617798674,-5.3019528593194,6762855.18195341,1.39959250904726,0.0026605846534757,-0.130544171587802,-0.0032966224685781,-2.39643281959763,-0.414908334594487,-1.75559909277098,0.0,-0.0011222299538715,0.0,440832.487855735,1.2807E-12,950.303466796875,5.00297945469324,-4.54608617798674,-5.3019528593194
5220.0,2486074.34483038,4559870.19458611,4404509.45428993,-4074551.23271896,3216229.58865331,4407559.96640402,-1581.93087842686,-6656.10583362967,3363.77879873247,5.13512541758774,-4.05323183722426,-5.57056169359831,6762091.5867804,1.40396777846008,0.0024524308921883,-0.130715679666782,-0.0035151153357043,-2.41501559444174,-0.364986634163273,-1.70673858759946,0.0,-0.0011222299538715,0.0,440582.391957769,1.303E-12,953.27880859375,5.13512541758774,-4.05323183722426,-5.57056169359831
5280.0,2091083.3569094,4567104.30238487,4596076.82580587,-4160154.74930167,2809871.47457249,4599209.52570789,-1270.42508506616,-6884.05369211532,3022.09988401415,5.24457645979707,-3.54217332621269,-5.8145403312989,6761365.1630735,1.40834304787288,0.0022279416849857,-0.130867425272395,-0.003720659957356,-2.43068683092737,-0.314299004181775,-1.6597218607659,0.0,-0.0011222299538715,0.0,440082.557521871,1.3352E-12,956.796508789062,5.24457645979707,-3.54217332621269,-5.8145403312989
5340.0,1686634.58772084,4557203.74014957,4766733.76865937,-4226884.74231055,2390766.35359008,4769934.44407478,-953.04511946249,-7080.84551464195,2666.54754340582,5.33085961305462,-3.01506091366937,-6.03284300903198,6760689.40120643,1.4127183172857,0.0019878654439223,-0.130995163699906,-0.0039119360953826,-2.44363968028496,-0.262982710843732,-1.61423949942401,0.0,-0.0011222299538715,0.0,439326.132265415,1.3786E-12,960.904541015625,5.33085961305462,-3.01506091366937,-6.03284300903198
5400.0,1274402.60732474,4530280.28498013,4915694.99190214,-4274430.708009,1960811.16715569,4918949.11628844,-631.193055245898,-7245.58409698536,2298.69126826344,5.39358951472843,-2.47410503393469,-6.22452174853374,6760077.13351614,1.41709358669851,0.0017330446003058,-0.131094730849526,-0.0040876756291016,-2.45403395220119,-0.211161416903965,-1.57000340830572,0.0,-0.0011222299538715,0.0,438308.05973798,1.4344E-12,965.650817871093,5.39358951472843,-2.47410503393469,-6.22452174853374
5460.0,856099.255739765,4486505.67836061,5042270.95670367,-4302566.90795114,1521952.67725149,5045563.75336477,-306.291448080552,-7377.50649071546,1920.15444361623,5.432468836598,-1.92156930372735,-6.38872836530976,6759540.24694984,1.42146885611132,0.0014644137389508,-0.131162061601454,-0.0042466712529984,-2.46199770309831,-0.158947985353202,-1.52674349181485,0.0,-0.0011222299538715,0.0,437025.242639477,1.5043E-12,971.080322265625,5.432468836598,-1.92156930372735,-6.38872836530976
5520.0,433467.072205712,4426110.68985415,5145870.92821264,-4311153.43932666,1076179.31936354,5149187.43555794,20.2219515135197,-7475.98699293071,1532.6083123786,5.44728841457329,-1.35976389624893,-6.52471600229358,6759089.36684131,1.42584412552413,0.0011829971921467,-0.131193208561706,-0.0043877847960571,-2.46762879369136,-0.106446989062053,-1.48420411561213,0.0,-0.0011222299538715,0.0,435476.683007883,1.59E-12,977.228698730468,5.44728841457329,-1.35976389624893,-6.52471600229358
5580.0,8272.58990023428,4349384.03520089,5226005.66298336,-4300136.98796245,625512.887669855,5229330.80069088,346.899487533501,-7540.5397552564,1137.76585867193,5.43792722400021,-0.791039509510437,-6.63184032649858,6758733.53183286,1.43021939493695,8.899060948397E-4,-0.13118436124649,-0.0045099550195699,-2.47099623295147,-0.053756982603807,-1.44214049466965,0.0,-0.0011222299538715,0.0,433663.598063471,1.6939E-12,984.114501953125,5.43792722400021,-0.791039509510437,-6.63184032649858
5640.0,-417700.489715209,4256671.15569232,5282289.72758141,-4269551.26400157,172000.074118216,5285608.3634232,672.288887240312,-7570.82105249913,737.375623203019,5.40435242545934,-0.217782062257658,-6.70956064885473,6758479.8894674,1.43459466434975,5.863349087932E-4,-0.131131865685177,-0.00461220478617,-2.47214119926722,-9.725956556991E-4,-1.40031507895491,0.0,-0.0011222299538715,0.0,431589.511265109,1.818E-12,991.731079101562,5.40435242545934,-0.217782062257658,-6.70956064885473
5700.0,-842658.231082888,4148372.86448584,5314443.4442356,-4219517.12001676,-282296.119498327,5317740.46132327,994.938561201755,-7566.63125424442,333.215445423513,5.34661973743269,0.357591929283818,-6.75744130363872,6758333.4464375,1.43896993376255,2.735574277148E-4,-0.131032244303984,-0.004693647528209,-2.47107767691597,0.0518134922937564,-1.35849396028509,0.0,-0.0011222299538715,0.0,429260.318563647,1.9648E-12,1000.03857421875,5.34661973743269,0.357591929283818,-6.75744130363872
5760.0,-1264803.49751111,4024943.86353737,5322294.4584707,-4150242.35014995,-735305.07974578,5325554.82267653,1313.40294120774,-7527.91653348628,-72.9138933750159,5.26487435592034,0.93263955475702,-6.77515362197654,6758296.90524141,1.44334520317537,-4.70777222691E-5,-0.130882215827123,-0.0047534929743282,-2.46779267664362,0.1045086368432,-1.31644329628624,0.0,-0.0011222299538715,0.0,426684.32984378,2.1367E-12,1008.95922851562,5.26487435592034,0.93263955475702,-6.77515362197654
5820.0,-1682343.07427882,3886891.13227757,5305778.92154508,-4062021.1669313,-1184957.37476479,5308987.74885163,1626.2478930159,-7454.77032474776,-479.1951696244,5.15935253676487,1.50489574410453,-6.76247874189455,6758370.60985316,1.44772047258818,-3.741520712882E-4,-0.130678714825968,-0.0047910521175685,-2.46224603070652,0.157018314652931,-1.27392573469995,0.0,-0.0011222299538715,0.0,423872.285140764,2.3362E-12,1018.38244628906,5.15935253676487,1.50489574410453,-6.76247874189455
5880.0,-2093494.87283294,3734772.18644507,5264942.27755981,-3955233.35009268,-1629193.62708365,5268084.90108528,1932.05624342364,-7347.43451329431,-883.801413099272,5.03038380415254,2.07187809319227,-6.71931132896855,6758552.60836347,1.45209574200099,-7.061827673084E-4,-0.130418910484673,-0.0048057414277527,-2.45436977131968,0.209244151977237,-1.23069682105811,0.0,-0.0011222299538715,0.0,420837.344519222,2.5655E-12,1028.17236328125,5.03038380415254,2.07187809319227,-6.71931132896855
5940.0,-2496495.20476074,3569193.20312414,5199939.64189141,-3830343.05948523,-2065973.44848959,5203001.67833184,2229.43345399639,-7206.30030309631,-1284.90285027705,4.87839358444537,2.63109283041691,-6.64566407390787,6758838.82314274,1.4564710114138,-0.0010416284937418,-0.130100224149004,-0.0047970863275045,-2.44406712279736,0.261081836692788,-1.18650138495072,0.0,-0.0011222299538715,0.0,417595.049703948,2.8269E-12,1038.18225097656,4.87839358444537,2.63109283041691,-6.64566407390787
6000.0,-2889606.11018862,3390807.00650422,5111035.75486551,-3687897.30272098,-2493284.41535319,5114003.17008617,2517.01345745453,-7031.90868172605,-1680.67413303568,4.70390593038767,3.1800423370613,-6.54167263765154,6759223.30250157,1.46084628082662,-0.001378895825494,-0.129720345288591,-0.0047647239681884,-2.43121116790036,0.312418854110462,-1.14106992709533,0.0,-0.0011222299538715,0.0,414163.254901957,3.1226E-12,1048.26843261718,4.70390593038767,3.1800423370613,-6.54167263765154
6060.0,-3271122.71995686,3200310.90852289,4998604.49301715,-3528524.04785343,-2909151.05727879,5001463.66651739,2793.46465019911,-6824.95038230603,-2069.30186611513,4.5075459332946,3.71623439854089,-6.40760058188999,6759698.51567758,1.46522155023942,-0.0017163460052423,-0.12927724562135,-0.0047084053617481,-2.41564329545477,0.363131987122878,-1.09411507617394,0.0,-0.0011222299538715,0.0,410562.023981148,3.4548E-12,1058.30102539062,4.5075459332946,3.71623439854089,-6.40760058188999
6120.0,-3639380.62514823,2998444.39946458,4863127.92034669,-3352929.97252944,-3311643.82580699,4865865.70831425,3057.49601043488,-6586.26524027346,-2448.99241749033,4.29004143975393,4.2371930867038,-6.24384378939414,6760255.648082,1.46959681965224,-0.0020523021216393,-0.128769191300401,-0.004627996946988,-2.39717160879575,0.413084524277712,-1.04532825899717,0.0,-0.0011222299538715,0.0,406813.491447707,3.8257E-12,1068.169921875,4.29004143975393,4.2371930867038,-6.24384378939414
6180.0,-3992763.22220696,2785986.68558198,4705194.86379152,-3161897.84351787,-3698888.00409826,4707798.66045625,3307.86329102525,-6316.84085646015,-2817.9799678045,4.05222379102034,4.74047092605383,-6.05093395381416,6760884.85741823,1.47397208906505,-0.0023850566723508,-0.128194753217791,-0.0045234816920999,-2.37556958556256,0.46212312829388,-0.994376841567843,0.0,-0.0011222299538715,0.0,402941.685554696,4.2372E-12,1077.78564453125,4.05222379102034,4.74047092605383,-6.05093395381416
6240.0,-4329708.99775345,2563754.07346822,4525499.00043203,-2956283.52399043,-4069072.51395181,4527956.79742508,3543.37522384737,-6017.81050400381,-3174.53473435189,3.7950274607829,5.22366184382651,-5.8295408821134,6761575.46302069,1.47834735847786,-0.0027128794972537,-0.127552815604064,-0.0043949598545913,-2.35057544454295,0.510074337348274,-0.940902167174585,0.0,-0.0011222299538715,0.0,398972.313322621,4.6912E-12,1087.07702636718,3.7950274607829,5.22366184382651,-5.8295408821134
6300.0,-4648718.71473678,2332597.20368694,4324836.44815852,-2737012.60984464,-4420458.57369681,4327136.89158252,3762.89967012287,-5690.45024790175,-3516.97129579487,3.51948863730746,5.68441438443072,-5.58047355866473,6762316.0582163,1.48272262789067,-0.0030340260709912,-0.126842583171814,-0.0042426495283819,-2.32189291236697,0.556740709823375,-0.884519158138705,0.0,-0.0011222299538715,0.0,394932.509081793,5.1891E-12,1095.98840332031,3.51948863730746,5.68441438443072,-5.58047355866473
6360.0,-4948362.4607754,2093398.13853913,4104102.85592374,-2505076.70011737,-4751388.15950716,4106235.30084137,3965.36965832059,-5336.17527433487,-3843.6569466634,3.22674293200587,6.12044478434345,-5.30468010984761,6763094.55501632,1.48709789730349,-0.0033467461483202,-0.126063587050442,-0.0040668870996508,-2.28919440730456,0.601896691292881,-0.824818475496736,0.0,-0.0011222299538715,0.0,390850.550099892,5.7318E-12,1104.47448730468,3.22674293200587,6.12044478434345,-5.30468010984761
6420.0,-5227286.51999187,1847067.31044216,3864289.99362461,-2261529.30966285,-5060292.22312782,3866244.55567777,4149.7892645046,-4956.53544507247,-4153.02002306649,2.91802246083055,6.52954971662251,-5.00324692769821,6763898.18779129,1.49147316671629,-0.0036492927591063,-0.125215689689098,-0.0038681277026075,-2.2521280717281,0.645284395424961,-0.7613726481314,0.0,-0.0011222299538715,0.0,386755.544647415,6.3191E-12,1112.49865722656,2.91802246083055,6.52954971662251,-5.00324692769821
6480.0,-5484220.03062218,1594540.33810261,3606481.84467766,-2007481.43453409,-5345698.62011531,3608249.44855558,4315.23930450673,-4553.21009635031,-4443.55815759352,2.5946525208757,6.90961875873475,-4.67739722710759,6764713.51398538,1.4958484361291,-0.0039399315505934,-0.124299088781472,-0.0036469457127657,-2.21033055692826,0.686609666159147,-0.693748057596247,0.0,-0.0011222299538715,0.0,382677.099224151,6.9502E-12,1120.02978515625,2.5946525208757,6.90961875873475,-4.67739722710759
6540.0,-5717981.39136264,1336774.71765288,3331850.20641833,-1744096.78199562,-5606239.70363082,3333422.63090072,4460.88281788291,-4128.00209197629,-4713.84643561507,2.25804798138332,7.25864683801765,-4.3284892201438,6765526.45289896,1.50022370554192,-0.0042169504708263,-0.123314320117395,-0.0034040352415587,-2.16344788965789,0.725539043201668,-0.621525092848706,0.0,-0.0011222299538715,0.0,378644.972450418,7.6226E-12,1127.04028320312,2.25804798138332,7.25864683801765,-4.3284892201438
6600.0,-5927484.37916279,1074746.39559051,3041649.80488356,-1472586.67816902,-5840659.53887503,3043019.72419325,4585.9703263919,-3682.83112168532,-4962.5454314088,1.90970935839855,7.5747470034203,-3.95801392187612,6766322.3975048,1.50459897495472,-0.0044786697774349,-0.122262259125669,-0.0031402105108408,-2.11116689819668,0.761698589646601,-0.544328939499053,0.0,-0.0011222299538715,0.0,374688.723266059,8.3324E-12,1133.50561523437,1.90970935839855,7.5747470034203,-3.95801392187612
6660.0,-6111743.93970201,809446.230209303,2737212.9319222,-1194204.66749763,-6047820.69209291,2738373.95313095,4689.84484324754,-3219.72621543107,-5188.40909750939,1.55121839148728,7.85616382937523,-3.5675924063466,6767086.42058275,1.50897424436754,-0.0047234523398445,-0.121144120771278,-0.0028564059017028,-2.05325913522139,0.794675927080567,-0.461872929366581,0.0,-0.0011222299538715,0.0,370837.360651137,9.0739E-12,1139.40393066406,1.55121839148728,7.85616382937523,-3.5675924063466
6720.0,-6269881.60927244,541876.34871426,2419943.61460575,-910240.820041913,-6226710.54585268,2420890.31084768,4771.94659499715,-2740.8174305083,-5390.29246460849,1.18423283483782,8.1012875874145,-3.15897216839699,6767803.57825847,1.51334951378035,-0.0049497141806546,-0.119961457430426,-0.0025536754043284,-1.98963741496092,0.824027158581466,-0.374014557762799,0.0,-0.0011222299538715,0.0,367119.001261121,9.8398E-12,1144.71520996093,1.18423283483782,8.1012875874145,-3.15897216839699
6780.0,-6401130.52382081,273046.408661065,2091311.33015335,-622015.765453798,-6376447.08961516,2092039.26941304,4831.81739930213,-2248.32666754946,-5567.15908574383,0.810480145508549,8.3086690701939,-2.73402216602522,6768459.29533352,1.51772478319316,-0.0051559351756817,-0.118716154396546,-0.002233191159262,-1.92042138806344,0.849290439187856,-0.280820583075229,0.0,-0.0011222299538715,0.0,363560.540385694,1.06207E-11,1149.421875,0.810480145508549,8.3086690701939,-2.73402216602522
6840.0,-6504839.96832107,3969.77479178977,1752844.28432443,-330874.476432,-6496284.13234183,1753350.05358245,4869.10462413072,-1744.55758636465,-5718.08813321335,0.431749807453286,8.47703468992674,-2.29472614327719,6769039.80158476,1.52210005260597,-0.0053406698043312,-0.117410422762663,-0.0018962407870298,-1.84600289925013,0.870007470147857,-0.182631945873953,0.0,-0.0011222299538715,0.0,360187.340724656,1.14053E-11,1153.50732421875,0.431749807453286,8.47703468992674,-2.29472614327719
6900.0,-6580479.41832492,-264340.374464577,1406122.27738048,-38179.8293329577,-6585615.8829633,1406403.50191871,4883.56464168146,-1231.88462184905,-5842.28103596714,0.0498841555182681,8.60530126883308,-1.84317395870616,6769532.57947778,1.52647532201879,-0.0055025578168486,-0.116046789559873,-0.0015442232580251,-1.76709538879791,0.885752837695958,-0.0801127615523937,0.0,-0.0011222299538715,0.0,357022.942797561,1.21806E-11,1156.95715332031,0.0498841555182681,8.60530126883308,-1.84317395870616
6960.0,-6627642.02613592,-530874.993008767,1052769.18883558,254694.025036543,-6643980.8456681,1052824.54652839,4875.06568696104,-712.741138624467,-5939.067534233,-0.333232275547054,8.69258984313973,-1.38155083471609,6769926.78282783,1.53085059143159,-0.0056403346658989,-0.114628085180462,-0.0011786431553552,-1.68474741844251,0.896168822968616,0.0257365392774622,0.0,-0.0011222299538715,0.0,354088.800446253,1.29325E-11,1159.75866699218,-0.333232275547054,8.69258984313973,-1.38155083471609
7020.0,-6646047.50687727,-794633.144382529,694445.119633263,546368.442156057,-6671064.98051417,694274.350078333,4843.5900372115,-189.606803535329,-6007.91102926591,-0.71568469740684,8.73823783081388,-0.912124648371892,6770213.59228929,1.53522586084441,-0.005752841540461,-0.113157428249218,-8.011033187554E-4,-1.60030294005446,0.901000579330456,0.133619310137989,0.0,-0.0011222299538715,0.0,351404.044822411,1.36458E-11,1161.90270996093,-0.71568469740684,8.73823783081388,-0.912124648371892
7080.0,-6635544.38466426,-1054625.98632918,332838.237382733,835467.173139482,-6666704.08571468,332442.1457573,4789.23544282313,335.005709475468,-6048.4131187388,-1.095541017241,8.74180904690767,-0.437231554671189,6770386.48497881,1.53960113025722,-0.0058390348420043,-0.111638208205242,-4.132960091338E-4,-1.51530307369418,0.900124592739456,0.242041266651795,0.0,-0.0011222299538715,0.0,348985.280359231,1.43048E-11,1163.38305664062,-1.095541017241,8.74180904690767,-0.437231554671189
7140.0,-6596111.56570133,-1309880.73660761,-30343.6237431084,1120623.31618185,-6630885.36564027,-30963.1681800459,4712.215759801,858.564542234748,-6060.31722918487,-1.47086544511864,8.70310124270459,0.0407396654441152,6770441.40889494,1.54397639967003,-0.005897994957125,-0.110074065908005,-1.69928779427E-5,-1.43134340741132,0.893563513791324,0.349453535963122,0.0,-0.0011222299538715,0.0,346846.416338196,1.48943E-11,1164.19714355468,-1.47086544511864,8.70310124270459,0.0407396654441152
7200.0,-6527859.21276133,-1559444.59308757,-393381.552263169,1400486.28122014,-6563748.1574346,-394221.623065134,4612.86075455794,1378.53284961622,-6043.51128148699,-1.83973242279865,8.62215103988039,0.519364117677532,6770376.86487163,1.54835166908284,-0.0059289342055795,-0.10846887258653,3.859658611427E-4,-1.34991828559356,0.881483386518003,0.454408715869206,0.0,-0.0011222299538715,0.0,344998.537605775,1.54003E-11,1164.34497070312,-1.83973242279865,8.62215103988039,0.519364117677532
7260.0,-6431028.90353359,-1802388.58106343,-754554.278502493,1673728.71775089,-6465583.79847262,-755610.904330401,4491.61507069729,1892.38321500393,-5998.02934929056,-2.2002405857888,8.49923628212957,0.996197794614488,6770193.90716807,1.55272693849566,-0.0059312038751679,-0.106826707421166,7.936825985799E-4,-1.272289036079,0.864174035056154,0.555692998468531,0.0,-0.0011222299538715,0.0,343449.817643992,1.58101E-11,1163.83044433593,-2.2002405857888,8.49923628212957,0.996197794614488
