time,gePosition_m_X,gePosition_m_Y,gePosition_m_Z,eiPosition_m_X,eiPosition_m_Y,eiPosition_m_Z,eiVelocity_m_s_X,eiVelocity_m_s_Y,eiVelocity_m_s_Z,eiAccel_m_s2_X,eiAccel_m_s2_Y,eiAccel_m_s2_Z,semiMajorAxis_m,gast_rad,eulerAngle_rad_Roll,eulerAngle_rad_Pitch,eulerAngle_rad_Yaw,eulerAngleWrtEi_rad_Roll,eulerAngleWrtEi_rad_Pitch,eulerAngleWrtEi_rad_Yaw,bodyAngularRateWrtEi_rad_s_Roll,bodyAngularRateWrtEi_rad_s_Pitch,bodyAngularRateWrtEi_rad_s_Yaw,altitudeMsl_m,airDensity_kg_m3,ambientTemperature_dgK,eiGravitation_m_s2_X,eiGravitation_m_s2_Y,eiGravitation_m_s2_Z
0.0,-1436381.46529,4185811.71036,5163944.67155,-4315967.74,960356.2,5167269.53,129.091037,-7491.513855,1452.515654,5.4545805924,-1.21387690587,-6.54917367881,6759053.07579,1.02334780893,3.400115586061947E-16,-0.2024581932313422,-1.522968439585956E-16,-2.4715939055627265,-0.03718896475792745,-1.428993135204757,0.0,-0.0011222300308754611,0.0,434989.540812,1.61790350067E-12,978.31253865,5.4545805924,-1.21387690587,-6.54917367881
60.0,-1794959.995,3943151.68474,5239238.39593,-4298410.85823,509021.505129,5242566.81055,455.963947784,-7547.277266,1056.38097529,5.43713967901,-0.644046034699,-6.65043704798,6758732.97751,1.02772307802,-3.1609296916476663E-6,-0.20243700517158777,-9.151237635195809E-5,-2.4720451944049366,0.015605902028365605,-1.3871941836894333,0.0,-0.0011222300308754611,0.0,433110.36285,1.72881367497E-12,985.412396301,5.43713967901,-0.644046034699,-6.65043704798
120.0,-2147590.36924,3685729.23477,5290614.55489,-4261287.5497,55369.4270284,5293931.37468,781.062756694,-7568.720558,655.053636426,5.3954497039,-0.0702752894441,-6.72218254637,6758512.19113,1.03209834711,-1.2698878259416457E-5,-0.20237108092320333,-1.826157874108504E-4,-2.470286822045643,0.06837346634939342,-1.3453262663509098,0.0,-0.0011222300308754611,0.0,430971.61982,1.86034555995E-12,993.232103962,5.3954497039,-0.0702752894441,-6.72218254637
180.0,-2492788.95698,3414636.35485,5317814.95413,-4204747.87407,-398535.188975,5321105.06613,1102.93448784,-7555.68010147,250.317999148,5.32959162743,0.505004416431,-6.76398526806,6758393.69429,1.0364736162,-2.8653465406385578E-5,-0.20225702517327662,-2.7245601502350866E-4,-2.466297307513463,0.12102070149978093,-1.303154824308686,0.0,-0.0011222300308754611,0.0,428579.639683,2.01482231712E-12,1001.72133791,5.32959162743,0.505004416431,-6.76398526806
240.0,-2829091.79024,3131014.99849,5320689.09255,-4129028.8681,-850622.074286,5323937.4894,1420.13381638,-7508.13904949,-156.019382293,5.23973997798,1.07933227937,-6.77553117717,6758378.76207,1.04084888529,-5.1006058140507924E-5,-0.20209164991735856,-3.6018404770787616E-4,-2.4600278400927786,0.1734520917711023,-1.2604406632134308,0.0,-0.0011222300308754611,0.0,425943.219444,2.19454826138E-12,1010.79306985,5.23973997798,1.07933227937,-6.77553117717
300.0,-3155060.5095,2836052.71889,5299195.29148,-4034453.91655,-1298824.39384,5302387.13877,1731.22876194,-7426.22892945,-562.136560113,5.12616544442,1.65022457956,-6.75662200329,6758467.1602,1.04522415437,-7.967904183915697E-5,-0.20187199101042066,-4.449608290760557E-4,-2.4514015320610127,0.22556763079816464,-1.216936353784656,0.0,-0.0011222300308754611,0.0,423073.649779,2.40174365249E-12,1020.32814364,5.12616544442,1.65022457956,-6.75662200329
360.0,-3469288.32867,2530978.14177,5253401.40741,-3921431.77707,-1741087.68497,5256522.11067,2034.80652474,-7310.23077225,-966.20328109,4.98923698697,2.21518309641,-6.7071799005,6758657.31447,1.04959942346,-1.145354120544186E-4,-0.20159532321508364,-5.259628050757069E-4,-2.4403123001245675,0.2772606847084223,-1.1723826141690332,0.0,-0.0011222300308754611,0.0,419984.702632,2.63851790434E-12,1030.18611758,4.98923698697,2.21518309641,-6.7071799005
420.0,-3770405.9974,2217056.2776,5183485.1118,-3790455.25153,-2175378.84812,5186520.38276,2329.47942711,-7160.57570068,-1366.38833588,4.82942320887,2.77170464635,-6.62725143589,6758946.4179,1.05397469255,-1.5537876602738748E-4,-0.201259173895471,-6.023883959937984E-4,-2.4266234488921494,0.32841566026697583,-1.1265047086280184,0.0,-0.0011222300308754611,0.0,416692.578332,2.90688109817E-12,1040.21947177,4.82942320887,2.77170464635,-6.62725143589
480.0,-4057087.73609,1895583.68395,5089733.72341,-3642099.49891,-2599695.15525,5092669.64531,2613.89091259,-6977.84492386,-1760.86712055,4.6472929065,3.31729125603,-6.51701065144,6759330.45503,1.05834996164,-2.0195377615829407E-4,-0.20086133559405134,-6.734652904912395E-4,-2.410166082398258,0.37890541913027004,-1.0790089514129753,0.0,-0.0011222300308754611,0.0,413215.810465,3.20877412676E-12,1050.28713158,4.6472929065,3.31729125603,-6.51701065144
540.0,-4328057.11781,1567883.49106,4972543.58245,-3477019.98762,-3012073.23947,4975366.67409,2886.72155555,-6762.76911501,-2147.82935287,4.44351490071,3.8494604676,-6.37676117449,6759804.14421,1.06272523073,-2.53947213759048E-4,-0.20039987782657365,-7.384582325446719E-4,-2.390737553674849,0.4285883837533455,-1.0295794903432756,0.0,-0.0011222300308754611,0.0,409575.128698,3.54608809434E-12,1060.26407597,4.44351490071,3.8494604676,-6.37676117449
600.0,-4582092.87174,1235300.30531,4832418.95859,-3295950.08802,-3410598.02882,4835116.23686,3146.69504492,-6516.22717669,-2525.48689101,4.21885739184,4.36575540937,-6.20693756932,6760360.82052,1.06710049981,-3.1098956357041154E-4,-0.19987315830627966,-7.966767935163114E-4,-2.368100287875824,0.47730529221887513,-0.9778756738811295,0.0,-0.0011222300308754611,0.0,405793.281761,3.9206476287E-12,1070.04582316,4.21885739184,4.36575540937,-6.20693756932
660.0,-4818034.58376,899195.005579,4669970.48812,-3099698.3071,-3793411.58812,4672529.52869,3392.58412242,-6239.24441252,-2892.0816187,3.97418713464,4.86375451256,-6.00810626268,6760992.29871,1.0714757689,-3.726572305020263E-4,-0.19927983374749192,-8.474825288887632E-4,-2.3419815006332434,0.5248755839273189,-0.9235304947778583,0.0,-0.0011222300308754611,0.0,401894.824471,4.33414515865E-12,1079.54848901,3.97418713464,4.86375451256,-6.00810626268
720.0,-5034788.27048,560939.446196,4485913.13662,-2889145.16841,-4158721.83376,4488322.13253,3623.21647233,-5932.99012306,-3245.89338224,3.71046867986,5.34108103818,-5.78096639898,6761688.76405,1.07585103799,-4.3847529756644156E-4,-0.19861887020843486,-8.90294936073832E-4,-2.3120745961882356,0.5710934443666792,-0.8661508699147504,0.0,-0.0011222300308754611,0.0,397905.873889,4.78802573849E-12,1088.70607315,3.71046867986,5.34108103818,-5.78096639898
780.0,-5231331.80272,221911.079101,4281063.68413,-2665239.73986,-4504811.08706,4283311.50207,3837.48057081,-5598.77462621,-3585.24798345,3.42876378989,5.79541281317,-5.52635087995,6762438.73709,1.08022630708,-5.079207554258898E-4,-0.1978895527586136,-9.245957593107557E-4,-2.278043383844667,0.6157236175579897,-0.8053208725167013,0.0,-0.0011222300308754611,0.0,393853.840182,5.28332988155E-12,1097.46664026,3.42876378989,5.79541281317,-5.52635087995
840.0,-5406720.15347,-116512.493326,4056337.72899,-2428995.81149,-4830044.43095,4058413.9628,4034.33150394,-5238.04567443,-3908.52524261,3.13023094508,6.22449269047,-5.24522764729,6763229.147,1.08460157617,-5.804260967093864E-4,-0.19709149410946725,-9.499314122181143E-4,-2.2395306890746065,0.6584972253791455,-0.7406094741657385,0.0,-0.0011222300308754611,0.0,389767.137662,5.82050482144E-12,1105.78856072,3.13023094508,6.22449269047,-5.24522764729
900.0,-5560090.44177,-452959.023301,3812746.20573,-2181487.72517,-5132877.83221,3814641.22707,4212.79675234,-4852.38421031,-4214.16714181,2.81612467014,6.62614020798,-4.93870103283,6764045.52951,1.08897684525,-6.553831583899833E-4,-0.19622464177894508,-9.65913570233626E-4,-2.196173409618573,0.6991080320279793,-0.6715848301062751,0.0,-0.0011222300308754611,0.0,385674.880904,6.39919648235E-12,1113.63747062,2.81612467014,6.62614020798,-4.93870103283
960.0,-5690666.74055,-786067.167542,3551391.4124,-1923845.85866,-5411865.98718,3553096.41818,4371.98192022,-4443.49937881,-4500.68604217,2.48779427745,6.99826473612,-4.60801279253,6764872.34439,1.09335211434,-7.321471050153321E-4,-0.19528928328909742,-9.722182743701239E-4,-2.1476264377012977,0.7372098731348192,-0.5978375145795667,0.0,-0.0011222300308754611,0.0,381606.570016,7.01803098117E-12,1120.98397638,2.48779427745,6.99826473612,-4.60801279253
1020.0,-5797764.61173,-1114492.06592,3273462.54371,-1657251.76878,-5665669.84365,3274969.59996,4511.0763603,-4013.22270498,-4766.67294107,2.14668158484,7.33888012228,-4.25454231709,6765693.38761,1.09772738343,-8.100404743739071E-4,-0.19428604905983146,-9.685841297512788E-4,-2.093597855730558,0.7724163273700638,-0.5190151007703818,0.0,-0.0011222300308754611,0.0,377591.768385,7.67440183359E-12,1127.80223502,2.14668158484,7.33888012228,-4.25454231709
1080.0,-5880795.32836,-1436910.92843,2980230.72925,-1382933.00196,-5893063.74622,2981532.81131,4629.3586213,-3563.50135473,-5010.80570418,1.79431722688,7.6461205402,-3.87980550174,6766492.25936,1.10210265252,-8.883572498019373E-4,-0.1932159126864185,-9.548103302671509E-4,-2.0338969399550955,0.8043040940332757,-0.4348696089353474,0.0,-0.0011222300308754611,0.0,373659.77576,8.36427461005E-12,1134.06908285,1.79431722688,7.6461205402,-3.87980550174
1140.0,-5939269.74113,-1752028.60501,2673043.58122,-1102157.58552,-6092942.14833,2674134.60983,4726.20162552,-3096.39042143,-5231.85717873,1.43231532374,7.91825700954,-3.48545185839,6767252.84399,1.10647792161,-9.663669732594819E-4,-0.19208018850650496,-9.307552619337966E-4,-1.968494152701902,0.8324218222322988,-0.3453169937496435,0.0,-0.0011222300308754611,0.0,369839.299489,9.08202684313E-12,1139.76358164,1.43231532374,7.91825700954,-3.48545185839
1200.0,-5972801.74577,-2058583.10812,2353319.26193,-816228.219034,-6264325.83162,2354194.13508,4801.07747554,-2614.04421762,-5428.70307416,1.06236645825,8.15371392422,-3.07325963153,6767959.76099,1.11085319069,-0.0010433189603930768,-0.19088052650898724,-8.963363230929397E-4,-1.8975879558838207,0.8563060762494299,-0.2505034948136596,0.0,-0.0011222300308754611,0.0,366158.127159,9.82034140295E-12,1144.86679245,1.06236645825,8.15371392422,-3.07325963153
1260.0,-5981111.30947,-2355351.05393,2022540.0887,-526476.190717,-6406367.57331,2023194.7089,4853.56179172,-2118.70659136,-5600.32948857,0.686229090202,8.3510849355,-2.64512888067,6768598.75691,1.11522845978,-0.0011184467148678571,-0.1896189047610277,-8.515313644831377E-4,-1.8216671353457778,0.8755053926938258,-0.15086753246242685,0.0,-0.0011222300308754611,0.0,362642.804666,1.05701718126E-11,1149.36161423,0.686229090202,8.3510849355,-2.64512888067
1320.0,-5964027.01745,-2641152.98536,1682245.70105,-234255.050001,-6518357.20468,1682676.99793,4883.33749376,-1612.7003227,-5745.83996208,0.305719664523,8.50914765788,-2.20307266474,6769157.02277,1.11960372887,-0.0011909726558885423,-0.18829761956090724,-7.963818350892925E-4,-1.7415511375461163,0.8896117212815267,-0.04717964371900692,0.0,-0.0011222300308754611,0.0,359318.324676,1.13207946731E-11,1153.23250136,0.305719664523,8.50914765788,-2.20307266474
1380.0,-5921488.10496,-2914858.53949,1334025.82174,59065.9284188,-6599726.00768,1334231.76969,4890.19795743,-1098.41568226,-5864.46195018,-0.0772982776991,8.62687684926,-1.74920656745,6769623.43645,1.12397899796,-0.0012601132664931242,-0.18691927361865562,-7.309973745960966E-4,-1.658388369120703,0.8982960218291156,0.05945959770688049,0.0,-0.0011222300308754611,0.0,356207.831287,1.20599809423E-11,1156.46559459,-0.0772982776991,8.62687684926,-1.74920656745
1440.0,-5853545.94499,-3175391.42161,979512.649336,352108.449844,-6650050.40233,979492.280075,4874.04949525,-578.298249345,-5955.55262549,-0.460925697623,8.70345589919,-1.28573682729,6769988.74099,1.12835426705,-0.0013250847399774847,-0.18548676245470055,-6.555612811956547E-4,-1.5735978370241681,0.9013421412672873,0.16767830484890037,0.0,-0.0011222300308754611,0.0,353332.347238,1.27743090262E-11,1159.04955285,-0.460925697623,8.70345589919,-1.28573682729
1500.0,-5760364.96681,-3421734.14975,620372.92484,643492.032483,-6669054.88367,620126.33477,4834.91312573,-54.8360927218,-6018.60393119,-0.843240150327,8.73828658484,-0.814947296167,6770245.6754,1.13272953613,-0.001385109151891014,-0.1840032591753605,-5.70336060078189E-4,-1.4887544881298564,0.898671653796826,0.2759482912661997,0.0,-0.0011222300308754611,0.0,350710.530132,1.34495923736E-11,1160.97609131,-0.843240150327,8.73828658484,-0.814947296167
1560.0,-5642222.98541,-3652932.53525,258299.719389,931840.924517,-6656614.17284,257828.071644,4772.92560567,469.453582106,-6053.24682092,-1.22230823917,8.73099709734,-0.33918538249,6770389.07399,1.13710480522,-0.0014394211230736292,-0.1824721977054669,-4.7566816339198516E-4,-1.40543846448609,0.8903533889481704,0.38273616390528237,0.0,-0.0011222300308754611,0.0,348358.463673,1.40714058183E-11,1162.2402279,-1.22230823917,8.73099709734,-0.33918538249
1620.0,-5499510.92647,-3868099.86669,-104996.006579,1215791.0605,-6612754.55381,-105690.485448,4688.33970611,992.038214713,-6059.25462736,-1.59619836674,8.68144830834,0.139152922163,6770415.94479,1.14148007431,-0.0014872748744738343,-0.18089725453396513,-3.7199108423742607E-4,-1.3250831126115463,0.8765950545699809,0.48665566178453706,0.0,-0.0011222300308754611,0.0,346289.489076,1.46256857701E-11,1162.84033668,-1.59619836674,8.68144830834,0.139152922163
1680.0,-5332731.9363,-4066420.76696,-467794.018757,1493997.01121,-6537654.37287,-468708.04749,4581.52371546,1510.38399233,-6036.54550695,-1.96299373697,8.58973817102,0.617638848558,6770325.52894,1.1458553434,-0.0015279515181412418,-0.1792823289655143,-2.5982615613949137E-4,-1.2488571127191321,0.8577192397614389,0.5865858795973985,0.0,-0.0011222300308754611,0.0,344514.080594,1.50993677037E-11,1162.77807383,-1.96299373697,8.58973817102,0.617638848558
1740.0,-5142499.87128,-4247154.69493,-828373.542186,1765138.88015,-6431643.6853,-829502.79891,4452.96015656,2021.97015628,-5985.18391417,-2.32080553725,8.4562040809,1.0938273679,6770119.33537,1.15023061249,-0.0015607663889498447,-0.1776315219147366,-1.3978070225139955E-4,-1.1776021910181746,0.8341299041596535,0.6817339182492723,0.0,-0.0011222300308754611,0.0,343039.767761,1.54810162788E-11,1162.05823539,-2.32080553725,8.4562040809,1.0938273679
1800.0,-4929537.16701,-4409639.06603,-1185022.05291,2027929.09933,-6295203.04069,-1186361.19457,4303.24371053,2524.30338381,-5905.38106799,-2.66778617198,8.28142299872,1.56527423003,6769801.14006,1.15460588158,-0.0015850762050625999,-0.17594911337052627,-1.25435236837279E-5,-1.1118280220754253,0.8062766880124569,0.7716403607058901,0.0,-0.0011222300308754611,0.0,341871.105588,1.57613998302E-11,1160.68860187,-2.66778617198,8.28142299872,1.56527423003
1860.0,-4694672.0934,-4553291.96861,-1536044.06683,2281119.07663,-6128961.40661,-1537586.75389,4133.07834966,3014.93210618,-5797.49438698,-3.0021423568,8.06620918158,2.02955324883,6769376.93861,1.15898115066,-0.0016002858538518448,-0.17423953862728303,1.211219455353678E-4,-1.0517504053442654,0.7746230677648103,0.8561414947203864,0.0,-0.0011222300308754611,0.0,341009.692746,1.59339627536E-11,1158.67981873,-3.0021423568,8.06620918158,2.02955324883
1920.0,-4438835.40874,-4677614.45666,-1879769.86367,2523505.64784,-5933693.23863,-1881508.78993,3943.27369455,3491.4606172,-5662.02588812,-3.32214784157,7.81160947017,2.48427350599,6768854.84452,1.16335641975,-0.001605854631610199,-0.1725073635228787,2.60386214918213E-4,-0.997352736797172,0.739621767094102,0.9353082676720366,0.0,-0.0011222300308754611,0.0,340454.236697,1.59951566246E-11,1156.04535254,-3.32214784157,7.81160947017,2.48427350599
1980.0,-4163056.43187,-4782192.40324,-2214564.08425,2753937.28753,-5710314.71387,-2216491.01165,3734.74062507,3951.56282729,-5499.61956429,-3.62615552509,7.51889620911,2.92709613612,6768244.93183,1.16773168884,-0.0016013018142331276,-0.1707572589275288,4.04363276120713E-4,-0.9484529480621173,0.7016982752110066,1.009379807887856,0.0,-0.0011222300308754611,0.0,340200.663798,1.59446030219E-11,1152.80155094,-3.62615552509,7.51889620911,2.92709613612
2040.0,-3868458.55799,-4866697.90358,-2538834.1408,2971320.03517,-5459879.15332,-2540939.93904,3508.48618786,4392.99552634,-5311.05777474,-3.91260875635,7.18955799317,3.35575039863,6767559.02788,1.17210695793,-0.0015862114938352248,-0.1689939747197115,5.521202967135997E-4,-0.9047641662884363,0.6612415958622121,1.0787032667264445,0.0,-0.0011222300308754611,0.0,340242.271589,1.57850764496E-11,1148.9678203,-3.91260875635,7.18955799317,3.35575039863
2100.0,-3556254.24893,-4930890.22118,-2851038.38253,3174623.09604,-5183571.66627,-2853313.07322,3265.60785411,4813.61103268,-5097.25669828,-4.18005167053,6.82528850275,3.76804881945,6766810.46644,1.17648222702,-0.0015602366729086646,-0.167222313500462,7.026867533778334E-4,-0.8659435687347867,0.6186005662547494,1.1436855158910602,0.0,-0.0011222300308754611,0.0,340569.919616,1.55223124096E-11,1144.5669208,-4.18005167053,6.82528850275,3.76804881945
2160.0,-3227739.53299,-4974616.27492,-3149693.96196,3362884.0795,-4882703.05687,-3152126.76709,3007.28718875,5211.36912169,-4859.26090944,-4.42713846211,6.42797370431,4.16190126932,6766013.81374,1.1808574961,-0.0015231026552762802,-0.1654471042519906,8.550624851715961E-4,-0.8316283911054979,0.5740839904235816,1.20475775051178,0.0,-0.0011222300308754611,0.0,341172.254342,1.51646612843E-11,1139.62536436,-4.42713846211,6.42797370431,4.16190126932
2220.0,-2884288.05341,-4997810.66928,-3433384.35149,3535213.8415,-4558703.03895,-3435963.74597,2734.78299662,5584.3481437,-4598.23714366,-4.65264153338,5.99967765853,4.53532790714,6765184.5775,1.18523276519,-0.0014746098047485098,-0.16367317612213955,0.001008224409024928,-0.8014605219065922,0.5279630998718329,1.26235157666518,0.0,-0.0011222300308754611,0.0,342035.962827,1.47226212038E-11,1134.1738877,-4.65264153338,5.99967765853,4.53532790714
2280.0,-2527344.70727,-5000495.27385,-3700766.4636,3690800.90178,-4213112.81,-3703480.23146,2449.42401488,5930.75525349,-4315.46732119,-4.85545846702,5.54262713112,4.88647093863,6764338.90518,1.18960803428,-0.0014146357549301386,-0.1619053324954223,0.0011611319175439385,-0.7751020651871899,0.48047523808126674,1.3168842134606455,0.0,-0.0011222300308754611,0.0,343146.049128,1.42082909869E-11,1128.24795968,-4.85545846702,5.54262713112,4.88647093863
2340.0,-2158418.91908,-4982778.36213,-3950577.3323,3828915.41091,-3847577.03975,-3953412.62634,2152.60122368,6248.93568474,-4012.3409025,-5.03461776262,5.059195172,5.21360512612,6763493.27267,1.19398330337,-0.0013431371475682366,-0.16014832551941957,0.0013127312251843336,-0.7522443079923347,0.4318280279885307,1.368750387731326,0.0,-0.0011222300308754611,0.0,344486.12682,1.36347868928E-11,1121.88826778,-5.03461776262,5.059195172,5.21360512612
2400.0,-1779077.59539,-4944853.32327,-4181640.31827,3948912.64631,-3463835.33235,-4184583.72273,1845.75985156,6537.38101261,-3690.34665302,-5.1892832675,4.55188384215,5.51514695222,6762664.16173,1.19835857246,-0.0012601509552865808,-0.15840683126804603,0.0014619591050065767,-0.7326121724849861,0.3822035682087175,1.4183188579438926,0.0,-0.0011222300308754611,0.0,346038.720735,1.30156644576E-11,1115.14110954,-5.1892832675,4.55188384215,5.51514695222
2460.0,-1390937.80784,-4886996.96397,-4392870.80443,4050236.02151,-3063713.22438,-4395908.40037,1530.3911557,6794.73636007,-3351.06390123,-5.3187572416,4.02330632289,5.7896623206,6761867.72453,1.20273384154,-0.0011657954136525654,-0.15668542574658906,0.001607746540538242,-0.7159657603494773,0.33176240803320906,1.4659319787074752,0.0,-0.0011222300308754611,0.0,347785.571148,1.23643800795E-11,1108.05858994,-5.3187572416,4.02330632289,5.7896623206
2520.0,-995659.25336,-4809567.42127,-4583281.35461,4132419.5975,-2649112.78278,-4586398.78755,1208.02405983,7019.80651981,-2996.15338131,-5.42248203875,3.47616871748,6.03587269347,6761119.43751,1.20710911063,-0.0010602705539005572,-0.1549885619613987,0.0017490228010619648,-0.7021001542341334,0.2806471857255818,1.5119071629564047,0.0,-0.0011222300308754611,0.0,349707.934046,1.16938177739E-11,1100.69849347,-5.42248203875,3.47616871748,6.03587269347
2580.0,-594936.539399,-4713001.71,-4751986.31295,4195090.09016,-2222002.86842,-4755168.86251,880.216731703,7211.56098417,-2627.34775558,-5.50004046089,2.91325191188,6.25265963027,6760433.75356,1.21148437972,-9.438582977434164E-4,-0.15332054826838004,0.0018847203458562506,-0.6908442813412137,0.22898589780952944,1.5565394616323676,0.0,-0.0011222300308754611,0.0,351786.87184,1.10158964856E-11,1093.12366829,-5.50004046089,2.91325191188,6.25265963027
2640.0,-190491.341487,-4597812.93107,-4898205.82781,4237968.37241,-1784409.13015,-4901438.47891,548.548175519,7369.13789774,-2246.44191109,-5.55115493073,2.3373938641,6.43906779265,6759823.76792,1.21585964881,-8.169220552102403E-4,-0.15168552817464678,0.002013780798455758,-0.6820593755684409,0.1768948151510148,1.6001047527360528,0.0,-0.0011222300308754611,0.0,354003.529717,1.03412644486E-11,1085.40074726,-5.55115493073,2.3373938641,6.43906779265
2700.0,215935.521945,-4464587.16843,-5021269.28941,4260870.47406,-1338403.79329,-5024536.80455,214.609904183,7491.84696802,-1855.28311802,-5.57568570561,1.75147262071,6.59430658944,6759300.91908,1.2202349179,-6.799057581406191E-4,-0.15008746170992412,0.002135162039903255,-0.6756373840652798,0.12448108742026098,1.6428632255401556,0.0,-0.0011222300308754611,0.0,356339.393646,9.67908097186E-12,1077.59807052,-5.57568570561,1.75147262071,6.59430658944
2760.0,622592.055169,-4313980.10302,-5120618.17493,4263708.08557,-886095.303467,-5123905.16735,-120.002259089,7579.17138336,-1455.76112384,-5.57362839178,1.15839022391,6.71775071394,6758874.74582,1.22461018698,-5.333322671615414E-4,-0.14853010839527683,0.002247846281462894,-0.6714995346544718,0.07184508987560068,1.6850629784739284,0.0,-0.0011222300308754611,0.0,358776.526685,9.03688363123E-12,1069.78280658,-5.57362839178,1.15839022391,6.71775071394
2820.0,1027723.05169,-4146713.37171,-5195808.29934,4246488.57484,-429617.883848,-5199099.30653,-453.696215128,7630.76879233,-1049.79824162,-5.54511099914,0.561057507712,6.80893984588,6758552.71812,1.22898545607,-3.778011063809243E-4,-0.14701701176360948,0.002350848825265488,-0.6695951950202569,0.019082571212952176,1.7269436371942117,0.0,-0.0011222300308754611,0.0,361297.780667,8.42053962072E-12,1062.01751295,-5.54511099914,0.561057507712,6.80893984588
2880.0,1429578.02485,-3963570.69812,-5246511.47278,4209314.52727,28878.9395463,-5249791.03008,-784.89143707,7646.47139429,-639.339475564,-5.4903907014,-0.0376203629688,6.8675777406,6758340.14963,1.23336072516,-2.139855058905442E-4,-0.14555148532652126,0.0024432271210837945,-0.6699010994769019,-0.03371333770769191,1.7687399555819074,0.0,-0.0011222300308754611,0.0,363886.980492,7.83428143914E-12,1054.35668474,-5.4903907014,-0.0376203629688,6.8675777406
2940.0,1826419.06753,-3765393.82098,-5272516.56779,4152382.82102,487240.792253,-5275769.28163,-1112.02661709,7626.28517895,-226.342716236,-5.40985035879,-0.634757833259,6.89353082208,6758240.18833,1.23773599425,-4.2628761996375604E-5,-0.1441365998622003,0.002524089692365195,-0.6724209836782684,-0.08645019492961135,1.8106853961086613,0.0,-0.0011222300308754611,0.0,366529.078367,7.28082526163E-12,1046.84406873,-5.40985035879,-0.634757833259,6.89353082208
3000.0,2216528.60702,-3553078.24446,-5273730.00139,4075983.24982,943318.835276,-5276940.62187,-1433.5670963,7570.38833978,187.230964873,-5.30399475169,-1.22750258556,6.88682627017,6758253.86969,1.24211126334,1.3546004467602832E-4,-0.14277517192487393,0.002592604529048823,-0.6771856436972087,-0.13903433958431627,1.8530157035520955,0.0,-0.0011222300308754611,0.0,369210.275394,6.76156250297E-12,1039.51148419,-5.30399475169,-1.22750258556,6.88682627017
3060.0,2598217.02193,-3327568.83434,-5250175.63907,3980496.70703,1394980.0294,-5253329.13154,-1748.01205704,7479.12887625,599.426888248,-5.17344640215,-1.81304895463,6.84764948901,6758380.20909,1.24648653242,3.194109066257029E-4,-0.14146975353305466,0.0026480066199877413,-0.6842534168847179,-0.19136894674583227,1.8959724901412025,0.0,-0.0011222300308754611,0.0,371918.108232,6.27680279735E-12,1032.37950551,-5.17344640215,-1.81304895463,6.84764948901
3120.0,2969830.08791,-3089855.28348,-5201994.12966,3866392.94598,1840117.23166,-5205075.74488,-2053.90144864,7353.02139855,1008.30616487,-5.01894084804,-2.38865107602,6.77634080135,6758616.30723,1.25086180151,5.082982364669683E-4,-0.14022262308073777,0.0026896044064434747,-0.6937110622681143,-0.24335198611821643,1.939806842712085,0.0,-0.0011222300308754611,0.0,374641.499175,5.8260362865E-12,1025.45976627,-5.01894084804,-2.38865107602,6.77634080135
3180.0,3329756.22009,-2840967.47063,-5129441.6831,3734227.9336,2276659.0766,-5132437.02579,-2349.82261085,7192.74315616,1411.95486997,-4.84132128783,-2.95163556292,6.67339124859,6758957.44681,1.2552370706,7.011466064411842E-4,-0.13903577758604518,0.0027167850603630954,-0.7056749917324735,-0.2948740250430202,1.9847829409325761,0.0,-0.0011222300308754611,0.0,377370.768972,5.40818155982E-12,1018.75815178,-4.84132128783,-2.95163556292,6.67339124859
3240.0,3676433.48116,-2581970.7368,-5032888.30624,3584640.81674,2702579.59693,-5035783.40155,-2634.41655739,6999.12932726,1808.4929372,-4.64153261404,-3.49941341685,6.53943747999,6759397.16859,1.25961233969,8.969367816274492E-4,-0.13791092644870648,0.002729018609115844,-0.7202927632859396,-0.34581581606156386,2.031181636030057,0.0,-0.0011222300308754611,0.0,380097.613009,5.02179434691E-12,1012.27800509,-4.64153261404,-3.49941341685,6.53943747999
3300.0,4008356.3265,-2313961.10339,-4912815.51494,3418350.5225,3115907.54065,-4915596.87275,-2906.38388601,6773.16762384,2196.0827215,-4.42061496512,-4.02949088639,6.37525585063,6759927.3281,1.26398760878,0.0010946119545189174,-0.13684948688270643,0.002725861027640603,-0.7377446853524102,-0.3960456111556838,2.0793038761048335,0.0,-0.0011222300308754611,0.0,382815.042886,4.66522623414E-12,1006.02268173,-4.42061496512,-4.02949088639,6.37525585063
3360.0,4324082.06075,-2038060.45593,-4769813.54374,3236152.0157,3514735.34566,-4772468.22026,-3164.49029258,6515.99228166,2572.93718989,-4.17969701061,-4.53947909798,6.18175597001,6760538.14769,1.26836287786,0.0012930841012274465,-0.13585258115150928,0.00270695648655215,-0.7582452848779269,-0.44541615112807603,2.1294737648371034,0.0,-0.0011222300308754611,0.0,385517.296798,4.33673539635E-12,999.997157166,-4.17969701061,-4.53947909798,6.18175597001
3420.0,4622236.9839,-1755411.71575,-4604578.07611,3038912.23774,3897227.73719,-4607093.7327,-3407.57168025,6228.87750952,2937.32771632,-3.91998921052,-5.02710246252,5.95997400632,6761218.28761,1.27273814695,0.0014912403968234886,-0.1349210356306422,0.0026720389787007522,-0.7820442474068974,-0.49376129409043906,2.1820408922694527,0.0,-0.0011222300308754611,0.0,388199.723205,4.03455862118E-12,994.208712864,-3.91998921052,-5.02710246252,5.95997400632
3480.0,4901522.20787,-1467174.01996,-4417906.51929,2827565.75091,4261629.91769,-4420271.47823,-3634.53886862,5913.23046653,3287.59147476,-3.64277724543,-5.49020605462,5.71106602948,6761954.96339,1.27711341604,0.0016879496454519428,-0.13405538161054678,0.0026209335437126233,-0.8094262268499344,-0.5408922778251732,2.2373813630152255,0.0,-0.0011222300308754611,0.0,390858.642916,3.75695575587E-12,988.666906688,-3.64277724543,-5.49020605462,5.71106602948
3540.0,5160719.12728,-1174517.92786,-4210693.84771,2603110.11181,4606275.3226,-4212897.1446,-3844.38191641,5570.58381897,3622.13843873,-3.34941570999,-5.92676230491,5.43630157067,6762734.1324,1.28148868513,0.0018820686984349023,-0.13325585762990977,0.002553557276510978,-0.8407086294148695,-0.5865936672669928,2.295896650205524,0.0,-0.0011222300308754611,0.0,393491.19485,3.50223623705E-12,983.383080931,-3.34941570999,-5.92676230491,5.43630157067
3600.0,5398694.52924,-878620.669659,-3983928.03806,2366600.99665,4929592.91767,-3985959.47074,-4036.17407303,5202.58790665,3939.45800188,-3.04132202964,-6.33487739078,5.13705741564,6763540.76176,1.28586395422,0.0020724488470025538,-0.13252241304329054,0.0024699202470696412,-0.8762360914513222,-0.6306191339198035,2.3580090159721405,0.0,-0.0011222300308754611,0.0,396095.170375,3.26877472365E-12,978.369630063,-3.04132202964,-6.33487739078,5.13705741564
3660.0,5614405.32703,-580661.451858,-3738685.11836,2119147.10031,5230114.01478,-3740535.29214,-4209.075368,4811.0025266,4238.12522977,-2.71997043989,-6.71279764013,4.81481148149,6764359.1748,1.2902392233,0.002257942185697305,-0.13185471248881486,0.0023701263856614994,-0.9163699115274581,-0.6726873660964797,2.4241517772227263,0.0,-0.0011222300308754611,0.0,398668.840476,3.05502035556E-12,973.639190091,-2.71997043989,-6.71279764013,4.81481148149
3720.0,5806902.90196,-281816.832876,-3476123.85331,1861904.83097,5506478.58322,-3477784.22225,-4362.33583534,4397.68832803,4516.80674002,-2.38688579642,-7.05891609216,4.47113650179,6765173.45787,1.29461449239,0.002437407945957224,-0.13125214093915794,0.0022543743105459895,-0.961470237109205,-0.7124786350952624,2.4947522326729636,0.0,-0.0011222300308754611,0.0,401210.779189,2.85950228795E-12,969.203851278,-2.38688579642,-7.05891609216,4.47113650179
3780.0,5975337.03645,16743.8173318,-3197480.08848,1596072.82257,5757441.03276,-3198942.99265,-4495.29835557,3964.59781022,4774.26618991,-2.04363698462,-7.37177913948,4.10769320175,6765967.89639,1.29898976148,0.0026097187970513394,-0.13071380910106928,0.0021229580029577355,-1.0118685262962939,-0.749632852328906,2.570204785858193,0.0,-0.0011222300308754611,0.0,403719.686038,2.68083294264E-12,965.074449024,-2.04363698462,-7.37177913948,4.10769320175
3840.0,6118959.42099,313862.759022,-2904060.77821,1322886.28898,5981875.44464,-2905319.47677,-4607.40108598,3513.76592614,5009.36933214,-1.6918297703,-7.65009296907,3.72622269626,6766727.4027,1.30336503057,0.002773767105423754,-0.13023855903917278,0.0019762671792107446,-1.0678280504331095,-0.7837503289757446,2.650832041639663,0.0,-0.0011222300308754611,0.0,406194.209784,2.51770971137E-12,961.25995545,-1.6918297703,-7.65009296907,3.72622269626
3900.0,6237126.71803,608398.210047,-2597237.72449,1043611.24558,6178780.22762,-2598286.42438,-4698.17944406,3047.30031588,5221.08858744,-1.33309905689,-7.89272938594,3.32853797558,6767437.89857,1.30774029966,0.002928471133335201,-0.12982497003416432,0.0018147871762222618,-1.1294915110967922,-0.8143968197560832,2.7368329602217183,0.0,-0.0011222300308754611,0.0,408632.775722,2.36891546976E-12,957.7669746,-1.33309905689,-7.89272938594,3.32853797558
3960.0,6329303.1678,899228.542249,-2278441.05737,759538.626068,6347282.17798,-2279274.93769,-4767.26761074,2567.37122025,5408.50707947,-0.969100653205,-8.09873057978,2.91651451744,6768086.62334,1.31211556874,0.0030727811468522015,-0.12947136479199509,0.0016390981623761098,-1.1968178447584055,-0.8411146295530593,2.828220151590752,0.0,-0.0011222300308754611,0.0,411033.419087,2.2333180774E-12,954.599333389,-0.969100653205,-8.09873057978,2.91651451744
4020.0,6395062.72436,1185256.33,-1949152.49087,471978.324108,6486639.92668,-1949767.72262,-4814.39953028,2076.20114924,5570.82208497,-0.60150277019,-8.26731248425,2.49208023205,6768662.35161,1.31649083783,0.0032056853929888877,-0.12917581620614968,0.0014498735088477551,-1.2695153353990374,-0.8634413095785558,2.9247534383878553,0.0,-0.0011222300308754611,0.0,413393.627653,2.10986896008E-12,951.757755352,-0.60150277019,-8.26731248425,2.49208023205
4080.0,6434090.71427,1465412.23467,-1610898.39013,182253.190318,6596246.76142,-1611292.15145,-4839.40939882,1576.05439611,5707.34786856,-0.231977524407,-8.39786655368,2.05720506214,6769155.5198,1.32086610692,0.0033262158980398434,-0.12893615488786944,0.001247877206782305,-1.3469846107858312,-0.8809364400317705,3.0258832704844236,0.0,-0.0011222300308754611,0.0,415710.197273,1.99760084259E-12,949.239602409,-0.231977524407,-8.39786655368,2.05720506214
4140.0,6446185.01498,1738658.71053,-1265242.68733,-108306.984874,6675632.81739,-1265413.17417,-4842.23165006,1069.22649197,5817.51789215,0.137807283512,-8.4899599895,1.61389059551,6769558.27494,1.32524137601,0.0034334540356167494,-0.12874997765403734,0.0010339602854425498,-1.428290536351192,-0.8932150022239363,3.130723011666904,0.0,-0.0011222300308754611,0.0,417979.104604,1.89562469669E-12,947.038669474,0.137807283512,-8.4899599895,1.61389059551
4200.0,6431256.75444,2003993.51964,-913779.683676,-398371.472986,6724466.63562,-913726.115758,-4822.90046115,558.033688317,5900.88640944,0.50619591798,-8.54333463112,1.16415999841,6769864.46913,1.3296166451,0.0035265358144375134,-0.1286146570837285,8.090562665181239E-4,-1.5121822731221788,-0.8999831605437207,-3.0451159362124183,0.0,-0.0011222300308754611,0.0,420195.401468,1.80312597296E-12,945.145016858,0.50619591798,-8.54333463112,1.16415999841
4260.0,6389330.53684,2260453.04622,-558126.773417,-686614.56598,6742556.09305,-557849.395682,-4781.54881034,44.8025381732,5957.12947124,0.871551895599,-8.55790483496,0.710048465277,6770069.62693,1.33399191418,0.003604656841623783,-0.12852735215703912,5.741757692988267E-4,-1.5971719738118804,-0.9010698719721913,-2.936703848851224,0.0,-0.0011222300308754611,0.0,422353.135085,1.71936018827E-12,943.544825055,0.871551895599,-8.55790483496,0.710048465277
4320.0,6320544.20194,2507115.40315,-199917.124434,-971721.465604,6729848.71168,-199417.203856,-4718.40711993,-468.140373649,5986.04537508,1.23226463198,-8.5337546788,0.253594240533,6770170.91028,1.33836718327,0.0036670769292357053,-0.1284850198884041,3.304004485596988E-4,-1.6816650560937023,-0.8964470430177564,-2.8287738983460913,0.0,-0.0011222300308754611,0.0,424445.297748,1.6436482935E-12,942.220299392,1.23226463198,-8.5337546788,0.253594240533
4380.0,6225148.12681,2743103.32572,159207.65238,-1252394.07964,6686431.35685,159927.834477,-4633.80151418,-978.478519173,5987.55459171,1.58675565212,-8.47113475213,-0.20316985606,6770167.09791,1.34274245236,0.0037131243247405976,-0.12848442779435656,7.887649180579019E-5,-1.7641156712061359,-0.8862329656690683,-2.722825108390036,0.0,-0.0011222300308754611,0.0,426463.808463,1.5754296497E-12,941.156974918,1.58675565212,-8.47113475213,-0.20316985606
4440.0,6103504.07956,2967586.84873,517604.814375,-1527356.70263,6612529.33615,518541.974474,-4528.15171429,-1483.91531442,5961.69919485,1.93348450026,-8.37045865991,-0.658224543275,6770058.58491,1.34711772145,0.0037421995623262844,-0.12852216699379454,-1.7919208218391983E-4,-1.8431705215545071,-0.8706780890887347,-2.620163494742613,0.0,-0.0011222300308754611,0.0,428399.527799,1.51431029181E-12,940.351885925,1.93348450026,-8.37045865991,-0.658224543275
4500.0,5956083.63505,3179785.76434,873637.749816,-1795361.55983,6508504.9116,874787.618727,-4401.96858477,-1982.18378812,5908.64181097,2.27095446247,-8.23229922432,-1.10957198281,6769847.39735,1.35149299054,0.0037537789471193393,-0.12859466575225986,-4.4255009831763284E-4,-1.9177690958356035,-0.8501369484584502,-2.5218014744176567,0.0,-0.0011222300308754611,0.0,430242.30583,1.45993984748E-12,939.799703233,2.27095446247,-8.23229922432,-1.10957198281
4560.0,5783466.16308,3378971.85817,1225683.16349,-2055194.19367,6374855.23876,1227040.50715,-4255.85134079,-2471.05601063,5828.66409853,2.59771815047,-8.05738426241,-1.55524357259,6769537.20796,1.35586825962,0.003747417696341404,-0.12869820332344598,-7.098976955294392E-4,-1.987185566277233,-0.8250331024592595,-2.4284156009646516,0.0,-0.0011222300308754611,0.0,431981.061851,1.41199680638E-12,939.490935927,2.59771815047,-8.05738426241,-1.55524357259
4620.0,5586336.40066,3564470.92175,1572138.15719,-2305678.67275,6212209.748,1573696.80164,-4090.48442517,-2948.35225267,5722.16476241,2.91238291314,-7.84659177934,-1.99330763688,6769133.33474,1.36024352871,0.0037227527702506907,-0.12882892401218868,-9.79896484525194E-4,-2.05101696052792,-0.7958242030512696,-2.340358007859596,0.0,-0.0011222300308754611,0.0,433603.893582,1.3701888133E-12,939.41197278,2.91238291314,-7.84659177934,-1.99330763688
4680.0,5365481.62169,3735664.53976,1911427.17751,-2545682.60382,6021326.98536,1913180.03784,-3906.63406839,-3411.94983498,5589.65711202,3.2136159721,-7.60094445475,-2.42187692707,6768642.70566,1.3646187978,0.003679505428647908,-0.12898285146417465,-0.001251175368271789,-2.109134718158562,-0.7629723965744901,-2.2577044440675422,0.0,-0.0011222300308754611,0.0,435098.212945,1.33424852919E-12,939.544529059,3.2136159721,-7.60094445475,-2.42187692707
4740.0,5121788.41911,3891991.65153,2242008.80388,-2774121.92838,5803090.93278,2243947.91711,-3705.14455219,-3859.79162483,5431.76617876,3.50014914234,-7.3216033962,-2.83911578163,6768073.77764,1.36899406689,0.0036174835457064495,-0.12915590324345513,-0.0015223360838852763,-2.161619603896322,-0.7269225276861826,-2.180318923499005,0.0,-0.0011222300308754611,0.0,436450.90519,1.30391293252E-12,939.86260164,3.50014914234,-7.3216033962,-2.83911578163
4800.0,4856239.11675,4032949.88751,2562382.35124,-2989965.48691,5558506.83017,2564498.91289,-3486.93420562,-4289.89413803,5249.22541827,3.77078301046,-7.00986125459,-3.24324677877,6767436.40702,1.37336933598,0.003536583707997781,-0.12934390579497884,-0.0017919585959652927,-2.208695936689457,-0.6880882942992024,-2.1079190221406012,0.0,-0.0011222300308754611,0.0,437648.508117,1.27894746865E-12,940.335976676,3.77078301046,-7.00986125459,-3.24324677877
4860.0,4569907.82975,4158096.68301,2871094.26341,-3192239.33565,5288696.52405,2873378.66762,-3252.99116881,-4700.35521331,5042.87303217,4.02439049607,-6.66713489887,-3.6325567551,6766741.67716,1.37774460506,0.0034367931075453603,-0.12954260988656732,-0.00205860651954423,-2.2506746269078324,-0.646845110070241,-2.0401323228233648,0.0,-0.0011222300308754611,0.0,438677.408172,1.25971361335E-12,941.017708877,4.02439049607,-6.66713489887,-3.6325567551
4920.0,4263956.19334,4267050.1733,3166744.27556,-3380030.80323,4994893.36912,3169186.15852,-3004.36896157,-5089.36124021,4813.64794901,4.2599197991,-6.29495789846,-4.00540214246,6766001.69601,1.38211987415,0.0033181912272018275,-0.1297477065884512,-0.0023208327690635243,-2.2879087744686117,-0.6035279206508474,-1.9765402458158763,0.0,-0.0011222300308754611,0.0,439524.050295,1.24665662728E-12,941.969611575,4.2599197991,-6.29495789846,-4.00540214246
4980.0,3939628.78006,4359489.87545,3447991.32644,-3552492.27641,4678436.70965,3450579.61304,-2742.18189188,-5455.19393611,4562.58550467,4.47639681183,-5.89497304456,-4.36021366728,6765229.3798,1.38649514324,0.003180951299028679,-0.1299548437928118,-0.002577185616477814,-2.3207618103814966,-0.5584322841649166,-1.9167092731311035,0.0,-0.0011222300308754611,0.0,440175.158336,1.24648299089E-12,943.241536495,4.47639681183,-5.89497304456,-4.36021366728
5040.0,3598248.22507,4435157.16334,3713559.20356,-3708844.7063,4340765.96758,3716282.157,-2467.60033246,-5796.23667978,4290.81285704,4.67292712433,-5.46892506384,-4.69550053037,6764438.23758,1.39087041233,0.0030253415028662187,-0.1301596432145095,-0.0028262152976734787,-2.3495862844882307,-0.5118173564285697,-1.8602114518515993,0.0,-0.0011222300308754611,0.0,440617.962667,1.24769631777E-12,944.878858044,4.67292712433,-5.46892506384,-4.69550053037
5100.0,3241210.07817,4493855.5429,3962241.90622,-3848380.82769,3983414.36365,3965087.18028,-2181.84588582,-6110.98041479,3999.54416183,4.84869776115,-5.018653567,-5.00985421547,6763642.16607,1.39524568142,0.0028517258603959266,-0.13035771777229452,-0.003066481242303079,-2.374710826509189,-0.46390980836260337,-1.8066366366717288,0.0,-0.0011222300308754611,0.0,440840.431281,1.25645693455E-12,946.925225252,4.84869776115,-5.018653567,-5.00985421547
5160.0,2869977.40053,4535450.73452,4192908.71254,-3970468.0853,3608002.29687,4195863.40649,-1886.18645032,-6398.02913568,3690.07552761,5.0029787535,-4.54608616959,-5.3019520543,6762855.25628,1.3996209505,0.002660564774743899,-0.13054468922413684,-0.00329655992459049,-2.396432938269896,-0.4149080425561194,-1.7555987983553427,0.0,-0.0011222300308754611,0.0,440831.500288,1.27338335302E-12,949.424247237,5.0029787535,-4.54608616959,-5.3019520543
5220.0,2486075.1233,4559870.56941,4404508.93773,-4074551.26123,3216230.40713,4407559.65347,-1581.93119574,-6656.10496338,3363.77976259,5.13512458804,-4.05323166034,-5.57056061078,6762091.60537,1.40399621959,0.0024524151636669276,-0.1307162059514336,-0.0035150532567065416,-2.4150156964773637,-0.3649863337145999,-1.706738301739518,0.0,-0.0011222300308754611,0.0,440581.299386,1.29922932544E-12,952.420641099,5.13512458804,-4.05323166034,-5.57056061078
5280.0,2091084.18517,4567104.70635,4596076.37144,-4160154.79842,2809872.34563,4599209.27277,-1270.42545602,-6884.05280899,3022.10092395,5.2445755053,-3.54217309589,-5.81453886435,6761365.12079,1.40837148868,0.0022279301389006062,-0.13086796083257654,-0.00372059738023681,-2.4306869171786194,-0.3142986960843816,-1.6597215817962119,0.0,-0.0011222300308754611,0.0,440081.367769,1.33491557107E-12,955.960821823,5.2445755053,-3.54217309589,-5.81453886435
5340.0,1686635.46637,4557204.17509,4766733.38269,-4226884.81547,2390767.27802,4769934.25643,-953.045550515,-7080.84461958,2666.54868441,5.33085857328,-3.01506077068,-6.03284110273,6760689.30249,1.41274675777,0.0019878581919457817,-0.13099570920361195,-0.003911871664854889,-2.4436397514241253,-0.26298239579687677,-1.614239225754525,0.0,-0.0011222300308754611,0.0,439324.856085,1.37152671231E-12,960.092650991,5.33085857328,-3.01506077068,-6.03284110273
5400.0,1274403.53664,4530280.75296,4915694.6821,-4274430.80892,1960812.14543,4918949.0008,-631.193549635,-7245.58319961,2298.69253683,5.39358845591,-2.47410512346,-6.22451940913,6760076.9915,1.41712202686,0.0017330418579142948,-0.13109528697580541,-0.004087607701061552,-2.454034008768404,-0.21116109555569482,-1.5700031384067425,0.0,-0.0011222300308754611,0.0,438306.710562,1.42992096555E-12,964.863877178,5.39358845591,-2.47410512346,-6.22451940913
5460.0,856100.235203,4486506.18137,5042270.73234,-4302567.04041,1521953.70901,5045563.71844,-306.29200457,-7377.50560901,1920.15586394,5.43246783938,-1.92156975586,-6.3887256631,6759540.08198,1.42149729594,0.001464415840252981,-0.13116262901326067,-0.0042465980751242695,-2.461997745449843,-0.1589476583202886,-1.5267432242007744,0.0,-0.0011222300308754611,0.0,437023.836187,1.50223892383E-12,970.318721434,5.43246783938,-1.92156975586,-6.3887256631
5520.0,433468.1001,4426111.22948,5145870.79984,-4311153.60689,1076180.40294,5149187.49088,20.2213391274,-7475.98615178,1532.60990261,5.44728756202,-1.35976480895,-6.52471306689,6759089.20449,1.42587256503,0.0011830045906596582,-0.13119378788246835,-0.00438770473688378,-2.4676288220446962,-0.10644665693635304,-1.4842038488242082,0.0,-0.0011222300308754611,0.0,435475.236772,1.59031697758E-12,976.492208703,5.44728756202,-1.35976480895,-6.52471306689
5580.0,8273.66298784,4349384.61231,5226005.64194,-4300137.19369,625514.019772,5229330.95677,346.898830239,-7540.53898411,1137.76762769,5.43792659085,-0.791040934182,-6.6318373348,6758733.40047,1.43024783412,8.899193481791757E-4,-0.13118495304220087,-0.004509866807676479,-2.4709962473182445,-0.053756645966859355,-1.4421402272541461,0.0,-0.0011222300308754611,0.0,433662.130715,1.69621085251E-12,983.402376614,5.43792659085,-0.791040934182,-6.6318373348
5640.0,-417699.376346,4256671.77018,5282289.82539,-4269551.51014,172001.249616,5285608.63097,672.288200021,-7570.82038219,737.377568324,5.40435206865,-0.217783992815,-6.70955780585,6758479.81747,1.43462310321,5.863546476635181E-4,-0.13113247045123946,-0.004612107719149939,-2.4721411995216616,-9.722550902807883E-4,-1.4003148094438722,0.0,-0.0011222300308754611,0.0,431588.041994,1.82214212647E-12,991.041460786,5.40435206865,-0.217783992815,-6.70955780585
5700.0,-842657.083985,4148373.51512,5314443.67183,-4219517.40785,-282294.907534,5317740.85051,994.937861704,-7566.63071338,333.217551439,5.34661968741,0.357589561776,-6.75743881673,6758333.459,1.4389983723,2.735843124015946E-4,-0.13103286246058987,-0.004693541616299985,-2.4710776627739666,0.05181383619228279,-1.3584936871751216,0.0,-0.0011222300308754611,0.0,429258.866397,1.97042035979E-12,999.368303557,5.34661968741,0.357589561776,-6.75743881673
5760.0,-1264802.32464,4024944.54791,5322294.82549,-4150242.67986,-735303.839799,5325555.34241,1313.40224791,-7527.9161447,-72.9116534417,5.26487460875,0.932636878704,-6.77515167101,6758297.02097,1.44337364138,-4.704305278985806E-5,-0.13088284772245307,-0.00475337899539031,-2.467792647619281,0.10450898345458026,-1.316443018012834,0.0,-0.0011222300308754611,0.0,426682.912984,2.143356875E-12,1008.30488968,5.26487460875,0.932636878704,-6.77515167101
5820.0,-1682341.88457,3886891.84691,5305779.43567,-4062021.53762,-1184956.11642,5308988.40611,1626.24722297,-7454.77010153,-479.192831954,5.15935304816,1.50489293247,-6.76247744911,6758370.83746,1.44774891047,-3.74109051227862E-4,-0.13067936075047917,-0.004790931575567856,-2.462245986125175,0.15701866331840078,-1.2739254496177,0.0,-0.0011222300308754611,0.0,423870.920373,2.34319385729E-12,1017.73929012,5.15935304816,1.50489293247,-6.76247744911
5880.0,-2093493.67562,3734772.92704,5264942.94409,-3955233.75995,-1629192.3604,5268085.70051,1932.05560976,-7347.43445808,-883.799018849,5.03038448776,2.0718753363,-6.7193107348,6758552.94406,1.45212417956,-7.061309506464112E-4,-0.13041957069567067,-0.004805616423459801,-2.4543697103185607,0.20924450198574565,-1.2306965274082642,0.0,-0.0011222300308754611,0.0,420836.046744,2.57206899865E-12,1027.53521262,5.03038448776,2.0718753363,-6.7193107348
5940.0,-2496494.00917,3569193.96497,5199940.46358,-3830343.50608,-2065972.18334,5203002.62208,2229.43286351,-7206.30040726,-1284.90044024,4.87839431712,2.63109029913,-6.64566412517,6758839.24931,1.45649944865,-0.0010415675900434145,-0.13010089890317275,-0.004796959363895985,-2.4440670442929555,0.2610821872644989,-1.1865010808427487,0.0,-0.0011222300308754611,0.0,417593.831635,2.83202002449E-12,1037.54575621,4.87839431712,2.63109029913,-6.64566412517
6000.0,-2889604.92459,3390807.78499,5111036.73214,-3687897.78346,-2493283.16082,5114004.25801,2517.01290878,-7031.908928,-1680.6717421,4.70390656637,3.18004014316,-6.54167319324,6759223.78827,1.46087471774,-0.0013788257215186636,-0.12972103487767273,-0.0047645977226589255,-2.4312110705849475,0.3124192043780961,-1.1410696104705609,0.0,-0.0011222300308754611,0.0,414162.126967,3.12501322158E-12,1047.62741221,4.70390656637,3.18004014316,-6.54167319324
6060.0,-3271121.55162,3200311.69967,4998605.62445,-3528524.56049,-2909149.82125,5001464.89669,2793.4641331,-6824.95074933,-2069.29951864,4.50754632701,3.71623256192,-6.40760143776,6759699.01969,1.46524998683,-0.0017162667710323627,-0.12927795040608084,-0.0047082824600092,-2.415643177738733,0.3631323361129834,-1.0941147447812702,0.0,-0.0011222300308754611,0.0,410560.994431,3.45296754306E-12,1057.65075173,4.50754632701,3.71623256192,-6.40760143776
6120.0,-3639379.48025,2998445.20044,4863129.20337,-3352930.51569,-3311642.61493,4865867.07772,3057.49550665,-6586.26570871,-2448.99012471,4.29004147418,4.2371915195,-6.2438447198,6760256.12346,1.46962525591,-0.0020522140022573958,-0.12876991173224878,-0.00462787977031461,-2.3971714688450905,0.4130848708847026,-1.0453279103677204,0.0,-0.0011222300308754611,0.0,406812.56664,3.81774704198E-12,1067.50610077,4.29004147418,4.2371915195,-6.2438447198
6180.0,-3992762.10614,2785987.49507,4705196.29552,-3161898.41709,-3698886.82406,4707800.1658,3307.86277684,-6316.84141531,-2817.97772799,4.05222340558,4.74046944126,-6.05093476079,6760885.25826,1.474000525,-0.0023849600681285638,-0.1281954898451622,-0.004523372240966261,-2.3755694212332346,0.46212347125243924,-0.9943764729859594,0.0,-0.0011222300308754611,0.0,402940.870364,4.22110562149E-12,1077.1045277,4.05222340558,4.74046944126,-6.05093476079
6240.00000001,-4329707.9158,2563754.89181,4525500.57833,-2956284.12936,-4069071.37018,4527958.43584,3543.37467413,-6017.81115568,-3174.53253591,3.79502667144,5.22366018997,-5.82954144184,6761575.7515,1.47837579409,-0.002712774936843482,-0.12755356905548867,-0.0043948596800660504,-2.3505752533875377,0.5100746752040791,-0.9409017756637871,0.0,-0.0011222300308754611,0.0,398971.611576,4.66458118685E-12,1086.37566164,3.79502667144,5.22366018997,-5.82954144184
6300.00000001,-4648717.6729,2332598.03273,4324838.17049,-2737013.24982,-4420457.47223,4327138.66106,3762.89906318,-5690.45101048,-3516.96912277,3.51948754209,5.68441230073,-5.58047385263,6762316.21093,1.48275106318,-0.0030339141816948197,-0.12684335411844067,-0.00424255973020661,-2.3218926916532174,0.5567410408949324,-0.8845187404619992,0.0,-0.0011222300308754611,0.0,394931.923932,5.14934543831E-12,1095.26405641,3.51948754209,5.68441230073,-5.58047385263
6360.00000001,-4948361.46665,2093398.98125,4104104.72181,-2505077.37859,-4751387.1079,4106237.2003,3965.36898054,-5336.17618023,-3843.65478539,3.22674169822,6.12044206405,-5.30468023183,6763094.56719,1.48712633227,-0.0033466276278555263,-0.1260643761509656,-0.004066808379625879,-2.289194154031049,0.6018970136347614,-0.8248180281727289,0.0,-0.0011222300308754611,0.0,390850.084237,5.6760197214E-12,1103.72539718,3.22674169822,6.12044206405,-5.30468023183
6420.00000001,-5227285.58344,1847068.17028,3864292.00273,-2261530.03102,-5060291.2312,3866246.58462,4149.78851366,-4956.53653606,-4153.01786842,2.91802129491,6.52954626223,-5.00324706323,6763898.07442,1.49150160135,-0.0036491683521691224,-0.1252164975270452,-0.003868060454948462,-2.252127782667429,0.6452847067916787,-0.7613721674969005,0.0,-0.0011222300308754611,0.0,386755.200286,6.24446844957E-12,1111.72327072,2.91802129491,6.52954626223,-5.00324706323
6480.00000001,-5484219.16403,1594541.2183,3606483.99652,-2007482.2029,-5345697.7003,3608251.60642,4315.23849092,-4553.2114159,-4443.55601729,2.59465162682,6.9096146136,-4.67739760981,6764713.30739,1.49587687044,-0.0039398020317265815,-0.1242999158050353,-0.003646890131083568,-2.210330228757665,0.6866099639663257,-0.6937475399130256,0.0,-0.0011222300308754611,0.0,382676.877845,6.85358188824E-12,1119.22675487,2.59465162682,6.9096146136,-4.67739760981
6540.00000001,-5717980.60946,1336775.62056,3331852.49958,-1744097.60055,-5606238.87079,3333424.91624,4460.88196295,-4128.00367671,-4713.84433144,2.25804751778,7.25864218427,-4.3284900758,6765526.197,1.50025213953,-0.004216816634475393,-0.12331516659541651,-0.0034039914238092853,-2.1634475191789138,0.7255393244978586,-0.6215245344985492,0.0,-0.0011222300308754611,0.0,378644.874331,7.50106085877E-12,1126.20880032,2.25804751778,7.25864218427,-4.3284900758
6600.00000001,-5927483.69833,1074747.32221,3041652.23619,-1472587.54855,-5840658.80968,3043022.13388,4585.96945878,-3682.83299396,-4962.5433971,1.90970940507,7.57474212518,-3.95801541526,6766322.13986,1.50462740862,-0.004478532434285328,-0.12226312512809977,-0.0031401785489264377,-2.1111664825570795,0.7616988511070907,-0.544328337263985,0.0,-0.0011222300308754611,0.0,374688.746878,8.18321746879E-12,1132.64524947,1.90970940507,7.57474212518,-3.95801541526
6660.00000001,-6111743.37701,809447.179993,2737215.49588,-1194205.58955,-6047820.084,2738376.48177,4689.84399364,-3219.72837903,-5188.4071739,1.551218935,7.85615905008,-3.56759460526,6767086.20384,1.50900267771,-0.0047233123184964795,-0.12114500617877344,-0.002856385948421067,-2.0532586723973028,0.7946761650237044,-0.4618722808292997,0.0,-0.0011222300308754611,0.0,370837.502039,8.89480791785E-12,1138.51430181,1.551218935,7.85615905008,-3.56759460526
6720.00000001,-6269881.18135,541877.31971,2419946.30314,-910241.791829,-6226710.07599,2420892.95053,4771.94579063,-2740.81987043,-5390.2906934,1.18423377707,8.10128319815,-3.15897503475,6767803.43272,1.51337794679,-0.004949572332849543,-0.11996236197171578,-0.0025536677161987487,-1.9896369042150988,0.8240273690371872,-0.37401386181170687,0.0,-0.0011222300308754611,0.0,367119.253535,9.62891504139E-12,1143.79624505,1.18423377707,8.10128319815,-3.15897503475
6780.00000001,-6401130.24589,273047.397894,2091314.13275,-622016.783635,-6376446.77371,2092042.00986,4831.81665967,-2248.32935388,-5567.15750359,0.810481333062,8.30866526874,-2.73402557577,6768459.23426,1.51775321588,-0.005155792383827333,-0.11871707770599235,-0.0022331961171378183,-1.9204208305059611,0.849290618026923,-0.2808198404670666,0.0,-0.0011222300308754611,0.0,363560.893427,1.03768986518E-11,1148.47329109,0.810481333062,8.30866526874,-2.73402557577
6840.00000001,-6504839.85353,3970.77881409,1752847.18846,-330875.536783,-6496283.98407,1753352.88257,4869.10395891,-1744.56048104,-5718.08676777,0.431751073781,8.47703154754,-2.29472992833,6769039.82029,1.52212848497,-0.005340526989778252,-0.11741136444481022,-0.0018962588975718973,-1.846002298404021,0.8700076132783615,-0.18263115978046443,0.0,-0.0011222300308754611,0.0,360187.781183,1.11284288137E-11,1152.52932687,0.431751073781,8.47703154754,-2.29472992833
6900.00000001,-6580479.47756,-264339.359007,1406125.26913,-38180.9273356,-6585615.91365,1406406.40587,4883.56405125,-1231.88768634,-5842.27990476,0.0498853638799,8.60529873349,-1.84317795754,6769532.6582,1.52650375406,-0.005502415947862539,-0.11604774924760078,-0.0015442551373386507,-1.7670947509821782,0.8857529413263726,-0.0801119379063854,0.0,-0.0011222300308754611,0.0,357023.454391,1.18716246337E-11,1155.94979542,0.0498853638799,8.60529873349,-1.84317795754
6960.00000001,-6627642.26817,-530873.968946,1052772.25343,254692.893709,-6643981.06448,1052827.51108,4875.06516523,-712.744340342,-5939.06664641,-0.333231200138,8.69258777699,-1.38155493571,6769926.89272,1.53087902315,-0.005640194763965348,-0.11462906257362962,-0.001178689493797357,-1.6847467526951019,0.8961688839083868,0.02573739177391408,0.0,-0.0011222300308754611,0.0,354089.364516,1.25933350001E-11,1158.72245848,-0.333231200138,8.69258777699,-1.38155493571
7020.00000001,-6646047.9389,-794632.113808,694448.241841,546367.281376,-6671065.39494,694277.360476,4843.58957582,-189.610119291,-6007.9103894,-0.715683755515,8.73823606947,-0.91212881271,6770213.70301,1.53525429223,-0.005752704683522828,-0.1131584231257317,-8.01164823372704E-4,-1.6003022577459534,0.9010005952779264,0.13362018048767338,0.0,-0.0011222300308754611,0.0,351404.641056,1.32795385379E-11,1160.83803765,-0.715683755515,8.73823606947,-0.91212881271
7080.00000001,-6635545.01281,-1054624.95064,332841.401675,835465.986317,-6666704.70214,332445.187004,4789.23503544,335.002293791,-6048.41273125,-1.0955401438,8.74180746166,-0.437235812422,6770386.57209,1.53962956132,-0.005838902162795666,-0.11163922040347665,-4.133733202197225E-4,-1.51530238754979,0.9001245624998307,0.24204214250254724,0.0,-0.0011222300308754611,0.0,348985.887561,1.39158445642E-11,1162.29051818,-1.0955401438,8.74180746166,-0.437235812422
7140.00000001,-6596112.39549,-1309879.69678,-30340.4332987,1120622.10649,-6630886.18978,-30960.1114354,4712.21540534,858.561035302,-6060.3171017,-1.47086453529,8.70309978676,0.0407352435492,6770441.45931,1.54400483041,-0.005897867634680529,-0.11007509528498449,-1.7086458692694273E-5,-1.4313427302856523,0.8935634373664488,0.3494544048436992,0.0,-0.0011222300308754611,0.0,346847.013142,1.44880744859E-11,1163.0772465,-1.47086453529,8.70309978676,0.0407352435492
7200.00000001,-6527860.24926,-1559443.55005,-393378.352241,1400485.05197,-6563749.19452,-394218.566762,4612.86045859,1378.52926027,-6043.51142604,-1.83973136558,8.6221497655,0.519359462479,6770376.87928,1.5483800995,-0.005928813447985943,-0.10846991896184886,3.8585585701215753E-4,-1.3499176292320088,0.8814832650486611,0.45440956642810426,0.0,-0.0011222300308754611,0.0,344999.103029,1.49828901571E-11,1163.19888504,-1.83973136558,8.6221497655,0.519359462479
7260.00000001,-6431030.15116,-1802387.53609,-754551.08635,1673727.47278,-6465585.05304,-755607.865236,4491.61484485,1892.3795579,-5998.02978096,-2.20023929459,8.49923532542,0.996192880156,6770193.89902,1.55275536859,-0.005931090892417434,-0.1068277705207317,7.935564687538362E-4,-1.2722884101621394,0.8641738706425068,0.5556938214381083,0.0,-0.0011222300308754611,0.0,343450.331463,1.53884267282E-11,1162.65928464,-2.20023929459,8.49923532542,0.996192880156
7320.00000001,-6305994.5253,-2037810.25635,-1112143.79661,1939052.09957,-6336836.10161,-1113412.14057,4349.03622271,2397.60843143,-5924.05302383,-2.55052496437,8.33487545164,1.46878963597,6769896.06903,1.55713063767,-0.005904196257557842,-0.10515291341248538,0.00120407200064968,-1.1994025350018849,0.8420175459081493,0.6524081647875125,0.0,-0.0011222300308754611,0.0,342205.919438,1.5694882512E-11,1161.46533043,-2.55052496437,8.33487545164,1.46878963597
7380.00000001,-6153255.34762,-2264841.51142,-1464456.86847,2195198.44774,-6178093.80843,-1465930.77388,4185.79257697,2891.75069855,-5821.90839188,-2.88877638612,8.12982770487,1.9347191035,6769489.30271,1.56150590676,-0.005847775909506519,-0.10344977100410399,0.001615423361201788,-1.1318714846211748,0.8154532930515758,0.7439908821253904,0.0,-0.0011222300308754611,0.0,341268.138859,1.58950186006E-11,1159.6268118,-2.88877638612,8.12982770487,1.9347191035
7440.00000001,-5973442.12826,-2482645.77565,-1809814.65182,2440949.33666,-5990096.04785,-1811487.13888,4002.65874729,3372.39367576,-5692.06807922,-3.21324581404,7.88508352209,2.39158280576,6768981.7147,1.56588117585,-0.005761630397220174,-0.10172290138053235,0.002025605447544358,-1.069997409458439,0.7849432725168023,0.8301912912073944,0.0,-0.0011222300308754611,0.0,340636.363369,1.59845268164E-11,1157.15635909,-3.21324581404,7.88508352209,2.39158280576
7500.00000001,-5767309.18331,-2690425.50094,-2146574.0855,2675137.17795,-5773723.53325,-2148437.23142,3800.5122035,3837.19101662,-5535.1468094,-3.52226196414,7.60186139099,2.83703095608,6768383.42408,1.57025644494,-0.005645717619168457,-0.09997697154869964,0.0024325959577035858,-1.0138294291804992,0.7509457360009542,0.9110138594812524,0.0,-0.0011222300308754611,0.0,340307.164818,1.5962235569E-11,1154.06947829,-3.52226196414,7.60186139099,2.83703095608
7560.00000001,-5535732.21456,-2887424.22908,-2473133.14692,2896649.98865,-5529995.43314,-2475178.12391,3580.32811102,4283.87607887,-5351.89843097,-3.81424142484,7.28159799034,3.26877845043,6767706.32478,1.57463171403,-0.005500155088195373,-0.09821673121202751,0.002834363398283462,-0.9632304375246121,0.71389603199762,0.9866518482533656,0.0,-0.0011222300308754611,0.0,340274.453027,1.58301379653E-11,1150.38470154,-3.81424142484,7.28159799034,3.26877845043
7620.00000001,-5279704.22152,-3072929.49427,-2787939.0692,3104437.08838,-5260064.20234,-2790156.18715,3343.17374009,4710.27470209,-5143.21157485,-4.08769910016,6.92593742512,3.68462011562,6766963.8249,1.57900698311,-0.005325221326752937,-0.09644698629954496,0.003228874536941395,-0.9179405969246164,0.6741952431676046,1.057424306117808,0.0,-0.0011222300308754611,0.0,340529.65541,1.55932430538E-11,1146.12385682,-4.08769910016,6.92593742512,3.68462011562
7680.00000001,-5000330.77645,-3246275.50008,-3089496.2711,3297514.44285,-4965209.66696,-3091875.02461,3090.20228093,5114.31728686,-4910.10442416,-4.34125754313,6.53671874689,4.08244501349,6766170.5581,1.5833822522,-0.005121356410239619,-0.09467257245398786,0.0036141016647608247,-0.8776301812303392,0.6322049510440693,1.1237237614857667,0.0,-0.0011222300308754611,0.0,341061.932117,1.52592670949E-11,1141.312446,-4.34125754313,6.53671874689,4.08244501349
7740.00000001,-4698824.69785,-3406845.55741,-3376373.94834,3474969.62029,-4646832.40799,-3378903.06791,2822.64613492,5494.05007991,-4653.71865862,-4.57365507851,6.11596201168,4.46024962562,6765342.07378,1.58775752129,-0.0048891616550925604,-0.09289832868465772,0.003988030082160367,-0.8419395437457216,0.5882463486512888,1.1859768461721454,0.0,-0.0011222300308754611,0.0,341858.421634,1.48381950823E-11,1135.9801068,-4.57365507851,6.11596201168,4.46024962562
7800.00000001,-4376500.16278,-3554074.27328,-3647213.27887,3635966.33135,-4306446.49367,-3649880.78583,2541.80975594,5847.64558602,-4375.31264473,-4.7837526727,5.66585316289,4.81614979359,6764494.51542,1.59213279038,-0.004629398426500798,-0.09112907138208703,0.0043486661973262675,-0.8105070603463328,0.5426021077730778,1.244617010755871,0.0,-0.0011222300308754611,0.0,342904.511236,1.43417518047E-11,1130.1611214,-4.7837526727,5.66585316289,4.81614979359
