time,gePosition_m_X,gePosition_m_Y,gePosition_m_Z,eiPosition_m_X,eiPosition_m_Y,eiPosition_m_Z,eiVelocity_m_s_X,eiVelocity_m_s_Y,eiVelocity_m_s_Z,eiAccel_m_s2_X,eiAccel_m_s2_Y,eiAccel_m_s2_Z,semiMajorAxis_m,gast_rad,eulerAngle_rad_Roll,eulerAngle_rad_Pitch,eulerAngle_rad_Yaw,eulerAngleWrtEi_rad_Roll,eulerAngleWrtEi_rad_Pitch,eulerAngleWrtEi_rad_Yaw,bodyAngularRateWrtEi_rad_s_Roll,bodyAngularRateWrtEi_rad_s_Pitch,bodyAngularRateWrtEi_rad_s_Yaw,altitudeMsl_m,airDensity_kg_m3,ambientTemperature_dgK,eiGravitation_m_s2_X,eiGravitation_m_s2_Y,eiGravitation_m_s2_Z
0.0,-1436381.4663574744,4185811.709981752,5163944.671561651,-4315967.74,960356.1999999998,5167269.529999999,129.09103699999832,-7491.513854999997,1452.5156539999987,5.454580592443033,-1.2138769058678107,-6.549173678777671,6759053.075789562,1.0233194459853856,5.666859310090004E-17,-0.20245819323134254,-4.604323189448128E-17,-2.471593905564226,-0.03718896475784017,-1.428993135204368,4.658681209898652E-20,-0.0011222300308759384,4.0657581468206416E-20,434989.54081172694,1.6159166507157113E-12,978.0522572877376,5.454580592443033,-1.2138769058678107,-6.549173678777671
60.0,-1794959.996003188,3943151.684705028,5239238.395613626,-4298410.8582332665,509021.50512712996,5242566.810547706,455.9639477855316,-7547.277266021642,1056.3809752947855,5.4371396790477045,-0.6440460346975406,-6.650437047948726,6758732.977548124,1.027694715234372,-3.160929864143278E-6,-0.2024370051706196,-9.151237583498426E-5,-2.472045194408246,0.015605902028426027,-1.3871941836888853,4.658681209898652E-20,-0.0011222300308759384,4.0657581468206416E-20,433110.3628481737,1.726363190595352E-12,985.1057249983783,5.4371396790477045,-0.6440460346975406,-6.650437047948726
120.0,-2147590.3701635506,3685729.235088761,5290614.554290997,-4261287.54970288,55369.42702455184,5293931.374676205,781.0627566983868,-7568.7205580161035,655.0536364342673,5.395449703942849,-0.07027528944210328,-6.722182546347152,6758512.191160562,1.0320699844833425,-1.2698878418303573E-5,-0.20237108092227185,-1.8261578638513291E-4,-2.4702868220479717,0.06837346634951039,-1.3453262663514858,4.658681209898652E-20,-0.0011222300308759384,4.0657581468206416E-20,430971.6198169771,1.8573503916135762E-12,992.875739154822,5.395449703942849,-0.07027528944210328,-6.722182546347152
180.0,-2492788.9578144522,3414636.3555230093,5317814.953299976,-4204747.87407234,-398535.18898064655,5321105.066133373,1102.9344878451827,-7555.680101493741,250.31799915679628,5.329591627472969,0.5050044164350543,-6.763985268039892,6758393.694325057,1.0364452537322815,-2.8653465459849908E-5,-0.2022570251733314,-2.724560135005015E-4,-2.4662973075153496,0.12102070149999372,-1.3031548243083342,4.658681209898652E-20,-0.0011222300308759384,4.0657581468206416E-20,428579.63967937557,2.0112028061791944E-12,1001.3137005822555,5.329591627472969,0.5050044164350543,-6.763985268039892
240.0,-2829091.7909863517,3131014.999517766,5320689.091549575,-4129028.868098047,-850622.0742930784,5323937.489406179,1420.133816390296,-7508.139049507068,-156.01938228390853,5.239739978027453,1.079332279382766,-6.775531177151636,6758378.762103352,1.0408205229812044,-5.100605806266621E-5,-0.20209164991713607,-3.6018404570219327E-4,-2.460027840101518,0.17345209177142892,-1.2604406632143343,4.658681209898652E-20,-0.0011222300308759384,4.0657581468206416E-20,425943.21943949244,2.1902313374757715E-12,1010.3346312908731,5.239739978027453,1.079332279382766,-6.775531177151636
300.0,-3155060.510150164,2836052.7202713606,5299195.290356439,-4034453.9165435475,-1298824.3938489126,5302387.138773713,1731.2287619521264,-7426.228929464266,-562.1365601048334,5.126165444458142,1.65022457957769,-6.756622003274886,6758467.160242035,1.0451957922300796,-7.967904167075045E-5,-0.2018719910092706,-4.4496082660853975E-4,-2.451401532058155,0.22556763079897746,-1.21693635378477,4.658681209898652E-20,-0.0011222300308759384,4.0657581468206416E-20,423073.64977474546,2.3966683573650106E-12,1019.8215641189792,5.126165444458142,1.65022457957769,-6.756622003274886
360.0,-3469288.3292078245,2530978.14348219,5253401.406231861,-3921431.7770623458,-1741087.6849776257,5256522.110676029,2034.8065247526508,-7310.23077226496,-966.203281081955,4.989236987004358,2.2151830964273835,-6.707179900491122,6758657.3145127045,1.049571061478955,-1.1453541173110078E-4,-0.20159532321426998,-5.259628021439937E-4,-2.440312300130583,0.2772606847082967,-1.1723826141699925,4.658681209898652E-20,-0.0011222300308759384,4.0657581468206416E-20,419984.7026280108,2.632640619236791E-12,1029.6361772657115,4.989236987004358,2.2151830964273835,-6.707179900491122
420.0,-3770405.997827628,2217056.2796278023,5183485.110618206,-3790455.251528354,-2175378.8481272277,5186520.382758949,2329.479427126575,-7160.575700695322,-1366.3883358673954,4.829423208898173,2.77170464637052,-6.6272514358822265,6758946.4179389,1.0539463307277828,-1.5537876548138538E-4,-0.20125917389329054,-6.023883925840824E-4,-2.4266234488935607,0.3284156602672077,-1.1265047086281983,4.658681209898652E-20,-0.0011222300308759384,4.0657581468206416E-20,416692.5783283352,2.900180010804595E-12,1039.6328230647302,4.829423208898173,2.77170464637052,-6.6272514358822265
480.0,-4057087.736410127,1895583.6862742386,5089733.722298784,-3642099.498900811,-2599695.15526517,5092669.645313858,2613.890912614716,-6977.84492387038,-1760.8671205402834,4.647292906520062,3.3172912560583283,-6.5170106514264985,6759330.455067337,1.0583215999766105,-2.019537754275911E-4,-0.20086133559187702,-6.734652864904305E-4,-2.410166082393471,0.37890541913182324,-1.079008951413574,4.658681209898652E-20,-0.0011222300308759384,4.0657581468206416E-20,413215.8104620184,3.2012527714649595E-12,1049.6719371084105,4.647292906520062,3.3172912560583283,-6.5170106514264985
540.0,-4328057.118009437,1567883.4936408997,4972543.581467971,-3477019.9876117962,-3012073.239485191,4975366.674096223,2886.721555575036,-6762.769115018976,-2147.8293528648674,4.443514900720768,3.849460467630168,-6.376761174472488,6759804.14425159,1.0626968692254064,-2.539472128278243E-4,-0.20039987782458846,-7.384582280607071E-4,-2.390737553668885,0.4285883837546494,-1.0295794903450843,4.658681209898652E-20,-0.0011222300308759384,4.0657581468206416E-20,409575.12869725755,3.537778059705655E-12,1059.6296033338695,4.443514900720768,3.849460467630168,-6.376761174472488
600.0,-4582092.8718137955,1235300.308120842,4832418.957806528,-3295950.0880091856,-3410598.028832624,4835116.236866849,3146.6950449449077,-6516.227176703056,-2525.4868910016858,4.218857391842294,4.365755409403954,-6.206937569301192,6760360.820561328,1.0670721384741706,-3.1098956256285715E-4,-0.19987315830406963,-7.966767887979399E-4,-2.3681002878841557,0.47730529221938167,-0.9778756738827268,4.658681209898652E-20,-0.0011222300308759384,4.0657581468206416E-20,405793.28176167153,3.911610619751405E-12,1069.4020499337576,4.218857391842294,4.365755409403954,-6.206937569301192
660.0,-4818034.583719682,899195.0085826095,4669970.48759462,-3099698.307086961,-3793411.588129861,4672529.528688697,3392.584122449489,-6239.244412532622,-2892.0816186917446,3.974187134632206,4.863754512590334,-6.008106262651306,6760992.298747053,1.0714474077229348,-3.726572292157035E-4,-0.19927983374515645,-8.47482524185626E-4,-2.3419815006359914,0.5248755839273315,-0.9235304947795272,4.658681209898652E-20,-0.0011222300308759384,4.0657581468206416E-20,401894.8244734168,4.324474517705596E-12,1078.905745078576,3.974187134632206,4.863754512590334,-6.008106262651306
720.0,-5034788.270309645,560939.4493533552,4485913.136420227,-2889145.168397225,-4158721.8337721736,4488322.132537902,3623.2164723522233,-5932.990123062064,-3245.8933822311983,3.7104686798499826,5.3410810381973555,-5.780966398952146,6761688.764081843,1.075822676973096,-4.384752960086033E-4,-0.19861887020569963,-8.902949314304229E-4,-2.3120745961866445,0.5710934443673489,-0.8661508699167281,4.658681209898652E-20,-0.0011222300308759384,4.0657581468206416E-20,397905.8738940332,4.7778473518173295E-12,1088.074725586469,3.7104686798499826,5.3410810381973555,-5.780966398952146
780.0,-5231331.80243116,221911.08235632267,4281063.684326051,-2665239.739841585,-4504811.087075142,4283311.50207285,3837.4805708372082,-5598.774626213343,-3585.2479834419782,3.4287637898667134,5.795412813180448,-5.526350879910391,6762438.73712692,1.0801979462217968,-5.079207536848395E-4,-0.19788955275477874,-9.245957548089876E-4,-2.2780433838384093,0.615723617559181,-0.8053208725177817,4.658681209898652E-20,-0.0011222300308759384,4.0657581468206416E-20,393853.8401891675,5.272802226315987E-12,1096.856814319058,3.4287637898667134,5.795412813180448,-5.526350879910391
840.0,-5406720.153062616,-116512.4900236052,4056337.729633814,-2428995.811470638,-4830044.43096742,4058413.9628005493,4034.33150396532,-5238.045674434501,-3908.5252425993535,3.1302309450548753,6.224492690470525,-5.245227647251614,6763229.1470339075,1.0845732154704657,-5.804260948139439E-4,-0.19709149410674126,-9.499314078909817E-4,-2.2395306890722204,0.6584972253796945,-0.740609474167974,4.658681209898652E-20,-0.0011222300308759384,4.0657581468206416E-20,389767.1376716483,5.809817976503041E-12,1105.209897581421,3.1302309450548753,6.224492690470525,-5.245227647251614
900.0,-5560090.441256814,-452959.0200070492,3812746.20688114,-2181487.725150187,-5132877.832226555,3814641.227075479,4212.796752367862,-4852.384210316821,-4214.167141796203,2.816124670103636,6.626140207975139,-4.938701032790375,6764045.529536232,1.0889484847191346,-6.553831562991323E-4,-0.19622464177501694,-9.65913566075615E-4,-2.196173409612028,0.6991080320292795,-0.6715848301085134,4.658681209898652E-20,-0.0011222300308759384,4.0657581468206416E-20,385674.8809165555,6.388568845540559E-12,1113.0988675319286,2.816124670103636,6.626140207975139,-4.938701032790375
960.0,-5690666.739934863,-786067.164314173,3551391.414126857,-1923845.858642868,-5411865.987198508,3553096.4181871493,4371.981920239888,-4443.499378816286,-4500.686042154382,2.48779427740697,6.9982647360963615,-4.60801279248236,6764872.344420479,1.0933237539677718,-7.321471024335376E-4,-0.1952892832855176,-9.722182704932318E-4,-2.1476264376971796,0.7372098731360949,-0.5978375145808231,4.658681209898652E-20,-0.0011222300308759384,4.0657581468206416E-20,381606.57003126905,7.007705187154102E-12,1120.493407706871,2.48779427740697,6.9982647360963615,-4.60801279248236
1020.0,-5797764.611011758,-1114492.0628208246,3273462.546053774,-1657251.7687621834,-5665669.843666592,3274969.599967207,4511.0763603152445,-4013.222704985711,-4766.672941048118,2.1466815847933263,7.338880122244906,-4.254542317048426,6765693.387637365,1.0976990232163775,-8.1004047128776E-4,-0.19428604905732996,-9.685841262426646E-4,-2.0935978557393606,0.7724163273709495,-0.5190151007713463,4.658681209898652E-20,-0.0011222300308759384,4.0657581468206416E-20,377591.7684032606,7.664637895357489E-12,1127.3665553696496,2.1466815847933263,7.338880122244906,-4.254542317048426
1080.0,-5880795.3275563335,-1436910.925515464,2980230.73226415,-1382933.0019312613,-5893063.746237796,2981532.8113158448,4629.3586213150165,-3563.5013547399367,-5010.8057041643215,1.7943172268257015,7.64612054015045,-3.879805501700662,6766492.25938443,1.1020742924649671,-8.883572462462186E-4,-0.1932159126836391,-9.548103271983386E-4,-2.033896939957247,0.8043040940336778,-0.4348696089350727,4.658681209898652E-20,-0.0011222300308759384,4.0657581468206416E-20,373659.7757814619,8.355341228850736E-12,1133.6938704070403,1.7943172268257015,7.64612054015045,-3.879805501700662
1140.0,-5939269.740251069,-1752028.60234854,2673043.5849535977,-1102157.58549719,-6092942.148350847,2674134.6098414226,4726.201625530583,-3096.390421439561,-5231.857178708163,1.4323153236821475,7.918257009479573,-3.4854518583594745,6767252.8440158535,1.1064495617135248,-9.663669692733441E-4,-0.19208018850279737,-9.307552592804638E-4,-1.9684941526999837,0.8324218222327848,-0.3453169937497679,4.658681209898652E-20,-0.0011222300308759384,4.0657581468206416E-20,369839.29951313435,9.074190968054918E-12,1139.453018358282,1.4323153236821475,7.918257009479573,-3.4854518583594745
1200.0,-5972801.744821727,-2058583.1057860097,2353319.2664200915,-816228.2190071128,-6264325.831637086,2354194.1350827105,4801.077475554736,-2614.044217627786,-5428.703074136137,1.0623664581888694,8.153713924139788,-3.0732596314977636,6767959.7610207,1.110824830962067,-0.001043318956088398,-0.19088052650701534,-8.963363208100657E-4,-1.8975879558911621,0.8563060762491734,-0.2505034948146101,4.658681209898652E-20,-0.0011222300308759384,4.0657581468206416E-20,366158.12718512374,9.81385656062105E-12,1144.6235885583542,1.0623664581888694,8.153713924139788,-3.0732596314977636
1260.0,-5981111.308470745,-2355351.0519735236,2022540.0939827904,-526476.1906899126,-6406367.573329629,2023194.708905843,4853.561791726983,-2118.706591374015,-5600.3294885442665,0.6862290901395266,8.351084935408759,-2.645128880650097,6768598.756938573,1.115200100210593,-0.0011184467102961905,-0.18961890475867887,-8.515313626155306E-4,-1.8216671353379268,0.875505392693743,-0.1508675324626657,4.658681209898652E-20,-0.0011222300308759384,4.0657581468206416E-20,362642.80469428876,1.0565266018899309E-11,1149.1869852986958,0.6862290901395266,8.351084935408759,-2.645128880650097
1320.0,-5964027.016418365,-2641152.983853156,1682245.707151415,-234255.04997321666,-6518357.20470154,1682676.9979385505,4883.337493766419,-1612.7003227195107,-5745.839962053528,0.30571966446110477,8.5091476577699,-2.203072664738725,6769157.022790485,1.1195753694590873,-0.0011909726510600353,-0.1882976195581132,-7.963818337323862E-4,-1.741551137545755,0.8896117212821428,-0.04717964371912847,4.658681209898652E-20,-0.0011222300308759384,4.0657581468206416E-20,359318.3247069993,1.131765875431029E-11,1153.1261976224635,0.30571966446110477,8.5091476577699,-2.203072664738725
1380.0,-5921488.103915448,-2914858.538499611,1334025.8286833484,59065.92844723115,-6599726.007697472,1334231.7697045053,4890.197957428451,-1098.4156822851257,-5864.461950157664,-0.07729827775732774,8.626876849132456,-1.7492065674634822,6769623.436471237,1.123950638707566,-0.0012601132614505966,-0.18691927361646876,-7.309973738174389E-4,-1.6583883691202068,0.8982960218289323,0.05945959770671923,4.658681209898652E-20,-0.0011222300308759384,4.0657581468206416E-20,356207.8313190878,1.20587562159879E-11,1156.4259168910016,-0.07729827775732774,8.626876849132456,-1.7492065674634822
1440.0,-5853545.943942518,-3175391.421194928,979512.65712857,352108.44987270335,-6650050.402357749,979492.2800865214,4874.049495249559,-578.2982493784795,-5955.552625470044,-0.46092569767517294,8.703455899062668,-1.285736827317839,6769988.741021063,1.1283259079560126,-0.0013250847347713959,-0.18548676245341172,-6.555612810730568E-4,-1.5735978370238188,0.9013421412667296,0.167678304848736,4.658681209898652E-20,-0.0011222300308759384,4.0657581468206416E-20,353332.34727130306,1.2775077001159962E-11,1159.0734211856725,-0.46092569767517294,8.703455899062668,-1.285736827317839
1500.0,-5760364.965775468,-3421734.1499775085,620372.9334953988,643492.0325119008,-6669054.883690216,620126.3347825021,4834.913125727377,-54.83609276233888,-6018.603931173432,-0.8432401503702117,8.738286584706634,-0.8149472962175823,6770245.675428848,1.1327011772044275,-0.001385109146615989,-0.1840032591732725,-5.7033606083543E-4,-1.4887544881284087,0.8986716537957294,0.2759482912658581,4.658681209898652E-20,-0.0011222300308759384,4.0657581468206416E-20,350710.53016625834,1.3452368314926406E-11,1161.0591878048735,-0.8432401503702117,8.738286584706634,-0.8149472962175823
1560.0,-5642222.9844102245,-3652932.5361677585,258299.72890755726,931840.9245454231,-6656614.17286308,257828.0716571476,4772.925605661318,469.45358205854257,-6053.246820909866,-1.222308239206093,8.730997097216376,-0.3391853825579177,6770389.074022919,1.1370764464528427,-0.0014394211177692323,-0.18247219770397485,-4.7566816515180337E-4,-1.405438464485857,0.8903533889484055,0.3827361639045078,4.658681209898652E-20,-0.0011222300308759384,4.0657581468206416E-20,348358.46370719187,1.4076136805360462E-11,1162.3771983006075,-1.222308239206093,8.730997097216376,-0.3391853825579177
1620.0,-5499510.925528635,-3868099.8683623136,-104995.99620582208,1215791.0605278339,-6612754.553836224,-105690.48543512067,4688.339706100474,992.0382146599618,-6059.254627351688,-1.59619836676356,8.681448308224192,0.13915292208127902,6770415.944829232,1.1414517157012258,-0.001487274869210403,-0.18089725453404526,-3.719910870135663E-4,-1.3250831126112976,0.876595054568748,0.4866556617840166,4.658681209898652E-20,-0.0011222300308759384,4.0657581468206416E-20,346289.48910923884,1.463225359270464E-11,1163.0250368391871,-1.59619836676356,8.681448308224192,0.13915292208127902
1680.0,-5332731.935438758,-4066420.7694372768,-467794.007542582,1493997.011236736,-6537654.3729,-468708.047476491,4581.523715446773,1510.3839922750838,-6036.545506943179,-1.9629937369851358,8.589738170915226,0.6176388484660661,6770325.52898379,1.1458269849495775,-0.001527951512972486,-0.17928232896445787,-2.598261598710436E-4,-1.248857112718567,0.8577192397597972,0.586585879596162,4.658681209898652E-20,-0.0011222300308759384,4.0657581468206416E-20,344514.0806268064,1.5107596495306524E-11,1163.00384690965,-1.9629937369851358,8.589738170915226,0.6176388484660661
1740.0,-5142499.870524264,-4247154.698263161,-828373.5301535203,1765138.88018194,-6431643.685332117,-829502.7988967022,4452.960156549172,2021.9701562148007,-5985.183914175463,-2.320805537262006,8.45620408080419,1.093827367796789,6770119.33541578,1.1502022541979289,-0.0015607663839597038,-0.17763152191485576,-1.3978070689926066E-4,-1.1776021910183951,0.8341299041581928,0.6817339182474753,4.658681209898652E-20,-0.0011222300308759384,4.0657581468206416E-20,343039.7677924062,1.549068430652693E-11,1162.3182047421453,-2.320805537262006,8.45620408080419,1.093827367796789
1800.0,-4929537.16637049,-4409639.070256523,-1185022.0400911018,2027929.0993580006,-6295203.040734988,-1186361.1945611269,4303.243710522797,2524.3033837395706,-5905.381068000449,-2.667786171980559,8.281422998637066,1.5652742299264553,6769801.140108479,1.154577523446217,-0.001585076200327844,-0.17594911337155478,-1.254352921431346E-5,-1.1118280220767305,0.8062766880116068,0.7716403607034311,4.658681209898652E-20,-0.0011222300308759384,4.0657581468206416E-20,341871.1056168904,1.5772254421764896E-11,1160.975964253826,-2.667786171980559,8.281422998637066,1.5652742299264553
1860.0,-4694672.0929069435,-4553291.973769601,-1536044.053262539,2281119.0766565297,-6128961.406656249,-1537586.7538805846,4133.078349647059,3014.932106109236,-5797.494386996138,-3.0021423567936605,8.066209181508661,2.0295532487273933,6769376.938666132,1.1589527926945367,-0.001600285849524266,-0.17423953862802563,1.2112193921506425E-4,-1.0517504053459263,0.7746230677634026,0.8561414947168459,4.658681209898652E-20,-0.0011222300308759384,4.0657581468206416E-20,341009.69277244806,1.594573700511383E-11,1158.9881229543973,-3.0021423567936605,8.066209181508661,2.0295532487273933
1920.0,-4438835.408411611,-4677614.462782356,-1879769.849396563,2523505.6478693085,-5933693.238678853,-1881508.7899152327,3943.2736945389593,3491.460617128142,-5662.025888144978,-3.3221478415588455,7.811609470114464,2.484273505885289,6768854.844574688,1.163328061942793,-0.0016058546278034601,-0.17250736352431154,2.603862081110922E-4,-0.9973527367978705,0.7396217670936759,0.9353082676694179,4.658681209898652E-20,-0.0011222300308759384,4.0657581468206416E-20,340454.23672035616,1.6007586349989698E-11,1156.3687497704632,-3.3221478415588455,7.811609470114464,2.484273505885289
1980.0,-4163056.4317188105,-4782192.410352942,-2214564.0693280147,2753937.2875513956,-5710314.713920998,-2216491.0116403997,3734.7406250614613,3951.5628272133467,-5499.619564321541,-3.626155525077366,7.518896209061481,2.9270961360056282,6768244.9318937715,1.1677033311910492,-0.0016013018109449324,-0.17075725892973054,4.0436326887667107E-4,-0.9484529480630111,0.7016982752092156,1.0093798078855842,4.658681209898652E-20,-0.0011222300308759384,4.0657581468206416E-20,340200.6638184753,1.5957442394456836E-11,1153.1350043655864,-3.626155525077366,7.518896209061481,2.9270961360056282
2040.0,-3868458.5580514017,-4866697.911691747,-2538834.1252979417,2971320.0351925204,-5459879.153376257,-2540939.939037161,3508.486187849481,4392.99552626696,-5311.057774772092,-3.9126087563360694,7.189557993131303,3.355750398511898,6767559.027941709,1.1720786004407024,-0.0015862114911989952,-0.16899397472257005,5.521202890986242E-4,-0.9047641662901265,0.6612415958616468,1.0787032667242924,4.658681209898652E-20,-0.0011222300308759384,4.0657581468206416E-20,340242.27160512446,1.579811095662574E-11,1149.307264194134,-3.9126087563360694,7.189557993131303,3.355750398511898
2100.0,-3556254.2492136704,-4930890.230311655,-2851038.3665084676,3174623.096058972,-5183571.666325412,-2853313.073213985,3265.6078541039474,4813.611032601045,-5097.2566983198685,-4.180051670513916,6.8252885027304195,3.768048819327324,6766810.466508385,1.176453869688895,-0.0015602366706814052,-0.1672223135041252,7.026867454438209E-4,-0.8659435687353036,0.618600566253703,1.1436855158892063,4.658681209898652E-20,-0.0011222300308759384,4.0657581468206416E-20,340569.91962810326,1.5535368064750765E-11,1144.9093614584604,-4.180051670513916,6.8252885027304195,3.768048819327324
2160.0,-3227739.5335139367,-4974616.285080857,-3149693.9454924604,3362884.0795235992,-4882703.056930657,-3152126.767089013,3007.2871887371084,5211.36912161178,-4859.260909489649,-4.427138462090086,6.427973704304133,4.161901269203747,6766013.813814333,1.180829138937088,-0.0015231026533191838,-0.1654471042567556,8.55062476793303E-4,-0.8316283911062119,0.5740839904233815,1.2047577505096667,4.658681209898652E-20,-0.0011222300308759384,4.0657581468206416E-20,341172.25435036496,1.5177609478340853E-11,1139.968918407721,-4.427138462090086,6.427973704304133,4.161901269203747
2220.0,-2884288.054191971,-4997810.680466129,-3433384.334664249,3535213.8415207467,-4558703.039017087,-3435963.7459714534,2734.7829966095164,5584.348143620646,-4598.237143718791,-4.652641533365117,5.9996776585459894,4.535327907016227,6765184.577577805,1.1852044081852489,-0.0014746098032779864,-0.1636731761278868,0.0010082244004330436,-0.8014605219080256,0.5279630998703915,1.2623515766642455,4.658681209898652E-20,-0.0011222300308759384,4.0657581468206416E-20,342035.96283091005,1.4735379061158995E-11,1134.517756433981,-4.652641533365117,5.9996776585459894,4.535327907016227
2280.0,-2527344.708321574,-5000495.286049664,-3700766.4464953467,3690800.901805181,-4213112.81007301,-3703480.231461284,2449.424014866444,5930.755253415107,-4315.4673212501975,-4.855458467007862,5.542627131153045,4.886470938518308,6764338.905254459,1.1895796774333782,-0.001414635753855537,-0.16190533250206388,0.001161131908569431,-0.7751020651879247,0.48047523808041687,1.3168842134597762,4.658681209898652E-20,-0.0011222300308759384,4.0657581468206416E-20,343146.04912851687,1.4220817580187468E-11,1128.5923416127457,-4.855458467007862,5.542627131153045,4.886470938518308
2340.0,-2158418.920423952,-4982778.375328134,-3950577.3150237557,3828915.4109323975,-3847577.0398225845,-3953412.626354163,2152.6012236687584,6248.935684668936,-4012.340902571906,-5.034617762613959,5.059195172049663,5.213605126012521,6763493.272747535,1.1939549466814758,-0.0013431371469868631,-0.16014832552709407,0.0013127312158946324,-0.752244307993298,0.4318280279871511,1.3687503877295812,4.658681209898652E-20,-0.0011222300308759384,4.0657581468206416E-20,344486.1268165775,1.3647076080529039E-11,1122.2342149168942,-5.034617762613959,5.059195172049663,5.213605126012521
2400.0,-1779077.5970218712,-4944853.337440858,-4181640.3009095597,3948912.6463301675,-3463835.3324312605,-4184583.7227459764,1845.7598515515972,6537.381012542395,-3690.3466530937803,-5.189283267501783,4.551883842218927,5.51514695212508,6762664.161817,1.1983302159295892,-0.0012601509551986802,-0.15840683127667876,0.001461959095387683,-0.7326121724846089,0.38220356820713147,1.418318857943312,4.658681209898652E-20,-0.0011222300308759384,4.0657581468206416E-20,346038.72072784876,1.3027735415140461E-11,1115.4903366318551,-5.189283267501783,4.551883842218927,5.51514695212508
2460.0,-1390937.8097805376,-4886996.979081284,-4392870.787098315,4050236.021528017,-3063713.22445843,-4395908.400383688,1530.3911556851922,6794.736360004824,-3351.063901303636,-5.318757241606747,4.023306322971394,5.789662320519597,6761867.724613041,1.2027054851776549,-0.001165795414113821,-0.15668542575596855,0.0016077465306375883,-0.7159657603502887,0.33176240803136536,1.4659319787053153,4.658681209898652E-20,-0.0011222300308759384,4.0657581468206416E-20,347785.57113764406,1.2376266754084447E-11,1108.4132489853898,-5.318757241606747,4.023306322971394,5.789662320519597
2520.0,-995659.2556130331,-4809567.437285096,-4583281.337411212,4132419.597518039,-2649112.782869716,-4586398.78757049,1208.024059823027,7019.80651975662,-2996.1533813944475,-5.422482038768076,3.4761687175590295,6.035872693412616,6761119.437602072,1.207080754425705,-0.0010602705550437797,-0.15498856197163624,0.0017490227908973958,-0.7021001542334692,0.28064718572357594,1.5119071629553567,4.658681209898652E-20,-0.0011222300308759384,4.0657581468206416E-20,349707.93403297546,1.1705558500962931E-11,1101.060928708443,-5.422482038768076,3.4761687175590295,6.035872693412616
2580.0,-594936.5419676887,-4713001.726867936,-4751986.295984853,4195090.090177009,-2222002.8685124335,-4755168.862540805,880.2167316891607,7211.560984120584,-2627.3477556578755,-5.500040460905586,2.913251911960546,6.252659630225081,6760433.753644094,1.211456023673723,-9.438582996359063E-4,-0.15332054827927893,0.001884720335477085,-0.6908442813416954,0.2289858978076191,1.5565394616316075,4.658681209898652E-20,-0.0011222300308759384,4.0657581468206416E-20,351786.8718242745,1.1027524867470314E-11,1093.4961688573676,-5.500040460905586,2.913251911960546,6.252659630225081
2640.0,-190491.3443744463,-4597812.9487306345,-4898205.811206771,4237968.372431144,-1784409.1302443447,-4901438.4789478285,548.5481755038019,7369.137897696161,-2246.441911173722,-5.551154930747127,2.3373938641841288,6.439067792618867,6759823.768011995,1.2158312929217412,-8.169220578495762E-4,-0.15168552818625847,0.002013780787928529,-0.6820593755682828,0.1768948151490494,1.6001047527347216,4.658681209898652E-20,-0.0011222300308759384,4.0657581468206416E-20,354003.5296991143,1.0352802330580205E-11,1085.785315383012,-5.551154930747127,2.3373938641841288,6.439067792618867
2700.0,215935.51874162623,-4464587.186816085,-5021269.273275119,4260870.474074099,-1338403.7933821252,-5024536.804591772,214.60990416549353,7491.846967986132,-1855.2831181089275,-5.575685705622258,1.7514726207855347,6.594306589423642,6759300.919162812,1.2202065621697118,-6.799057615149177E-4,-0.15008746172213408,0.0021351620293037256,-0.6756373840650823,0.12448108741901312,1.642863225539049,4.658681209898652E-20,-0.0011222300308759384,4.0657581468206416E-20,356339.3936260426,9.690533999176478E-12,1077.9962219115278,-5.575685705622258,1.7514726207855347,6.594306589423642
2760.0,622592.0516518101,-4313980.122063883,-5120618.159382227,4263708.085589913,-886095.3035615616,-5123905.167391243,-120.00225910725503,7579.171383321541,-1455.761123925352,-5.5736283917948795,1.158390223980682,6.7177507139275345,6758874.745902898,1.2245818314176822,-5.333322711960795E-4,-0.14853010840802772,0.0022478462708642824,-0.6714995346552755,0.07184508987452876,1.6850629784726325,4.658681209898652E-20,-0.0011222300308759384,4.0657581468206416E-20,358776.52666478424,9.048239475961027E-12,1070.1954163124442,-5.5736283917948795,1.158390223980682,6.7177507139275345
2820.0,1027723.0478659825,-4146713.391335782,-5195808.284499988,4246488.57485669,-429617.8839444773,-5199099.306580307,-453.696215148173,7630.768792296663,-1049.7982417084188,-5.545110999143266,0.5610575077822026,6.8089398458739705,6758552.7181926565,1.228957100665621,-3.7780111095522183E-4,-0.147017011777,0.0023508488146545465,-0.6695951950211226,0.019082571211794665,1.7269436371919207,4.658681209898652E-20,-0.0011222300308759384,4.0657581468206416E-20,361297.78064607404,8.431768593719906E-12,1062.4447142922882,-5.545110999143266,0.5610575077822026,6.8089398458739705
2880.0,1429578.0207336708,-3963570.7182437098,-5246511.4587658215,4209314.52728384,28878.939448978166,-5249791.030136184,-784.8914370911582,7646.471394262774,-639.3394756475975,-5.490390701403058,-0.037620362897679865,6.867577740601836,6758340.149703958,1.2333323699135281,-2.1398551114581448E-4,-0.14555148534055512,0.002443227110500015,-0.6699010994764639,-0.03371333770906496,1.7687399555752512,4.658681209898652E-20,-0.0011222300308759384,4.0657581468206416E-20,363886.9804709301,7.845338917806055E-12,1054.7978215482783,-5.490390701403058,-0.037620362897679865,6.867577740601836
2940.0,1826419.0631262884,-3765393.841505728,-5272516.55470697,4152382.821028904,487240.7921550214,-5275769.281682397,-1112.026617107608,7626.285178929858,-226.34271631830578,-5.4098503587797016,-0.6347578331839593,6.893530822090106,6758240.188393665,1.2377076391614352,-4.2628768057253423E-5,-0.14413659987690206,0.0025240896819028837,-0.672420983679099,-0.08645019493101144,1.8106853961101195,4.658681209898652E-20,-0.0011222300308759384,4.0657581468206416E-20,366529.0783464955,7.291655230827212E-12,1047.2976954808803,-5.4098503587797016,-0.6347578331839593,6.893530822090106
3000.0,2216528.6023557843,-3553078.26529977,-5273729.9893617295,4075983.2498288057,943318.8351772206,-5276940.621933799,-1433.5670963178763,7570.3883397609325,187.23096479233385,-5.303994751673388,-1.2275025854852224,6.886826270182436,6758253.869748174,1.2420829084093103,1.3546003781648305E-4,-0.14277517193998135,0.0025926045187946016,-0.6771856436975451,-0.13903433958580858,1.8530157035551638,4.658681209898652E-20,-0.0011222300308759384,4.0657581468206416E-20,369210.2753747178,6.772101542937292E-12,1039.975404086515,-5.303994751673388,-1.2275025854852224,6.886826270182436
3060.0,2598217.017015432,-3327568.8553860574,-5250175.628212166,3980496.7070417595,1394980.029304489,-5253329.131606757,-1748.0120570660774,7479.12887623944,599.4268881692791,-5.173446402137411,-1.8130489545467987,6.847649489036923,6758380.209142516,1.246458177657154,3.194108989802367E-4,-0.14146975354854613,0.0026480066099764956,-0.6842534168851083,-0.1913689467470913,1.8959724901330555,4.658681209898652E-20,-0.0011222300308759384,4.0657581468206416E-20,371918.1082145675,6.286984017721863E-12,1032.8508367657857,-5.173446402137411,-1.8130489545467987,6.847649489036923
3120.0,2969830.08276765,-3089855.3046230627,-5201994.120077344,3866392.945984419,1840117.2315582319,-5205075.744953442,-2053.901448660362,7353.02139854758,1008.3061647953504,-5.018940848021385,-2.3886510759328936,6.7763408013897966,6758616.307276236,1.2508334469049975,5.082982281112593E-4,-0.1402226230965295,0.0026896043967818478,-0.6937110622685335,-0.2433519861205107,1.939806842710843,4.658681209898652E-20,-0.0011222300308759384,4.0657581468206416E-20,374641.4991592039,5.835792915193662E-12,1025.935029155545,-5.018940848021385,-2.3886510759328936,6.7763408013897966
3180.0,3329756.214750402,-2840967.4917687355,-5129441.674895634,3734227.9336023107,2276659.076496732,-5132437.025860232,-2349.8226108726344,7192.743156160338,1411.954869899657,-4.841321287808006,-2.9516355628325934,6.673391248647926,6758957.446853773,1.2552087161527934,7.011465973577428E-4,-0.13903577760221864,0.0027167850511440146,-0.7056749917328229,-0.2948740250441486,1.9847829409303654,4.658681209898652E-20,-0.0011222300308759384,4.0657581468206416E-20,377370.76895844616,5.417450065980987E-12,1019.2333723333486,-4.841321287808006,-2.9516355628325934,6.673391248647926
3240.0,3676433.4756570635,-2581970.757817141,-5032888.299505826,3584640.8167473124,2702579.596829949,-5035783.4016332505,-2634.4165574080494,6999.1293272640805,1808.4929371363153,-4.641532614010503,-3.4994134167642965,6.539437480063181,6759397.168619614,1.2595839854005895,8.969367718281675E-4,-0.13791092646493844,0.0027290186002707838,-0.720292763286296,-0.3458158160639617,2.031181636021894,4.658681209898652E-20,-0.0011222300308759384,4.0657581468206416E-20,380097.61299795157,5.030517075004653E-12,1012.748833577114,-4.641532614010503,-3.4994134167642965,6.539437480063181
3300.0,4008356.320855101,-2313961.1241679946,-4912815.509776394,3418350.5225023474,3115907.540553472,-4915596.872835411,-2906.3838860302662,6773.167623853679,2196.0827214381984,-4.420614965083829,-4.0294908863086025,6.3752558507124775,6759927.328126429,1.2639592546483536,0.0010946119441175507,-0.13684948689886553,0.0027258610192147925,-0.7377446853523599,-0.39604561115662457,2.079303876106844,4.658681209898652E-20,-0.0011222300308759384,4.0657581468206416E-20,382815.04287746723,4.673353561754991E-12,1006.4845247175567,-4.420614965083829,-4.0294908863086025,6.3752558507124775
3360.0,4324082.055003235,-2038060.4763524705,-4769813.540239974,3236152.0157011687,3514735.3455648976,-4772468.220348638,-3164.490292595469,6515.99228167153,2572.937189830268,-4.179697010572693,-4.53947909790015,6.181755970102992,6760538.147712914,1.268334523896086,0.0012930840904217397,-0.13585258116743684,0.0027069564789646075,-0.7582452848773432,-0.44541615112965127,2.1294737648377815,4.658681209898652E-20,-0.0011222300308759384,4.0657581468206416E-20,385517.29679206066,4.344227431711365E-12,1000.4453217328482,-4.179697010572693,-4.53947909790015,6.181755970102992
3420.0,4622236.978085495,-1755411.7357027172,-4604578.074346786,3038912.2377433716,3897227.737089239,-4607093.732792375,-3407.5716802639336,6228.877509543248,2937.3277162754603,-3.919989210476875,-5.027102462438164,5.959974006421812,6761218.287625623,1.2727097931452471,0.0014912403854764951,-0.13492103564638486,0.0026720389718228087,-0.7820442474068606,-0.4937612940929427,2.1820408922704075,4.658681209898652E-20,-0.0011222300308759384,4.0657581468206416E-20,388199.7232012973,4.041386449374119E-12,994.6385603879398,-3.919989210476875,-5.027102462438164,5.959974006421812
3480.0,4901522.202031136,-1467174.0393158086,-4417906.519339222,2827565.7509106244,4261629.917591298,-4420271.4783183215,-3634.5388686303477,5913.23046655309,3287.591474719376,-3.642777245383878,-5.49020605455017,5.711066029592346,6761954.963397364,1.2770850623929477,0.001687949633613745,-0.1340553816262858,0.0026209335379682565,-0.8094262268502738,-0.5408922778272944,2.237381363017668,4.658681209898652E-20,-0.0011222300308759384,4.0657581468206416E-20,390858.64291506895,3.763102236288169E-12,989.0740121241181,-3.642777245383878,-5.49020605455017,5.711066029592346
3540.0,5160719.121462979,-1174517.9464947267,-4210693.849639737,2603110.111807888,4606275.322505607,-4212897.144690945,-3844.3819164225533,5570.583818993552,3622.138438693709,-3.3494157099395845,-5.926762304838126,5.43630157078793,6762734.132402489,1.2814603316406326,0.0018820686862715097,-0.13325585764549966,0.0025535572720084758,-0.840708629415457,-0.5865936672686118,2.295896650203597,4.658681209898652E-20,-0.0011222300308759384,4.0657581468206416E-20,393491.1948510687,3.5076963528240245E-12,983.7633919960119,-3.3494157099395845,-5.926762304838126,5.43630157078793
3600.0,5398694.5234812815,-878620.687451579,-3983928.0419163634,2366600.996645237,4929592.917573654,-3985959.4708348024,-4036.1740730387387,5202.587906677658,3939.458001855434,-3.0413220295795536,-6.334877390706873,5.137057415766015,6763540.761752818,1.2858356008883016,0.0020724488346367895,-0.13252241305872337,0.002469920243851063,-0.8762360914514021,-0.6306191339218377,2.3580090159774167,4.658681209898652E-20,-0.0011222300308759384,4.0657581468206416E-20,396095.1703770456,3.2735554911019457E-12,978.719619607945,-3.0413220295795536,-6.334877390706873,5.137057415766015
3660.0,5614405.321377904,-580661.4686917067,-3738685.1241997457,2119147.1003089827,5230114.0146864895,-3740535.292238827,-4209.07536800566,4811.002526635948,4238.125229752243,-2.7199704398339786,-6.712797640051106,4.814811481617795,6764359.174790369,1.2902108701359387,0.002257942173244896,-0.1318547125038773,0.0023701263837271887,-0.9163699115272735,-0.6726873660975076,2.4241517772131123,4.658681209898652E-20,-0.0011222300308759384,4.0657581468206416E-20,398668.84047830175,3.0591403118104428E-12,973.9559941733299,-2.7199704398339786,-6.712797640051106,4.814811481617795
3720.0,5806902.896464843,-281816.84863364,-3476123.8611620707,1861904.8309669066,5506478.583134887,-3477784.222343989,-4362.3358353460635,4397.688328065893,4516.806740015398,-2.3868857963720713,-7.058916092082089,4.471136501925884,6765173.457850626,1.29458613938356,0.0024374079332991692,-0.13125214095397328,0.002254374309929829,-0.9614702371105424,-0.7124786350961471,2.4947522326655,4.658681209898652E-20,-0.0011222300308759384,4.0657581468206416E-20,401210.7791909559,2.862990592837361E-12,969.4853855991681,-2.3868857963720713,-7.058916092082089,4.471136501925884
3780.0,5975337.031166095,16743.80276488869,-3197480.098372884,1596072.822562689,5757441.032671164,-3198942.992745838,-4495.298355568413,3964.597810256457,4774.266189909836,-2.0436369845777835,-7.3717791394142305,4.10769320189291,6765967.896367924,1.2989614086311496,0.0026097187841302273,-0.13071380911549282,0.0021229580037158777,-1.011868526296583,-0.7496328523296835,2.5702047858644868,4.658681209898652E-20,-0.0011222300308759384,4.0657581468206416E-20,403719.68603932025,2.6837281475071277E-12,965.3194970957438,-2.0436369845777835,-7.3717791394142305,4.10769320189291
3840.0,6118959.415965944,313862.74575586483,-2904060.790164531,1322886.2889727487,5981875.4445571145,-2905319.476862266,-4607.401085980085,3513.765926186204,5009.369332146225,-1.6918297702621554,-7.650092969003722,3.726222696412589,6766727.402677178,1.3033366778787392,0.00277376709229658,-0.13023855905326504,0.0019762671813648627,-1.06782805043393,-0.7837503289759215,2.6508320416349607,4.658681209898652E-20,-0.0011222300308759384,4.0657581468206416E-20,406194.2097830572,2.5200582620451527E-12,961.4682232173575,-1.6918297702621554,-7.650092969003722,3.726222696412589
3900.0,6237126.713308582,608398.1981879995,-2597237.73849627,1043611.2455736726,6178780.2275366355,-2598286.424474723,-4698.179444059343,3047.300315931912,5221.088587463722,-1.3330990568586722,-7.892729385884589,3.3285379757418525,6767437.898547308,1.307711947126297,0.002928471120112177,-0.12982497004751448,0.0018147871797494547,-1.1294915110986394,-0.814396819757678,2.736832960219874,4.658681209898652E-20,-0.0011222300308759384,4.0657581468206416E-20,408632.77571829036,2.3707700210294717E-12,957.9391079800764,-1.3330990568586722,-7.892729385884589,3.3285379757418525
3960.0,6329303.163438403,899228.5318988874,-2278441.073436124,759538.6260630008,6347282.177903121,-2279274.9377828264,-4767.267610730353,2567.3712202960733,5408.507079503928,-0.9691006531754396,-8.098730579742023,2.916514517610338,6768086.623317333,1.312087216373823,0.0030727811336294934,-0.12947136480459898,0.0016390981672247031,-1.1968178447601836,-0.8411146295543159,2.8282201515922627,4.658681209898652E-20,-0.0011222300308759384,4.0657581468206416E-20,411033.4190794515,2.2347357008212524E-12,954.7368972045485,-0.9691006531754396,-8.098730579742023,2.916514517610338
4020.0,6395062.720416535,1185256.3212497176,-1949152.508971837,471978.3241027453,6486639.926604945,-1949767.7227061344,-4814.399530272981,2076.201149287237,5570.822085012491,-0.6015027701635002,-8.267312484231724,2.492080232228954,6768662.351591097,1.3164624856213492,0.0032056853799441462,-0.1291758162181097,0.0014498735148801435,-1.2695153354017101,-0.8634413095790334,2.9247534383934064,4.658681209898652E-20,-0.0011222300308759384,4.0657581468206416E-20,413393.6276402726,2.1109093262194488E-12,951.8631742345929,-0.6015027701635002,-8.267312484231724,2.492080232228954
4080.0,6434090.710792188,1465412.2276173953,-1610898.4102273497,182253.19031308475,6596246.761352658,-1611292.1515327895,-4839.409398810849,1576.0543961591143,5707.347868611904,-0.23197752438189093,-8.397866553677588,2.057205062332069,6769155.519781065,1.3208377548688435,0.003326215885271353,-0.1289361548990593,0.0012478772140114718,-1.3469846107882495,-0.8809364400313974,3.02588327048368,4.658681209898652E-20,-0.0011222300308759384,4.0657581468206416E-20,415710.19725411094,1.9983244529551254E-12,949.3160662583285,-0.23197752438189093,-8.397866553677588,2.057205062332069
4140.0,6446185.012017967,1738658.7052531035,-1265242.7093929963,-108306.984877755,6675632.817318444,-1265413.1742467612,-4842.231650045489,1069.2264920214675,5817.517892215339,0.13780728353786204,-8.489959989526001,1.6138905957044933,6769558.274920114,1.325213024116306,0.0034334540232102387,-0.12874997766423554,0.00103396029387252,-1.4282905363548632,-0.8932150022245605,3.1307230116596725,4.658681209898652E-20,-0.0011222300308759384,4.0657581468206416E-20,417979.10457798315,1.8960912312545446E-12,947.0900079305939,0.13780728353786204,-8.489959989526001,1.6138905957044933
4200.0,6431256.752044518,2003993.5162164825,-913779.7076473768,-398371.4729896907,6724466.635549158,-913726.1158346247,-4822.900461133985,558.0336883617966,5900.886409515471,0.5061959180080624,-8.543334631171836,1.1641599986009492,6769864.469117899,1.3295882933637686,0.0035265358024367515,-0.12861465709283432,8.090562761603525E-4,-1.5121822731259915,-0.8999831605438784,-3.0451159362149447,4.658681209898652E-20,-0.0011222300308759384,4.0657581468206416E-20,420195.4014339676,1.8033928071564656E-12,945.175548765631,0.5061959180080624,-8.543334631171836,1.1641599986009492
4260.0,6389330.53506234,2260453.044705447,-558126.7992303116,-686614.5659831503,6742556.092985423,-557849.3957531182,-4781.548810322341,44.802538213056415,5957.129471334786,0.8715518956317816,-8.557904835034783,0.7100484654692591,6770069.62692203,1.3339635626111994,0.003604656830141613,-0.12852735216493763,5.741757801629822E-4,-1.5971719738144268,-0.9010698719712734,-2.93670384884992,4.658681209898652E-20,-0.0011222300308759384,4.0657581468206416E-20,422353.135041704,1.7194811195695885E-12,943.5591900653567,0.8715518956317816,-8.557904835034783,0.7100484654692591
4320.0,6320544.200823236,2507115.403612021,-199917.15201031105,-971721.4656068952,6729848.711621665,-199417.20392137373,-4718.407119912438,-468.1403736159649,5986.04537518461,1.232264632020462,-8.533754678904126,0.2535942407188503,6770170.910282559,1.3383388318585985,0.0036670769184195496,-0.12848501989519276,3.3040046083286553E-4,-1.681665056096015,-0.8964470430168959,-2.828773898353105,4.658681209898652E-20,-0.0011222300308759384,4.0657581468206416E-20,424445.2976940269,1.6436722054857652E-12,942.2232429086472,1.232264632020462,-8.533754678904126,0.2535942407188503
4380.0,6225148.12639412,2743103.3282041685,159207.62312913677,-1252394.0796408353,6686431.356790717,159927.8344188422,-4633.801514164568,-978.4785191477201,5987.5545918253565,1.5867556521694712,-8.47113475226082,-0.2031698558860699,6770167.097916593,1.3427141011059978,0.003713124314661558,-0.12848442779975122,7.887650547252325E-5,-1.764115671211135,-0.8862329656686865,-2.722825108398981,4.658681209898652E-20,-0.0011222300308759384,4.0657581468206416E-20,426463.8083984165,1.575387619319073E-12,941.1516215656735,1.5867556521694712,-8.47113475226082,-0.2031698558860699
4440.0,6103504.079892947,2967586.853278436,517604.78354997607,-1527356.7026348861,6612529.336090161,518541.9744225028,-4528.1517142629145,-1483.915314400453,5961.6991949685425,1.9334845003181695,-8.370458660070778,-0.6582245431171831,6770058.584924506,1.347089370353365,0.003742199553103925,-0.12852216699768315,-1.7919206717925158E-4,-1.8431705215560032,-0.8706780890864685,-2.620163494749016,4.658681209898652E-20,-0.0011222300308759384,4.0657581468206416E-20,428399.52772294934,1.5142221135224245E-12,940.3402904396443,1.9334845003181695,-8.370458660070778,-0.6582245431171831
4500.0,5956083.636174856,3179785.7709764163,873637.7175274019,-1795361.5598337345,6508504.9115422135,874787.6186839418,-4401.968584740901,-1982.1837881140714,5908.6418111023295,2.2709544625415226,-8.232299224509099,-1.1095719826777333,6769847.397379447,1.3514646396007006,0.003753778938844958,-0.12859466575464276,-4.4255008207526363E-4,-1.9177690958418172,-0.8501369484569624,-2.5218014744132558,4.658681209898652E-20,-0.0011222300308759384,4.0657581468206416E-20,430242.3057413484,1.459820412504622E-12,939.783522177057,2.2709544625415226,-8.232299224509099,-1.1095719826777333
4560.0,5783466.165022799,3378971.86691261,1225683.129855812,-2055194.1936712286,6374855.238698211,1227040.5071168733,-4255.851340754459,-2471.0560106341522,5828.664098673736,2.5977181505516223,-8.057384262615214,-1.5552435724819056,6769537.207993152,1.3558399088480522,0.003747417689121285,-0.12869820332407012,-7.09897678132545E-4,-1.9871855662819926,-0.8250331024568904,-2.4284156009713205,4.658681209898652E-20,-0.0011222300308759384,4.0657581468206416E-20,431981.061749829,1.4118554263626726E-12,939.4712473212213,2.5977181505516223,-8.057384262615214,-1.5552435724819056
4620.0,5586336.4034553645,3564470.932605452,1572138.1223508527,-2305678.672743171,6212209.747936503,1573696.801613528,-4090.4844251285726,-2948.3522526975235,5722.164762558749,2.912382913243248,-7.846591779569749,-1.9933076367987068,6769133.334787762,1.360215178095356,0.0037227527641920414,-0.12882892401107146,-9.798964660319175E-4,-2.0510169605348225,-0.7958242030497785,-2.340358007866869,4.658681209898652E-20,-0.0011222300308759384,4.0657581468206416E-20,433603.89346880396,1.3700285664663958E-12,939.3890903913809,2.912382913243248,-7.846591779569749,-1.9933076367987068
4680.0,5365481.625369457,3735664.55272731,1911427.141605121,-2545682.6038084473,6021326.985298306,1913180.037824665,-3906.6340683447415,-3411.949835016677,5589.657112171249,3.2136159722221604,-7.600944454996219,-2.421876927028856,6768642.705712768,1.3645904473426438,0.0036795054238972927,-0.1289828514615626,-0.0012511753488933866,-2.109134718164929,-0.7629723965717383,-2.257704444072794,4.658681209898652E-20,-0.0011222300308759384,4.0657581468206416E-20,435098.21281863184,1.3340653233546862E-12,939.5177741011006,3.2136159722221604,-7.600944454996219,-2.421876927028856
4740.0,5121788.423702328,3891991.6665891977,2242008.7670561383,-2774121.928373021,5803090.932716143,2243947.917103951,-3705.144552133169,-3859.7916248885767,5431.766178905155,3.5001491424808093,-7.321603396459571,-2.8391157816236374,6768073.7777032275,1.3689657165913447,0.003617483542391108,-0.12915590323928097,-0.001522336063939331,-2.1616196039030005,-0.7269225276843889,-2.1803189234989433,4.658681209898652E-20,-0.0011222300308759384,4.0657581468206416E-20,436450.9050509263,1.3036925661524008E-12,939.8297788475656,3.5001491424808093,-7.321603396459571,-2.8391157816236374
4800.0,4856239.122271163,4032949.90463408,2562382.3136556745,-2989965.486901402,5558506.8300952995,2564498.9128917167,-3486.934205560123,-4289.894138105106,5249.225418417961,3.770783010625058,-7.009861254850539,-3.2432467788080683,6767436.407099628,1.373340985838585,0.0035365837061264596,-0.12934390578912552,-0.0017919585755098721,-2.208695936693314,-0.688088294296269,-2.1079190221478163,4.658681209898652E-20,-0.0011222300308759384,4.0657581468206416E-20,437648.5079652238,1.2786799550203138E-12,940.2954535870124,3.770783010625058,-7.009861254850539,-3.2432467788080683
4860.0,4569907.836211974,4158096.7021629224,2871094.225242084,-3192239.3356364775,5288696.523971558,2873378.667627111,-3252.9911687375193,-4700.355213393779,5042.873032311833,4.02439049625424,-6.667134899125373,-3.632556755182219,6766741.677249292,1.3777162550858253,0.0034367931071511764,-0.1295426098790301,-0.0020586064987090495,-2.2506746269016698,-0.6468451100679354,-2.040132322827171,4.658681209898652E-20,-0.0011222300308759384,4.0657581468206416E-20,438677.40800810605,1.25940931265081E-12,940.9709797143533,4.02439049625424,-6.667134899125373,-3.632556755182219
4920.0,4263956.200747194,4267050.194441144,3166744.236973846,-3380030.8032059087,4994893.36904219,3169186.158535862,-3004.3689614874365,-5089.361240310088,4813.647949146068,4.259919799306475,-6.2949578987057535,-4.005402142578382,6766001.696106838,1.3820915243330338,0.0033181912280536717,-0.12974770657945905,-0.0023208327480058657,-2.287908774468102,-0.6035279206482173,-1.9765402458222783,4.658681209898652E-20,-0.0011222300308759384,4.0657581468206416E-20,439524.0501199188,1.2463187975647831E-12,941.9172098191707,4.259919799306475,-6.2949578987057535,-4.005402142578382
4980.0,3939628.788422375,4359489.898515297,3447991.287607848,-3552492.276380823,4678436.709562069,3450579.6130678616,-2742.181891778524,-5455.1939362331805,4562.5855047972545,4.476396812053927,-5.894973044793855,-4.360213667450569,6765229.379904387,1.3864667935802266,0.0031809513011804586,-0.12995484378212235,-0.0025771855952545974,-2.3207618103773924,-0.5584322841620808,-1.9167092731424884,4.658681209898652E-20,-0.0011222300308759384,4.0657581468206416E-20,440175.15815092257,1.2398142569787996E-12,943.1833074290149,4.476396812053927,-5.894973044793855,-4.360213667450569
5040.0,3598248.234379355,4435157.188254863,3713559.1646759063,-3708844.7062641797,4340765.967481564,3716282.157030244,-2467.600332346486,-5796.236679908608,4290.8128571595225,4.672927124564673,-5.468925064053033,-4.695500530580142,6764438.237692776,1.3908420628273876,0.0030253415062993757,-0.1301596432022801,-0.002826215276346802,-2.3495862844949564,-0.5118173564256316,-1.860211451859788,4.658681209898652E-20,-0.0011222300308759384,4.0657581468206416E-20,440617.96247269696,1.2403362286847958E-12,944.8138920986073,4.672927124564673,-5.468925064053033,-4.695500530580142
5100.0,3241210.0884190598,4493855.56957893,3962241.867474118,-3848380.827647115,3983414.363545282,3965087.180323919,-2181.845885689639,-6110.9804149319825,3999.5441619313997,4.848697761405685,-5.018653567177724,-5.009854215723461,6763642.166183862,1.3952173320745327,0.0028517258650951043,-0.13035771775848762,-0.00306648122090433,-2.37471082650672,-0.46390980836002876,-1.8066366366813176,4.658681209898652E-20,-0.0011222300308759384,4.0657581468206416E-20,440840.4310787276,1.248397015743419E-12,946.8517792894518,4.848697761405685,-5.018653567177724,-5.009854215723461
5160.0,2869977.4117073053,4535450.762871441,4192908.6741209915,-3970468.0852492913,3608002.2967549996,4195863.406533611,-1886.186450181123,-6398.029135837547,3690.075527700099,5.0029787537682,-4.546086169728198,-5.301952054597041,6762855.256405237,1.399592601321678,0.0026605647807738967,-0.1305446892085515,-0.0032965599032466785,-2.3964329382776426,-0.41490804255330865,-1.7555987983597992,4.658681209898652E-20,-0.0011222300308759384,4.0657581468206416E-20,440831.5000786811,1.2646124960741102E-12,949.339696144729,5.0029787537682,-4.546086169728198,-5.301952054597041
5220.0,2486075.13537723,4559870.599335112,4404508.899836473,-4074551.2611719635,3216230.4070015037,4407559.653518175,-1581.9311955797355,-6656.1049635404825,3363.7797626584806,5.135124588306682,-4.05323166043982,-5.5705606111232875,6762091.6054917,1.4039678705687753,0.002452415171012593,-0.130716205934178,-0.003515053235478681,-2.4150156964757974,-0.36498633371242606,-1.7067383017420825,4.658681209898652E-20,-0.0011222300308759384,4.0657581468206416E-20,440581.2991713431,1.2897333901341477E-12,952.3214763705621,5.135124588306682,-4.05323166043982,-5.5705606111232875
5280.0,2091084.1981294823,4567104.7377289,4596076.334269572,-4160154.798354843,2809872.345495655,4599209.272823899,-1270.4254558383093,-6884.052809155284,3022.100923993984,5.2445755055701975,-3.5421730959385593,-5.814538864723862,6761365.120918743,1.4083431398158728,0.0022279301476716886,-0.1308679608133308,-0.00372059735929375,-2.4306869171708305,-0.31429869608224187,-1.6597215817989592,4.658681209898652E-20,-0.0011222300308759384,4.0657581468206416E-20,440081.3675504202,1.3246770069571688E-12,955.8427091012993,5.2445755055701975,-3.5421730959385593,-5.814538864723862
5340.0,1686635.4801745142,4557204.207802792,4766733.346447413,-4226884.815387003,2390767.2778746146,4769934.256489025,-953.0455503211751,-7080.84461975051,2666.5486844306897,5.330858573551841,-3.015060770674001,-6.032841103136699,6760689.302613125,1.4127184090629386,0.001987858202191134,-0.13099570918251316,-0.003911871644248055,-2.4436397514284307,-0.2629823957937972,-1.6142392257575313,4.658681209898652E-20,-0.0011222300308759384,4.0657581468206416E-20,439324.85586460814,1.3705584196082914E-12,959.9505579351874,5.330858573551841,-3.015060770674001,-6.032841103136699
5400.0,1274403.5512489777,4530280.78687238,4915694.646970289,-4274430.808830842,1960812.1452724694,4918949.000860147,-631.1935494244345,-7245.583199783213,2298.6925368262255,5.3935884561664595,-2.474105123392499,-6.224519409552831,6760076.991624282,1.4170936783099726,0.0017330418696342123,-0.13109528695279074,-0.004087607680934609,-2.4540340087705137,-0.21116109555377027,-1.5700031384100477,4.658681209898652E-20,-0.0011222300308759384,4.0657581468206416E-20,438306.7103416002,1.4287178929903707E-12,964.6922826499037,5.3935884561664595,-2.474105123392499,-6.224519409552831
5460.0,856100.2505764425,4486506.216340755,5042270.698528473,-4302567.040304782,1521953.7088391774,5045563.718493082,-306.29200434439207,-7377.505609172619,1920.1558639081532,5.432467839619466,-1.921569755724516,-6.388725663542138,6759540.082105022,1.4214689475570224,0.0014644158534049085,-0.1311626289881842,-0.004246598055617703,-2.4619977454556436,-0.15894765831782084,-1.5267432242044991,4.658681209898652E-20,-0.0011222300308759384,4.0657581468206416E-20,437023.8359669219,1.5007389965301108E-12,970.1119143200731,5.432467839619466,-1.921569755724516,-6.388725663542138
5520.0,433468.11618298147,4426111.265360231,5145870.767534876,-4311153.6067760745,1076180.402765311,5149187.490930145,20.22133936714536,-7475.986151937512,1532.6099025519636,5.447287562233121,-1.3597648087451253,-6.524713067338702,6759089.204604467,1.4258442168040246,0.0011830046051608308,-0.13119378785536523,-0.004387704718144787,-2.4676288220360627,-0.10644665693396521,-1.4842038488275404,4.658681209898652E-20,-0.0011222300308759384,4.0657581468206416E-20,435475.2365547717,1.5884498013593607E-12,976.2446766974647,5.447287562233121,-1.3597648087451253,-6.524713067338702
5580.0,8273.679722752431,4349384.648946499,5226005.611340343,-4300137.193553416,625514.0195851123,5229330.95681937,346.8988304910803,-7540.538984249217,1137.7676276062311,5.437926591029897,-0.7910409339190763,-6.631837335244148,6758733.400578566,1.430219486051027,8.899193638741708E-4,-0.13118495301303365,-0.004509866789812502,-2.4709962473196057,-0.053756645964594486,-1.4421402272575161,4.658681209898652E-20,-0.0011222300308759384,4.0657581468206416E-20,433662.1305025216,1.6938993792688004E-12,983.1092694534984,5.437926591029897,-0.7910409339190763,-6.631837335244148
5640.0,-417699.3590233041,4256671.807412026,5282289.796671274,-4269551.509995551,172001.24942082795,5285608.631014473,672.2882002832798,-7570.820382317418,737.3775682083722,5.404352068791001,-0.21778399249263516,-6.709557806281535,6758479.817574019,1.4345947552979816,5.863546644202635E-4,-0.13113247042027532,-0.004612107702235362,-2.4721411995291023,-9.722550879028907E-4,-1.4003148094474709,4.658681209898652E-20,-0.0011222300308759384,4.0657581468206416E-20,431588.04178770684,1.8193054903148872E-12,990.6990889249057,5.404352068791001,-0.21778399249263516,-6.709557806281535
5700.0,-842657.0661452322,4148373.552774331,5314443.645182714,-4219517.407688478,-282294.9077364928,5317740.8505478045,994.9378619747222,-7566.630713485025,333.21755129670345,5.346619687509717,0.35758956215197746,-6.757438817142704,6758333.45909853,1.4389700245449362,2.735843303587831E-4,-0.13103286242780732,-0.004693541600388451,-2.471077662771196,0.051813836194886755,-1.3584936871782474,4.658681209898652E-20,-0.0011222300308759384,4.0657581468206416E-20,429258.86619818956,1.9669779221308E-12,998.9746081885905,5.346619687509717,0.35758956215197746,-6.757438817142704
5760.0,-1264802.3063613698,4024944.5858108196,5322294.801083663,-4150242.6796800545,-735303.8400076585,5325555.342431358,1313.4022481866054,-7527.916144782467,-72.91165360920235,5.264874608800156,0.9326368791265949,-6.775151671400492,6758297.021054146,1.443345293791875,-4.704303359709602E-5,-0.13088284768779007,-0.004753378980643922,-2.4677926476141483,0.10450898345709932,-1.3164430180165996,4.658681209898652E-20,-0.0011222300308759384,4.0657581468206416E-20,426682.9127940007,2.1392332434132507E-12,1007.8598057227664,5.264874608800156,0.9326368791265949,-6.775151671400492
5820.0,-1682341.8659302625,3886891.8848784454,5305779.413673677,-4062021.537422672,-1184956.1166303325,5308988.406121615,1626.247223251377,-7454.770101586172,-479.1928321451016,5.1593530481597085,1.5048929329356193,-6.762477449471642,6758370.837532896,1.447720563038782,-3.74109030901683E-4,-0.1306793607139913,-0.004790931562106652,-2.462245986126408,0.15701866332095402,-1.2739254496204302,4.658681209898652E-20,-0.0011222300308759384,4.0657581468206416E-20,423870.9201937968,2.3383243749048696E-12,1017.2449334629889,5.1593530481597085,1.5048929329356193,-6.762477449471642
5880.0,-2093493.6567077918,3734772.9648988172,5264942.924658199,-3955233.75973025,-1629192.3606153862,5268085.700510752,1932.055610040842,-7347.434458099342,-883.7990190613539,5.030384487712605,2.071875336789601,-6.719310735130416,6758552.944120738,1.4520958322856732,-7.061309292926712E-4,-0.13041957065735127,-0.004805616411366543,-2.4543697103219726,0.20924450198826042,-1.2306965274122534,4.658681209898652E-20,-0.0011222300308759384,4.0657581468206416E-20,420836.04657612485,2.5664050804828105E-12,1026.9958596117126,5.030384487712605,2.071875336789601,-6.719310735130416
5940.0,-2496493.990072784,3569194.0025385004,5199940.446872081,-3830343.5058452417,-2065972.1835586692,5203002.622066757,2229.4328637880203,-7206.300407258129,-1284.9004404714228,4.878394317026515,2.6310902996425285,-6.645664125463721,6758839.249361949,1.4564711015325642,-0.0010415675677621552,-0.1301008988628962,-0.004796959353241756,-2.4440670442983072,0.2610821872671011,-1.1865010808457017,4.658681209898652E-20,-0.0011222300308759384,4.0657581468206416E-20,417593.8314794999,2.825533825710768E-12,1036.9676336688638,4.878394317026515,2.6310902996425285,-6.645664125463721
6000.0,-2889604.905402087,3390807.822076062,5111036.718284426,-3687897.783210119,-2493283.161036332,5114004.257987493,2517.0129090518253,-7031.908927964938,-1680.6717423470695,4.703906566218318,3.180040143695666,-6.541673193491613,6759223.788305335,1.4608463707794237,-0.001378825698352982,-0.12972103483562963,-0.004764597713587686,-2.43121107058118,0.3124192043814793,-1.141069610473814,4.658681209898652E-20,-0.0011222300308759384,4.0657581468206416E-20,414162.12682489486,3.117701401032779E-12,1047.0183563250648,4.703906566218318,3.180040143695666,-6.541673193491613
6060.0,-3271121.5324519314,3200311.73608909,4998605.6135704955,-3528524.560226784,-2909149.82146584,5001464.896645814,2793.464133360945,-6824.950749262253,-2069.299518903031,4.507546326809993,3.716232562461287,-6.407601437972308,6759699.019714648,1.4652216400262512,-0.0017162667470887601,-0.12927795036199835,-0.004708282452367421,-2.4156431777421714,0.36313233611652485,-1.0941147447858857,4.658681209898652E-20,-0.0011222300308759384,4.0657581468206416E-20,410560.9943016829,3.4448541671929884E-12,1057.0198076422134,4.507546326809993,3.716232562461287,-6.407601437972308
6120.0,-3639379.4611942773,2998445.236014601,4863129.195589172,-3352930.515405912,-3311642.6151343035,4865867.0776563,3057.4955068955023,-6586.2657086038425,-2448.9901249843642,4.290041473930978,4.237191520050382,-6.24384471996969,6760256.123466529,1.4695969092745076,-0.0020522139777124364,-0.12876991168632293,-0.004627879764198703,-2.39717146884231,0.4130848708881216,-1.0453279103719386,4.658681209898652E-20,-0.0011222300308759384,4.0657581468206416E-20,406812.5665246232,3.808885809471147E-12,1066.8631217224797,4.290041473930978,4.237191520050382,-6.24384471996969
