time,gePosition_m_X,gePosition_m_Y,gePosition_m_Z,eiPosition_m_X,eiPosition_m_Y,eiPosition_m_Z,eiVelocity_m_s_X,eiVelocity_m_s_Y,eiVelocity_m_s_Z,eiAccel_m_s2_X,eiAccel_m_s2_Y,eiAccel_m_s2_Z,semiMajorAxis_m,gast_rad,eulerAngle_rad_Roll,eulerAngle_rad_Pitch,eulerAngle_rad_Yaw,eulerAngleWrtEi_rad_Roll,eulerAngleWrtEi_rad_Pitch,eulerAngleWrtEi_rad_Yaw,bodyAngularRateWrtEi_rad_s_Roll,bodyAngularRateWrtEi_rad_s_Pitch,bodyAngularRateWrtEi_rad_s_Yaw,altitudeMsl_m,airDensity_kg_m3,ambientTemperature_dgK,eiGravitation_m_s2_X,eiGravitation_m_s2_Y,eiGravitation_m_s2_Z
0.0,-1428622.3120664244,4163200.465251461,5136049.672040268,-4292653.410000001,955168.4699999995,5139356.569999999,109.64966299999837,-7527.726490000003,1484.521489,5.528986569357204,-1.230267887409868,-6.619549899945847,6758662.11722885,1.0233194459853856,1.1333718620180008E-16,-0.20245819323134245,-1.0625361206418758E-16,-2.4715939053549034,-0.03718896447613391,-1.4289931348885438,-2.541098841762901E-21,8.131516293641283E-20,1.3552527156068805E-20,398252.76383814117,3.1125051777514152E-12,976.2183377126014,5.528986569357204,-1.230267887409868,-6.619549899945847
60.0,-1789712.6496681145,3920255.313015761,5213136.6039791545,-4276130.763606054,501640.15063862986,5216447.9477098975,440.8995044260108,-7584.043045604897,1084.189396723085,5.508416690933042,-0.6462017022813769,-6.719712406155927,6758662.117231132,1.027694715234372,1.7252996069104846E-14,-0.13438804668532586,-4.558319984166906E-15,-2.4715939053549034,-0.03718896447613391,-1.4289931348885438,-2.541098841762901E-21,8.131516293641283E-20,1.3552527156068805E-20,398335.1614682008,3.198555110651932E-12,983.0791797564946,5.508416690933042,-0.6462017022813769,-6.719712406155927
120.0,-2144732.034177042,3662345.3121019304,5266057.240880422,-4239785.4648506045,45786.44926615791,5269357.680100528,770.1498563608073,-7605.2077588949,678.7772426996095,5.462360218418421,-0.0589893241267832,-6.788817501975405,6758662.117230327,1.0320699844833425,-9.958382820664183E-15,-0.06631179809505554,2.7816711789564765E-15,-2.4715939053549034,-0.03718896447613391,-1.4289931348885438,-2.541098841762901E-21,8.131516293641283E-20,1.3552527156068805E-20,398280.4831678068,3.307822912357512E-12,990.9653252375497,5.462360218418421,-0.0589893241267832,-6.788817501975405
180.0,-2492166.1237604707,3390599.0023339516,5294562.856726825,-4183783.2576413755,-410279.4807895619,5297837.089567908,1095.8768804299507,-7591.112907315994,270.15925433186345,5.391015098227365,0.5286657408434533,-6.826529477989911,6758662.117230273,1.0364452537322815,-1.4044343286478462E-14,0.0017710140290377663,2.969851248326473E-15,-2.4715939053549034,-0.03718896447613391,-1.4289931348885438,-2.541098841762901E-21,8.131516293641283E-20,1.3552527156068805E-20,398085.3786745361,3.4371444971304578E-12,999.5338718179668,5.391015098227365,0.5286657408434533,-6.826529477989911
240.0,-2830524.9335479126,3106195.851592403,5298517.626972643,-4108380.89026452,-864442.894077885,5301750.470798644,1416.5720940027975,-7541.813194297484,-139.77448384789935,5.294695095673183,1.1140548245196953,-6.832655726429778,6758662.117230166,1.0408205229812044,-2.6877447526025875E-14,0.06986082100323111,4.09004636265611E-15,-2.4715939053549034,-0.03718896447613391,-1.4289931348885438,-2.541098841762901E-21,8.131516293641283E-20,1.3552527156068805E-20,397748.7681040413,3.586747472672089E-12,1008.6977258441461,5.294695095673183,1.1140548245196953,-6.832655726429778
300.0,-3158349.2713371646,2810361.125337631,5277899.322075947,-4013924.9861688134,-1314597.2005751184,5281075.7837948585,1730.7492879000874,-7457.525693773901,-549.1266557876678,5.173828662828589,1.6944762794138881,-6.807147954911647,6758662.117229892,1.0451957922300796,-2.9591035965372187E-14,0.13795802196364781,3.852999474657836E-17,-2.4715939053549034,-0.03718896447613391,-1.4289931348885438,-2.541098841762901E-21,8.131516293641283E-20,1.3552527156068805E-20,397271.8837139019,3.756369397667319E-12,1018.3373329768563,5.173828662828589,1.6944762794138881,-6.807147954911647
360.0,-3474217.0881774067,2504360.5974082234,5232799.4820043035,-3900850.5020308536,-1758653.6879505129,5235904.827550152,2036.9513609450394,-7338.629062559707,-956.0013936457733,5.02895729882166,2.267247692654182,-6.750102774955212,6758662.117229965,1.049571061478955,-3.1644696213159195E-14,0.20606298200293635,-5.362726856015889E-15,-2.4715939053549034,-0.03718896447613391,-1.4289931348885438,-2.541098841762901E-21,8.131516293641283E-20,1.3552527156068805E-20,396658.2718158577,3.945309902314007E-12,1028.3119930956166,5.02895729882166,2.267247692654182,-6.750102774955212
420.0,-3776749.7162128375,2189495.124272135,5163423.069595495,-3769678.7790012504,-2194551.1745933644,5166442.892261047,2333.757040930919,-7185.662020198138,-1358.5129738366172,4.860733403791901,2.8297180810463916,-6.661761655949354,6758662.117229895,1.0539463307277828,-4.9591916719074106E-14,0.2741760304594593,1.848884685820132E-15,-2.4715939053549034,-0.03718896447613391,-1.4289931348885438,-2.541098841762901E-21,8.131516293641283E-20,1.3552527156068805E-20,395913.7546336119,4.152540832715E-12,1038.474521348729,4.860733403791901,2.8297180810463916,-6.661761655949354
480.0,-4064617.9662820166,1867095.1053849661,5070087.602939373,-3621015.194859169,-2620265.5495142452,5073007.890244446,2619.7874617104353,-6999.321098961768,-1754.794491094377,4.669917629713851,3.379280015610189,-6.542510237450519,6758662.117230797,1.0583215999766105,-3.2588240658936516E-14,0.34229745936704653,5.3589387611610105E-15,-2.4715939053549034,-0.03718896447613391,-1.4289931348885438,-2.541098841762901E-21,8.131516293641283E-20,1.3552527156068805E-20,395046.35253467853,4.3768301012341495E-12,1048.6850097064514,4.669917629713851,3.379280015610189,-6.542510237450519
540.0,-4336548.058000939,1538514.8526904457,4953221.769247916,-3455546.4266095464,-3033819.1554882424,4956028.96803387,2893.7125663687293,-6780.457669807801,-2143.006471899927,4.457375733401277,3.9133816229664693,-6.392876995092986,6758662.117230922,1.0626968692254064,-2.869543199255647E-14,0.41042752207305905,-6.629008023596904E-15,-2.4715939053549034,-0.03718896447613391,-1.4289931348885438,-2.541098841762901E-21,8.131516293641283E-20,1.3552527156068805E-20,394066.1676851684,4.616835058273217E-12,1058.820400025268,4.457375733401277,3.9133816229664693,-6.392876995092986
600.0,-4591327.35540523,1205126.8926103525,4813363.525015689,-3274037.3348501767,-3433289.972250808,4816044.60446389,3154.2573068234556,-6530.074253283031,-2521.345388409808,4.224074939183514,4.429538410073858,-6.213531257925263,6758662.117231012,1.0670721384741706,-3.164361242387607E-14,0.47856643203139754,-1.3648652987175793E-14,-2.4715939053549034,-0.03718896447613391,-1.4289931348885438,-2.541098841762901E-21,8.131516293641283E-20,1.3552527156068805E-20,392985.2308096433,4.871141023708183E-12,1068.778739093642,4.224074939183514,4.429538410073858,-6.213531257925263
660.0,-4827809.8817047225,868316.2240864286,4651157.689593122,-3077327.482999257,-3816820.557193752,4653700.201873704,3400.2076107142097,-6249.320127594866,-2888.052033974561,3.9710798210545537,4.925344858157875,-6.005280577706597,6758662.117231151,1.0714474077229348,-4.0484591448106096E-14,0.5467143617768979,-2.6423831456799576E-14,-2.4715939053549034,-0.03718896447613391,-1.4289931348885438,-2.541098841762901E-21,8.131516293641283E-20,1.3552527156068805E-20,391817.31334439554,5.138245091776412E-12,1078.478937538864,3.9710798210545537,4.925344858157875,-6.005280577706597
720.0,-5044921.587302985,529474.5563799139,4467353.041636347,-2866327.306205034,-4182626.7018392696,4469745.179903598,3630.416087103632,-5939.486249336462,-3241.4197214502065,3.6995477164536172,5.398485731224626,-5.7690674535474935,6758662.117231275,1.075822676973096,-3.615353952758268E-14,0.6148714420862901,-2.240907830680524E-14,-2.4715939053549034,-0.03718896447613391,-1.4289931348885438,-2.541098841762901E-21,8.131516293641283E-20,1.3552527156068805E-20,390577.70788196335,5.416501707056846E-12,1087.8577812111046,3.6995477164536172,5.398485731224626,-5.7690674535474935
780.0,-5241665.345970095,189994.5503270488,4262798.9302105615,-2642013.946443786,-4529005.763398505,4265029.583672515,3843.8074433131505,-5601.9995056314265,-3579.8022658018526,3.4107236862909187,5.846747044376375,-5.505965418291503,6758662.117231064,1.0801979462217968,-4.594565213890562E-14,0.6830377613303953,-2.1487822515119017E-14,-2.4715939053549034,-0.03718896447613391,-1.4289931348885438,-2.541098841762901E-21,8.131516293641283E-20,1.3552527156068805E-20,389282.98037794937,5.704051465499471E-12,1096.865897144425,3.4107236862909187,5.846747044376375,-5.505965418291503
840.0,-5417125.65489492,-148735.91315476183,4038441.4146203604,-2405426.7719432428,-4854344.63194421,4040500.220422806,4039.3835861693274,-5238.416319755684,-3901.6217129717684,3.105935038334389,6.268026637254761,-5.21717449617923,6758662.117231229,1.0845732154704657,-4.610350955219106E-14,0.7512133650213014,-1.2731632271311408E-14,-2.4715939053549034,-0.03718896447613391,-1.4289931348885438,-2.541098841762901E-21,8.131516293641283E-20,1.3552527156068805E-20,387950.69813479076,5.9987517336294214E-12,1105.4638399706928,3.105935038334389,6.268026637254761,-5.21717449617923
900.0,-5570473.015367546,-485339.4139019548,3795318.949301266,-2157662.600643391,-5157127.295149927,3797196.340980321,4216.22838203887,-4850.415635554101,-4205.375777657795,2.7865854336166915,6.6603442983563035,-4.90401604458601,6758662.117231321,1.0889484847191346,-5.822213597001452E-14,0.81939825555739,-3.118970394971884E-14,-2.4715939053549034,-0.03718896447613391,-1.4289931348885438,-2.541098841762901E-21,8.131516293641283E-20,1.3552527156068805E-20,386599.1380801316,6.2981220326851915E-12,1113.6188774203783,2.7865854336166915,6.6603442983563035,-4.90401604458601
960.0,-5700967.971921227,-818454.599270023,3534557.6323235417,-1899870.6489034924,-5435941.964163894,3536244.884596014,4373.512051288742,-4439.791309213723,-4489.644953513343,2.454148598081066,7.021851386725917,-4.567926995983338,6758662.117231127,1.0933237539677718,-6.621439783082424E-14,0.8875923921681669,-4.2582101128255815E-14,-2.4715939053549034,-0.03718896447613391,-1.4289931348885438,-2.541098841762901E-21,8.131516293641283E-20,1.3552527156068805E-20,385246.9803012615,6.599311924659556E-12,1121.3026278464963,2.454148598081066,7.021851386725917,-4.567926995983338
1020.0,-5807964.789033599,-1146741.6938964508,3257366.038213507,-1633247.2280866392,-5689487.725996242,3258855.3078906024,4510.49517421408,-4008.4439401264403,-4753.09926035256,2.110161664245017,7.3508398986567585,-4.21045351969662,6758662.117231046,1.0976990232163775,2.0672166552730278E-5,0.9557971970310769,1.1342259185447308E-6,-2.471574105714551,-0.03718973851724589,-1.428994584009945,1.9746007983315527E-6,1.5059917257497541E-7,6.543999797661644E-8,383912.9921732049,6.899095424498612E-12,1128.489469170414,2.110161664245017,7.3508398986567585,-4.21045351969662
1080.0,-5890914.745846009,-1468887.889916218,2965029.6578866676,-1359030.2129834276,-5916580.689792847,2966314.0207140245,4626.532287043724,-3558.372175674548,-4994.504594222321,1.7562181701903345,7.645750928524923,-3.8332441265099697,6758662.117230632,1.1020742924649671,3.3314267343322E-4,1.0240321185024046,2.014796673030685E-5,-2.4712771108867466,-0.03720134386894943,-1.4290163231105262,7.898329145710597E-6,6.023330436042006E-7,2.618312091964484E-7,382615.7087106013,7.193893543322679E-12,1135.1555468895417,1.7562181701903345,7.645750928524923,-3.8332441265099697
1140.0,-5949369.030856856,-1783612.595621768,2658904.970489482,-1078493.307269574,-6116159.596553506,2659978.4537349395,4721.075048343143,-3091.6635277737887,-5212.728647690568,1.3939607456611423,7.905182474779367,-3.4380422426526187,6758662.117230336,1.1064495617135248,0.0010294558771217115,1.0923029926947998,6.974821139822893E-5,-2.4706237208189936,-0.03722684088824105,-1.4290641641620994,1.3822057478441305E-5,1.0538581909626472E-6,4.5848762929749984E-7,381373.11497369333,7.47982484124429E-12,1141.2781966911994,1.3939607456611423,7.905182474779367,-3.4380422426526187
1200.0,-5982981.220151515,-2089672.5211853709,2340413.17385467,-792940.1323177386,-6287290.864204863,2341270.7844846584,4793.674957995219,-2610.4847418741133,-5406.746369397366,1.0250735174480703,8.12789654441029,-3.026678283182665,6758662.117230071,1.110824830962067,0.0021255368617947076,1.1606095670265029,1.646216491755226E-4,-2.469613932265276,-0.03726615135351644,-1.4291381409052226,1.9745785744286498E-5,1.5050183452114352E-6,6.556081406043756E-7,380202.33644537564,7.752782286344474E-12,1146.8356175334043,1.0250735174480703,8.12789654441029,-3.026678283182665
1260.0,-5991509.324457255,-2385866.5807908704,2011033.6020761258,-503698.16669371485,-6429173.042467794,2011671.3503818256,4843.985612938464,-2117.0717618457693,-5575.644933817524,0.6512742685161793,8.31282551191664,-2.6010612582029617,6758662.117230448,1.115200100210593,0.0036495132770337996,1.2289515231232175,3.3168581600890934E-4,-2.4682477402274414,-0.037319154311789136,-1.4292383052729367,2.5669513823574652E-5,1.955657683334456E-6,8.533915866659186E-7,379119.34327215183,8.008532875252833E-12,1151.8066525814259,0.6512742685161793,8.31282551191664,-2.6010612582029617
1320.0,-5974817.392135007,-2671040.5913361176,1672296.8603883039,-212112.56455362425,-6541140.6546358345,1672711.7789438483,4871.7644859753345,-1613.7193367215314,-5718.628194292877,0.2743063874830005,8.459077691919259,-2.1631699486918055,6758662.117230409,1.1195753694590873,0.005657017846120847,1.2973284736738093,6.253742631767324E-4,-2.4665251379788713,-0.037385685995788086,-1.4293647271185856,3.1593241500434654E-5,2.4056210200252877E-6,1.0520367557012716E-6,378138.67410127603,8.242833228989336E-12,1156.1704995173675,0.2743063874830005,8.459077691919259,-2.1631699486918055
1380.0,-5932876.657152063,-2944091.748785546,1325777.7090833997,80460.11808792443,-6622667.40621849,1325967.8669402027,4876.8742162195895,-1102.7703176166997,-5835.020594695613,-0.10406935297596819,8.565942088066887,-1.71504369193935,6758662.117230314,1.123950638707566,0.008277131573866982,1.3657399513434643,0.0011735631360577786,-2.464446117096948,-0.03746553971275484,-1.429517493847642,3.751696843417366E-5,2.8547539989354365E-6,1.2517423641143803E-6,377273.1849677498,8.451567934163896E-12,1159.9068595762449,-0.10406935297596819,8.565942088066887,-1.71504369193935
1440.0,-5865766.223088071,-3203972.86425281,973087.7296040041,372658.2596333133,-6673368.743359433,973052.2416476564,4859.283402120749,-586.6046952714617,-5924.270517574033,-0.482083148433526,8.632892284803157,-1.258772819648163,6758662.117230249,1.1283259079560126,0.011896509889425921,1.4341853615464468,0.002361680389008367,-2.46201066680591,-0.03755846573247033,-1.4296967100044162,4.3440694130842815E-5,3.302903283872805E-6,1.4527070400969086E-6,376533.8282610609,8.630914092290479E-12,1162.9969080838414,-0.482083148433526,8.632892284803157,-1.258772819648163
1500.0,-5773673.276329332,-3449696.342983679,615867.8071967056,663121.5416647972,-6693003.747030573,615606.8386157986,4819.066890472969,-67.6284305422361,-5985.953049305791,-0.8579646038134606,8.65958945282737,-0.7964887946059923,6758662.117230221,1.1327011772044275,0.018454330290710263,1.5026636434934253,0.0061276376396154995,-2.459218774372859,-0.037664171109333164,-1.4299024966855283,4.9364417915029545E-5,3.749916749937383E-6,1.6551293073406578E-6,375929.4662636575,8.7775010224482E-12,1165.4240669845694,-0.8579646038134606,8.65958945282737,-0.7964887946059923
1560.0,-5656892.823767729,-3680337.8905838453,255780.4655971843,950497.3198201337,-6681476.352189203,255295.23143661863,4756.405557371761,451.7378682200892,-6019.772145615466,-1.229951220066788,8.645884443711642,-0.33035409446722225,6758662.117230591,1.1370764464528427,2.212862506494754,1.5701471027645506,2.1973820316732144,-2.456070428844201,-0.037782319358747096,-1.430134990610173,5.528813890192013E-5,4.1956436745845314E-6,1.8592075688797596E-6,375466.7230894784,8.888554603033414E-12,1167.1745646253514,-1.229951220066788,8.645884443711642,-0.33035409446722225
1620.0,-5515826.952543246,-3895039.932086022,-105497.90987366803,1233446.966242072,-6638835.884362549,-106205.15007879361,4671.585579707319,969.0703656410024,-6025.562183799041,-1.5962968821650843,8.591818954082026,0.13744810646960615,6758662.117231176,1.1414517157012258,-3.1320061448577614,1.5018682340598846,3.1321815958360624,-2.452565615366783,-0.037912530461334894,-1.4303943437885653,6.121185596967376E-5,4.639934928603887E-6,2.065140091083279E-6,375149.87808482064,8.962018422554263E-12,1168.2378662242068,-1.5962968821650843,8.591818954082026,0.13744810646960615
1680.0,-5350983.611640539,-4093014.730772387,-466284.9236964688,1510652.153058483,-6565276.909473404,-467210.87618668587,4564.9971984619115,1481.9534613581368,-6003.288891114623,-1.9552803034149828,8.497625744992774,0.6047244045557035,6758662.117230907,1.1458269849495775,-3.1244356134601405,1.4332931633942971,3.135870246999543,-2.4487043177464436,-0.03805438053909107,-1.430680722486861,6.713556773214495E-5,5.082643167002919E-6,2.273124987819248E-6,374980.80290448765,8.996644260587083E-12,1168.607015446985,-1.9552803034149828,8.497625744992774,0.6047244045557035
1740.0,-5162974.917451508,-4273547.195061659,-824900.0583807721,1780821.0465071877,-6461138.39612239,-826040.4102944414,4437.132977794469,1987.99123663885,-5953.049642024634,-2.3052133806677615,8.363727907585384,1.0692817285138418,6758662.117231269,1.1502022541979289,-3.119033357891282,1.3646866451600876,3.137024247429987,-2.4444865184664053,-0.03820740160963632,-1.4309943062819517,7.30592725119978E-5,5.523623019782789E-6,2.4833602048106413E-6,374958.9435638718,8.992046189889817E-12,1168.2789137764357,-2.3052133806677615,8.363727907585384,1.0692817285138418
1800.0,-4952514.987729042,-4435997.363213195,-1179672.561551243,2042694.38164046,-6326902.1929651555,-1181022.0008362625,4288.585566623181,2484.818828230582,-5875.073120299285,-2.6444494149052535,8.190737171809758,1.5289379396018723,6758662.117231778,1.154577523446217,-3.1139043766752756,1.2960500009614344,3.1375368843174853,-2.4399121980811365,-0.03837108134596537,-1.431335287066648,7.89829683142507E-5,5.962731282598717E-6,2.6960435042045775E-6,375081.34780621785,8.948715109009603E-12,1167.2545567822253,-2.6444494149052535,8.190737171809758,1.5289379396018723
1860.0,-4720417.31069764,-4579802.557103187,-1528949.2937723962,2295051.388028722,-6163190.827279447,-1530501.5337972832,4120.044972145739,2970.113672075569,-5769.718345378132,-2.9713911519118823,7.979451260763423,1.9815324132759244,6758662.117231679,1.1589527926945367,-3.108667097636059,1.2273842051698869,3.137787868356304,-2.4349813378429093,-0.038544862717307914,-1.4317038677129084,8.49066528002815E-5,6.3998271072902565E-6,2.9113724493755872E-6,375342.7371733461,8.867993415745043E-12,1165.5392411154453,-2.9713911519118823,7.979451260763423,1.9815324132759244
1920.0,-4467591.658386963,-4704479.19787413,-1871102.4990580776,2536715.537529928,-5970764.634240164,-1872850.3078093913,3932.295357435901,3441.6065598526843,-5637.473065824347,-3.284498598333619,7.730850299138201,2.4249365448671485,6758662.117231792,1.163328061942793,-3.1031932762606766,1.1586902141401914,3.1379034086279236,-2.4296939170508716,-0.03872814379827465,-1.4321002610356697,9.083032326233743E-5,6.834772192275371E-6,3.129544389983243E-6,375735.6222088427,8.7520124703513E-12,1163.142752038728,-3.284498598333619,7.730850299138201,2.4249365448671485
1980.0,-4195040.555558649,-4809624.27782833,-2204537.4602848296,2766560.0860010628,-5750518.229826451,-2206472.6940155015,3726.2113779117917,3897.092451992895,-5478.951526158227,-3.5822965693585473,7.446092290197656,2.857064121668965,6758662.117231789,1.1677033311910492,-3.097427102694816,1.0899690122495873,3.137937079636692,-2.4240499139163374,-0.03892027745460541,-1.4325246883943574,9.675397659858619E-5,7.267430972794093E-6,3.350756447307632E-6,376250.458320616,8.603598130980865E-12,1160.0795382516224,-3.5822965693585473,7.446092290197656,2.857064121668965
2040.0,-3903855.31785147,-4894916.484547965,-2527700.002208665,2983513.381791647,-5503476.343641415,-2529813.6433800356,3502.7540740613617,4334.440991865934,-5294.891616806073,-3.8633819255242785,7.126507681626853,3.2758815041445937,6758662.117232083,1.1720786004407024,-3.0914140780783885,1.021227499033774,3.13792072450648,-2.418128523317055,-0.03911780131310042,-1.4329714217026743,9.872843380802224E-5,7.397050676908266E-6,3.443583053285667E-6,376875.83899547544,8.426151691914284E-12,1156.3688784783078,-3.8633819255242785,7.126507681626853,3.2758815041445937
2100.0,-3595211.674924932,-4960116.974872981,-2839083.805471143,3186563.914979762,-5230789.031196388,-2841366.0048104585,3262.9663403109166,4751.6066672225,-5086.151420319236,-4.126430457787079,6.773593046453748,3.6794175597275385,6758662.1172324745,1.176453869688895,-3.0853823298864365,0.9524856422201139,3.1378836498138565,-2.4121871865795805,-0.03931132322682444,-1.4334212105930253,9.872832302547634E-5,7.376042465562956E-6,3.471145885651679E-6,377598.7223042134,8.223514825353582E-12,1152.0350424371857,-4.126430457787079,6.773593046453748,3.6794175597275385
2160.0,-3270364.9966581417,-5005069.797884667,-3137237.4958692268,3374765.08257551,-4933726.28840002,-3139677.618344209,3007.9679923206118,5146.638566728629,-4853.70517037484,-4.37020338193257,6.389003910944953,4.065773293883446,6758662.117232544,1.180829138937088,-3.079345807366922,0.8837455820257565,3.137830603437123,-2.406245710572469,-0.03950013101204573,-1.433872534827433,9.872819604465937E-5,7.355144852006289E-6,3.4986993286926355E-6,378404.6859975972,7.999827531456104E-12,1147.1074468256545,-4.37020338193257,6.389003910944953,4.065773293883446
2220.0,-2930645.142269938,-5029701.967868578,-3420771.474253144,3547239.646323763,-4613672.094061125,-3423358.148746045,2738.9504572579453,5517.689681504202,-4598.6386433416665,-4.593553405673571,5.974546766892234,4.43313112473526,6758662.117232427,1.1852044081852489,-3.0733013678140675,0.8150079868793344,3.137763357932428,-2.4003040992483244,-0.039684218602766046,-1.4343253582414133,9.872805294053514E-5,7.334357818489591E-6,3.526243415849143E-6,379278.20597331953,7.759387662060538E-12,1141.6208038273917,-4.593553405673571,5.974546766892234,4.43313112473526
2280.0,-2577450.954425137,-5034023.189637601,-3688364.4536963915,3703183.8612740976,-4272117.90914711,-3691085.626141832,2457.1711137229167,5863.025703985828,-4322.144005358299,-4.795430334345166,5.532170310975261,4.779763749611955,6758662.117232455,1.1895796774333782,-3.0672465700562626,0.7462735271596934,3.1376828183092034,-2.394362356593064,-0.03986358017753737,-1.434779644682862,9.872789378764202E-5,7.313681347310029E-6,3.5537781805996043E-6,380202.9525000453,7.506519412332519E-12,1135.615253901119,-4.795430334345166,5.532170310975261,4.779763749611955
2340.0,-2212244.422091156,-5018125.2403151775,-3938769.6720509394,3841871.2549476945,-3910655.664321923,-3941612.6617849474,2163.947309963203,6181.03327914149,-4025.514140897169,-4.974886183939446,5.063955958837704,5.10404255434158,6758662.117232434,1.1939549466814758,-3.0611793591565335,0.67754287232384,3.1375893132914543,-2.3884204866336143,-0.040038210148401206,-1.4352353580094763,9.87277186600929E-5,7.293115420811448E-6,3.581303656459825E-6,381162.098329019,7.245456440759826E-12,1129.1364641987684,-4.974886183939446,5.063955958837704,5.10404255434158
2400.0,-1836544.537690082,-4982181.013192935,-4170820.749642895,3962656.038700887,-3530970.269898935,-4173772.308694906,1860.6500907993614,6470.227666067805,-3710.136491654866,-5.131079773301816,4.5721076861236165,5.404445518953658,6758662.117232446,1.1983302159295892,-3.0550978786904186,0.6088166880295501,3.1374827543385204,-2.3824784934338323,-0.040208103163838625,-1.4356924620915947,9.872752763157591E-5,7.272660021384959E-6,3.6088198769824843E-6,382138.63269661827,6.980243183092048E-12,1122.2356565509438,-5.131079773301816,4.5721076861236165,5.404445518953658
2460.0,-1451920.8756718305,-4926443.230805711,-4383437.163675396,4064976.134763827,-3134831.684761808,-4386483.538720697,1548.6976652735204,6729.259771259008,-3377.4864372941297,-5.2632807706140445,4.058941252917603,5.679564576657731,6758662.117232411,1.2027054851776549,-3.0490003494426134,0.5400956332947962,3.137362722553934,-2.3765363810933637,-0.04037325410836717,-1.4361509208136405,9.872732077535358E-5,7.252315131469964E-6,3.6363268757567862E-6,383115.67522341484,6.714655677639092E-12,1114.9695026321192,-5.2632807706140445,4.058941252917603,5.679564576657731
2520.0,-1059986.921097736,-4851242.835829155,-4575629.31287178,4148355.804390542,-2724086.5830287016,-4578756.309549106,1229.5486484252338,6956.9225183406725,-3029.12025204947,-5.370873172763263,3.526872871798584,5.928112386490616,6758662.117232208,1.207080754425705,-3.0428849835343357,0.47138035771320347,3.1372285131426287,-2.370594153746473,-0.0405336581018694,-1.436610698075682,9.872709816426467E-5,7.2320807335546355E-6,3.6638246864079357E-6,384076.7838367617,6.452141035819814E-12,1107.3997889718698,-5.370873172763263,3.526872871798584,5.928112386490616
2580.0,-662393.1781171199,-4756987.069820425,-4746503.147999221,4212407.8646017825,-2300649.6592356907,-4749696.19728684,904.6951117710986,7152.1565227752035,-2666.6676734677458,-5.453358199830502,2.978407382998335,6.148928483834402,6758662.117231924,1.211456023673723,-3.0367499170852073,0.4026714987471849,3.13707915261849,-2.364651815560896,-0.040689310499091885,-1.4370717577947345,9.872685987072431E-5,7.211956810176881E-6,3.6913133425967555E-6,385006.2510754387,6.195772828192078E-12,1099.592716687474,-5.453358199830502,2.978407382998335,6.148928483834402
2640.0,-260820.08937093863,-4644157.2511587795,-4895264.346149152,4256835.483103786,-1866494.614588365,-4898508.572483098,575.6554780223053,7314.055043941332,-2291.8241215862104,-5.510356590676423,2.4161260029386686,6.340984777073446,6758662.117232146,1.2158312929217412,-3.0305931514030595,0.33396967912097375,3.1369133965845637,-2.3587093707367095,-0.0408402068891359,-1.437534063906365,9.872660596672294E-5,7.191943343924953E-6,3.718792878019293E-6,385889.3834603734,5.948218451401293E-12,1091.6176759230787,-5.510356590676423,2.4161260029386686,6.340984777073446
2700.0,143029.20166980234,-4513306.264812689,-5021222.009004975,4281433.543122251,-1423644.8683663665,-5024502.299814924,243.96729629861503,7441.868191033627,-1906.3426086236334,-5.541610289413085,1.8426737146679855,6.503390362922432,6758662.117231944,1.2202065621697118,-3.02441249612102,0.26527550433767977,3.1367297118288784,-2.352766823505099,-0.040986343094778256,-1.4379975803660667,9.872633652382881E-5,7.172040317438212E-6,3.746263326406264E-6,386712.7590300053,5.711714435001303E-12,1083.545352031102,-5.541610289413085,1.8426737146679855,6.503390362922432
2760.0,547436.2126092832,-4365055.777743949,-5123791.867773472,4286089.572082266,-974164.039854875,-5127092.944105331,-88.82006540404433,7535.006363400344,-1512.025380779839,-5.546983516410269,1.2607463704332746,6.635395637389586,6758662.11723158,1.2245818314176822,-3.018205509325592,0.19658956034611824,3.1365262439736092,-2.3468241781273256,-0.04112771517204117,-1.4384622711507442,9.872605161318591E-5,7.152247713407958E-6,3.773724721522708E-6,387464.4586178598,5.488047073426298E-12,1075.4451173861705,-5.546983516410269,1.2607463704332746,6.635395637389586
2820.0,950674.5748268163,-4200093.194856233,-5202498.979991329,4270784.230279525,-520146.24721198354,-5205805.4678807985,-421.15277347022123,7593.04291018031,-1110.7153349812602,-5.526463221334984,0.6730775777788007,6.736395683887032,6758662.117231547,1.228957100665621,-3.0119694302968534,0.12791241138731899,3.1363007701356493,-2.340881438893414,-0.041264319409463936,-1.4389281002601473,9.87257513055172E-5,7.132565514577994E-6,3.8011770971675507E-6,388134.2669898581,5.278538815301714E-12,1067.3818650311216,-5.526463221334984,0.6730775777788007,6.736395683887032
2880.0,1351017.5430596748,-4019168.3713965137,-5256979.9060179815,4235591.357909959,-63706.270459741,-5260276.408276326,-751.4798905883105,7615.715998410788,-704.2872543843151,-5.480158919535208,0.08242544116969508,6.805932924620195,6758662.117231678,1.2333323699135281,-3.005701100351286,0.05924459805448448,3.136050634532887,-2.3349386101211205,-0.04139615232759023,-1.4393950317182906,9.872543567112269E-5,7.112993703745459E-6,3.828620487173168E-6,388713.84054241073,5.084044728979866E-12,1059.4127219442107,-5.480158919535208,0.08242544116969508,6.805932924620195
2940.0,1746745.527682566,-3823090.098627138,-5286984.355670602,4180677.5810476085,393030.37369131617,-5290255.523742455,-1078.2607094745333,7602.929683102826,-294.63890713891135,-5.408301916825566,-0.5084407687982393,6.843699026028178,6758662.117232011,1.2377076391614352,-2.999396866546805,-0.00941336439182951,3.1357726633917635,-2.328995696154626,-0.04152321067841737,-1.4398630295748946,9.872510477987976E-5,7.0935322637615425E-6,3.856054925404879E-6,389196.8388794503,4.904966154741341E-12,1051.5843286010959,-5.408301916825566,-0.5084407687982393,6.843699026028178
3000.0,2136153.615396096,-3612722.3803842613,-5292376.298146891,4106301.479357165,847937.397215876,-5295606.903700279,-1399.9720219441408,7554.754177086043,116.31794666901573,-5.311243931351037,-1.096753947017413,6.849536053670831,6758662.117231943,1.2420829084093103,-2.993052461642729,-0.07806098740192484,3.1354630536158634,-2.3230527013635256,-0.041645491444624747,-1.4403320579068144,9.872475870124541E-5,7.0741811775322575E-6,3.8834804457606714E-6,389579.0182315264,4.7412879488900536E-12,1043.9314146151119,-5.311243931351037,-1.096753947017413,6.849536053670831
3060.0,2517559.044111349,-3388980.5188399944,-5273134.531073994,4012812.3204997084,1298897.69837267,-5276309.536984797,-1715.1152875028397,7471.425322700981,526.6665948395305,-5.189455124706112,-1.6797624157138833,6.823436876517501,6758662.117231811,1.246458177657154,-2.9866628515389895,-0.14669781014257088,3.1351172271691747,-2.3171096301415686,-0.04176299183911992,-1.44080208081954,9.872439750425499E-5,7.054940428018966E-6,3.910897082170562E-6,389858.28533502045,4.592640502825095E-12,1036.4771193479796,-5.189455124706112,-1.6797624157138833,6.823436876517501
3120.0,2889308.59807038,-3152827.0283743837,-5229352.707221248,3900648.3683143663,1743813.263806512,-5232457.337618016,-2022.223666462296,7353.343271606752,934.4944147192593,-5.043521557807686,-2.2547430473974766,6.7655448250490995,6758662.1172316475,1.2508334469049975,-2.980222038129601,-0.21532340004122943,3.134729639616764,-2.3111664869053934,-0.04187570930438988,-1.441273062448358,9.872402125752176E-5,7.035809998239289E-6,3.938304868596481E-6,390034.711054833,4.458379974869001E-12,1029.2349743514242,-5.043521557807686,-2.2547430473974766,6.7655448250490995
3180.0,3249785.8896619813,-2905267.396947434,-5161238.820104267,3770334.7739296244,2180614.967931208,-5164258.629144608,-2319.8688836085907,7201.070383062241,1337.901872169943,-4.874142090133456,-2.8190141817276486,6.6761526118843495,6758662.117231793,1.2552087161527934,-2.973722800549654,-0.28393735274870746,3.134293526162863,-2.305223276093588,-0.04198364151179462,-1.4417449669601083,9.872363002924225E-5,7.016789871267672E-6,3.965703839031431E-6,390110.5037077367,4.3376741799578415E-12,1022.2119463010533,-4.874142090133456,-2.8190141817276486,6.6761526118843495
3240.0,3597418.494976474,-2647345.7147367,-5069114.15235015,3622481.0609601196,2607272.223112276,-5072035.091406856,-2606.667889657372,7015.328355006529,1735.0114339613554,-4.682124743863234,-3.369948271471636,6.555700527782581,6758662.117232032,1.2595839854005895,-2.9671563502719533,-0.3525392913492154,3.1338005609063546,-2.299280002165278,-0.04208678636096999,-1.4422177585543763,9.872322388718894E-5,6.997880030236154E-6,3.993094027499452E-6,390089.94269958127,4.229580723662277E-12,1015.4117045987844,-4.682124743863234,-3.369948271471636,6.555700527782581
3300.0,3930684.910890512,-2380140.1900716093,-4953411.693309018,3457778.2178713605,3021802.4351417744,-4956220.176252521,-2881.289289103219,6796.994606067492,2123.9763505952947,-4.468382557115121,-3.9049841954721467,6.404773929781491,6758662.117231792,1.2639592546483536,-2.960511863913401,-0.42112886457087007,3.1332403933671205,-2.293336669599146,-0.0421851419792164,-1.4426914014649366,9.872280289871577E-5,6.979080458335059E-6,4.020475468054923E-6,389979.273751626,4.1331081296820915E-12,1008.8373974293547,-4.468382557115121,-3.9049841954721467,6.404773929781491
3360.0,4248121.302368028,-2104758.572858878,-4814674.034935552,3276995.412432583,3422280.2196977725,-4817357.001209241,-3142.459504595907,6547.097930266593,2502.9892676845293,-4.2339289528993795,-4.421639179640244,6.224100041913609,6758662.117232207,1.268334523896086,-2.953775839374569,-0.48970574362854113,3.132600008055589,-2.287393282892114,-0.042278706720760804,-1.4431658599611203,9.872236713075748E-5,6.960391138813579E-6,4.047848194782192E-6,389786.56762504624,4.047256910964521E-12,1002.4935488712217,-4.2339289528993795,-4.421639179640244,6.224100041913609
3420.0,4548328.009702289,-1822333.5057538382,-4653550.757440924,3080976.344919713,3806846.336887941,-4656095.7326372145,-3388.9686496395725,6266.81344961917,2870.2906253400224,-3.97987265256296,-4.917520270375398,6.014544092360061,6758662.11723208,1.2727097931452471,-2.9469311915852843,-0.5582696171361419,3.1318628234735644,-2.281449846558213,-0.04236747916617795,-1.4436410983492542,9.872191664982956E-5,6.941812054980669E-6,4.075212241795463E-6,389521.5448722254,3.971042636031032E-12,996.3870222298078,-3.97987265256296,-4.917520270375398,6.014544092360061
3480.0,4829975.786622751,-1534017.8232463321,-4470795.318600722,2870635.2583728023,4173716.3025899786,-4473190.472258381,-3619.6760831962292,5957.45689306865,3224.176806547593,-3.7074121643857185,-5.390335308459984,5.777104814028342,6758662.117232168,1.2770850623929477,-2.939955955610944,-0.6268201832021838,3.1310073983942766,-2.275506365127585,-0.04245145812178838,-1.4441170809738053,9.872145152202862E-5,6.923343190205546E-6,4.102567643237821E-6,389195.36973416747,3.903505654623583E-12,990.5272079381934,-3.7074121643857185,-5.390335308459984,5.777104814028342
3540.0,5091811.741434077,-1240979.8188215923,-4267261.462892665,2646952.62573797,4521188.637096013,-4269495.663249935,-3833.5156216615087,5620.478233182017,3563.0079972223452,-3.41782987960559,-5.837903355331804,5.5129093383882335,6758662.117232266,1.2814603316406326,-2.932821382211654,-0.6953571372725472,3.130005530592028,-2.2695628431447528,-0.04253064261858731,-1.4445937722195608,9.872097181303306E-5,6.904984527918445E-6,4.1299144332812024E-6,388820.4168524666,3.8437125629279265E-12,984.9256734701945,-3.41782987960559,-5.837903355331804,5.5129093383882335
3600.0,5332664.954877928,-944398.499898335,-4043899.168823018,2410970.535138269,4847652.713540063,-4045962.0342761124,-4029.500385663959,5257.454714811609,3885.2157224928233,-3.1124858094854657,-6.258164527648135,5.22320751492682,6758662.117231944,1.2858356008883016,-2.9254890652068726,-0.7638801533116063,3.1288193874411667,-2.263619285168239,-0.042605031912115635,-1.445071136511784,9.872047758810203E-5,6.886736051611192E-6,4.157252646125913E-6,388410.0149756827,3.790753670262632E-12,979.595501321706,-3.1124858094854657,-6.258164527648135,5.22320751492682
3660.0,5551451.7498391075,-645458.8501441034,-3801750.154863446,2163787.795809572,5151596.17071791,-3803632.101896214,-4206.727261183362,4870.083312444057,4189.310025780973,-2.7928109981079547,-6.649189200186244,4.909365690805988,6758662.117231971,1.2902108701359387,-2.9179064727255586,-0.8323888541324052,3.1273970405263074,-2.2576756957688433,-0.04267462548143628,-1.4455491383184167,9.871996891207945E-5,6.868597744838097E-6,4.184582316000134E-6,387978.17229210696,3.743739522158322E-12,974.5504894487296,-2.7928109981079547,-6.649189200186244,4.909365690805988
3720.0,5747180.5897018965,-345347.1182325901,-3541942.9663649853,1906554.7884056203,5431611.857175553,-3543635.253732771,-4364.380956594371,4460.172655228329,4473.886259376653,-2.460300646397057,-7.009186541322654,4.572859987225969,6758662.117232658,1.29458613938356,-2.9099997416056573,-0.900882763262029,3.125665263585481,-2.251732079528607,-0.04273942302850833,-1.4460277421511598,9.87194458493891E-5,6.850569591216409E-6,4.211903477159507E-6,387539.28840718797,3.701798413218037E-12,969.8043304379194,-2.460300646397057,-7.009186541322654,4.572859987225969
3780.0,5918956.583864373,-45246.151660858624,-3265687.66762368,1640468.0844135939,5686404.2758515775,-3267182.4365924513,-4501.7376393893555,4029.6344606963544,4737.631457442941,-2.1165069834163215,-7.336512349565438,4.215269110593477,6758662.117232815,1.2989614086311496,-2.9016615566728103,-0.9693612238064401,3.1235174155730756,-2.245788441039698,-0.04279942447747818,-1.4465069125668915,9.87189084640389E-5,6.832651574426965E-6,4.239216163886774E-6,387107.85829829425,3.6640759550587046E-12,965.3698371650325,-2.1165069834163215,-7.336512349565438,4.215269110593477
3840.0,6065985.580712033,253669.20631261898,-2974270.1649471805,1366764.8603336555,5914795.501070143,-2975560.4754079515,-4618.168138505166,3580.474519955193,4979.3302647190685,-1.7630319213159797,-7.629676163826105,3.8382667379008493,6758662.117232578,1.3033366778787392,-2.8927297015280202,-1.0378232548565118,3.120791995531334,-2.239844784903182,-0.042854629973920005,-1.4469866141689562,9.871835681962024E-5,6.814843678214984E-6,4.2665204104913535E-6,386698.1738041986,3.6297371510544903E-12,961.2582481224046,-1.7630319213159797,-7.629676163826105,3.8382667379008493
3900.0,6187577.830210148,550236.6391746422,-2669046.18810345,1086717.133053176,6115730.542292016,-2670126.0504015903,-4713.14070036914,3114.7832786375143,5197.8703965800305,-1.4015195303970718,-7.887347624295457,3.443613516744572,6758662.117232203,1.307711947126297,-2.882946673431126,-1.1062672812932057,3.1172322619183155,-2.2339011157278716,-0.04290503988423316,-1.4474668116085285,9.871779097930797E-5,6.7971458863906595E-6,4.293816251308874E-6,386324.0283309425,3.597971009085148E-12,957.4786236543683,-1.4015195303970718,-7.887347624295457,3.443613516744572
3960.0,6283151.200196515,843310.7823523694,-2351434.9589181836,801625.8434947522,6288282.131731554,-2352299.361257451,-4786.223288961164,2634.7260591687727,5392.24760856571,-1.0336483706445232,-8.108362064876392,3.0331487211437866,6758662.1172326375,1.312087216373823,-2.871877500756572,-1.1746905843099498,3.1124040549358227,-2.2279574381292755,-0.04295065479484792,-1.4479474695859602,9.871721100586E-5,6.779558182829719E-6,4.321103720700741E-6,385998.4304795304,3.56799742836633E-12,954.0373318102963,-1.0336483706445232,-8.108362064876392,3.0331487211437866
4020.0,6352233.93242118,1131767.5350799172,-2022912.5770280957,512814.8161336074,6431654.915711637,-2023557.5083299563,-4837.085422363994,2142.5329709273783,5561.570155970731,-0.6611237157795666,-8.291725322107999,2.6087816048048595,6758662.117233028,1.3164624856213492,-2.8587248039729274,-1.2430880653381244,3.105510862882595,-2.2220137567280784,-0.042991475511322735,-1.4484285528519454,9.871661696161914E-5,6.762080551474206E-6,4.348382853053862E-6,385733.3322080714,3.5390758781809977E-12,950.9376161918989,-0.6611237157795666,-8.291725322107999,2.6087816048048595
4080.0,6394466.926384467,1414508.2437003953,-1685005.1538831713,221624.6223670089,6545189.0324484715,-1685427.6220030792,-4865.499540423738,1640.4885556649124,5705.062726602763,-0.2856697054109718,-8.43661774936884,2.1724824937177454,6758662.1172330305,1.3208377548688435,-2.8418519075768334,-1.3114490582812386,3.094916940044965,-2.216070076149478,-0.04302750305794558,-1.4489100262090868,9.871600890851297E-5,6.744712976333046E-6,4.3756536827799765E-6,385539.3769293028,3.510515216874508E-12,948.1792354329189,-0.2856697054109718,-8.43661774936884,2.1724824937177454
4140.0,6409605.541056189,1690463.7419875995,-1339281.7270316575,-70593.62402227813,6628363.061815468,-1339479.7722554333,-4871.341900257515,1130.921216112333,5822.069832324788,0.09097853975667164,-8.542397428848822,1.7262736599971067,6758662.117233178,1.325213024116306,-2.817285514231489,-1.379747312219259,3.0766499874705926,-2.2101264010216783,-0.043058738676770916,-1.4493918545129487,9.871538690805325E-5,6.727455441482667E-6,4.402916244315604E-6,385425.6726119766,3.4816838695042382E-12,945.7581629769038,0.09097853975667164,-8.542397428848822,1.7262736599971067
4200.0,6397520.906615265,1958598.2349342862,-987346.9875072314,-362484.5109338448,6680796.335525104,-987319.6912723333,-4854.592998422919,616.192476042868,5912.058647507524,0.4670828054532807,-8.608602577307245,1.272220018700085,6758662.117232895,1.3295882933637686,-2.772254083667509,-1.4478976580926262,3.037939539289044,-2.204182735974913,-0.0430851838268362,-1.4498740026735077,9.871475102133795E-5,6.710307931067608E-6,4.430170572121254E-6,385399.5945080037,3.4520194935027255E-12,943.6663353580118,0.4670828054532807,-8.608602577307245,1.272220018700085
4260.0,6358200.740416935,2217913.0133384457,-630833.8537753365,-652694.5831634322,6702250.599070293,-630581.3425835946,-4815.337520589731,98.68612019984803,5974.621285016251,0.8409096407677054,-8.634953144981313,0.8124196890017902,6758662.117232826,1.3339635626111994,-2.631693662928092,-1.5153935171768222,2.903722801286742,-2.198239085640159,-0.04310684018352285,-1.4503564356563958,9.871410130904961E-5,6.693270429301244E-6,4.457416700681283E-6,385466.62156940013,3.4210372198228823E-12,941.8914363626175,0.8409096407677054,-8.634953144981313,0.8124196890017902
4320.0,6291749.663459756,2467449.98742534,-271395.92618514504,-939878.5804875565,6692631.019663635,-270919.37069532636,-4753.763821525465,-419.2027375603872,6009.4765028242755,1.2107381520754674,-8.621351610191079,0.3489944606110222,6758662.117232821,1.3383388318585985,-0.466721304928187,-1.5510102828562917,0.7451180788506023,-2.1922954546481286,-0.0431237096377134,-1.4508391184841907,9.871343783145709E-5,6.676342920466284E-6,4.484654664503194E-6,385630.2099520945,3.388335565775477E-12,940.4167024955411,1.2107381520754674,-8.621351610191079,0.3489944606110222
4380.0,6198389.015702046,2706295.028676215,89300.14378633967,-1222705.6305701612,6651986.537317843,89998.53447602136,-4670.162940123174,-935.0786098032694,6016.470836774117,1.5748677026025426,-8.567882975139108,-0.11591979433492482,6758662.117233279,1.3427141011059978,0.11985179297670456,-1.4867371262994993,0.16493792614588776,-2.186351847627971,-0.043135794295045354,-1.4513220162375793,9.871276064841512E-5,6.6595253889154915E-6,4.511884498117944E-6,385891.7062668604,3.3536501651484373E-12,939.2241947106759,1.5748677026025426,-8.567882975139108,-0.11591979433492482
4440.0,6078456.170626693,2933581.1099703084,449582.3350141064,-1499865.3689822895,6580509.559075856,450499.32386184606,-4564.927156045418,-1446.556567035654,5995.579157406942,1.9316254873393304,-8.474813971213916,-0.5801827243942135,6758662.11723349,1.347089370353365,0.19753166074603884,-1.4188459559005893,0.09367778639404732,-2.18040826920627,-0.043143096475098335,-1.45180509405679,9.871206981936513E-5,6.64281781907219E-6,4.539106236078489E-6,386250.30241322436,3.3170531454476294E-12,938.3084485707482,1.9316254873393304,-8.474813971213916,-0.5801827243942135
4500.0,5932403.351503417,3148491.2350926735,807780.954390565,-1770073.959073137,6478534.99925084,808912.2916321491,-4438.548096345993,-1951.2730980947608,5946.904651123143,2.2793739541349143,-8.342591484694942,-1.0416590782971473,6758662.117233391,1.3514646396007006,0.23104059436631857,-1.3506674936058243,0.06661696685555836,-2.1744647240058237,-0.04314561871063504,-1.4522883171427359,9.87113654033361E-5,6.6262201954309406E-6,4.566319912960054E-6,386703.03297580406,3.2787662914383483E-12,937.6644961951062,2.2793739541349143,-8.342591484694942,-1.0416590782971473
4560.0,5760795.9538117545,3350261.149614807,1162236.3162229,-2032079.9849858368,6346538.671337819,1163576.7592441724,-4291.614402142653,-2446.896853019297,5870.67822823097,2.6165180429496093,-8.171840216195323,-1.4982282230098498,6758662.117233716,1.3558399088480522,0.251668985571365,-1.2824113327267257,0.052466824747109266,-2.1685212166446255,-0.0431433637467646,-1.4527716507582726,9.871064745894285E-5,6.609732502558147E-6,4.5935255633596026E-6,387244.81527107244,3.239074559958103E-12,937.2826748812768,2.6165180429496093,-8.171840216195323,-1.4982282230098498
4620.0,5564310.380283065,3538181.8261018447,1511306.3691287949,-2284670.1917637847,6185135.040018696,1512849.706894731,-4124.808967065916,-2931.1392228838818,5767.257362674424,2.9415122163976832,-7.9633595894375935,-1.947793563572961,6758662.117234153,1.360215178095356,0.2668192577777434,-1.2141264527780555,0.04382684922243325,-2.162577751734568,-0.04313633454022542,-1.453255060229483,9.870991604438814E-5,6.593354725092609E-6,4.620723221895389E-6,387868.5312460716,3.198315173634835E-12,937.1487123154054,2.9415122163976832,-7.9633595894375935,-1.947793563572961
4680.0,5343731.396981587,3711601.7175431605,1853374.2365504117,-2526675.047246135,5995074.344384864,1855113.3184760085,-3938.905760780912,-3401.7647120771608,5637.124370417095,3.2528672558721574,-7.718119927065185,-2.3882918288918784,6758662.117233995,1.3645904473426438,0.27914254346501766,-1.1458300184041963,0.03804800459025642,-2.1566343338804694,-0.04312453425852907,-1.4537385109468346,9.870917121746332E-5,6.577086847746162E-6,4.647912923206494E-6,388565.14956669585,3.1568566211012595E-12,937.2432644217458,3.2528672558721574,-7.718119927065185,-2.3882918288918784
4740.0,5099949.020759734,3869928.77384604,2186855.637487088,-2756974.1012936723,5777239.106137488,2188782.406615699,-3734.7662523922363,-3856.6010596268998,5480.884135573571,3.5491567986988923,-7.437257913172129,-2.817702188666716,6758662.117234295,1.368965716589916,0.2898233590641934,-1.0775293788500002,0.033948079192319534,-2.1506909676788655,-0.04310796627913132,-1.4542219683664555,9.870841303554708E-5,6.560928855304224E-6,4.675094701952577E-6,389323.88541183464,3.115045420950261E-12,937.5392115122803,3.5491567986988923,-7.437257913172129,-2.817702188666716
4800.0,4833954.950310759,4012632.2171430434,2510206.1546556186,-2974501.1188169895,5532640.039092662,2512311.684991405,-3513.3354499758852,-4293.549067413262,5299.261295436222,3.829023592909833,-7.122071364084363,-3.2340551676783575,6758662.117234344,1.373340985838585,0.2994708677936138,-1.0092280293375955,0.030920450090559857,-2.1447476577169415,-0.04308663418864247,-1.4547053980112996,9.870764155560622E-5,6.54488073262638E-6,4.702268592813336E-6,390132.39473746077,3.073192150201532E-12,938.0016752411217,3.829023592909833,-7.122071364084363,-3.2340551676783575
4860.0,4546838.5548363095,4139244.0726332623,2821928.318014375,-3178248.9640986803,5262411.378814187,2824202.8558373074,-3275.637573856048,-4710.592094452579,5093.096897546895,4.09118544734774,-6.774013330660297,-3.635441324665455,6758662.1172345495,1.3777162550858253,0.30843077639484806,-0.9409276974848009,0.028622218327739077,-2.1388044085714415,-0.04306054178199965,-1.455188765472401,9.870685683419641E-5,6.528942464647037E-6,4.729434630488143E-6,390976.99911380216,3.032783053007058E-12,938.6783977392934,4.09118544734774,-6.774013330660297,-3.635441324665455
4920.0,4239782.436234453,4249360.452421475,3120578.472434304,-3367274.2149935733,4967805.653591467,3123011.481408654,-3022.771382548928,-5105.805177885596,4863.344543893965,4.334440855937131,-6.394685557060704,-4.02001966406655,6758662.117234508,1.3820915243330338,0.31691426244820353,-0.8726292071540533,0.026845318958116343,-2.132861224807498,-0.043029693061638494,-1.4556720364100177,9.870605892746317E-5,6.513114036375921E-6,4.756592849695676E-6,391842.936659577,2.995512759286738E-12,939.6339992580486,4.334440855937131,-6.394685557060704,-4.02001966406655
4980.0,3914057.582254427,4342642.59095023,3404773.399260744,-3540701.486767793,4650187.920309444,3407353.6091313357,-2755.9051715284195,-5477.363742844485,4611.066039189168,4.557674276035372,-5.985831322502202,-4.386025749906049,6758662.117234891,1.3864667935802266,0.32505800228068005,-0.8043328822136815,0.025456536913337494,-2.1269181109775923,-0.04299409223663698,-1.4561551765548133,9.870524789114062E-5,6.49739543289864E-6,4.783743285173453E-6,392714.6341519514,2.9628521589322647E-12,940.9193536109142,4.557674276035372,-5.985831322502202,-4.386025749906049
5040.0,3571018.1299131946,4418817.631226724,3673196.662580068,-3697727.4465762996,4311029.490967756,3675912.121234787,-2476.2714661467135,-5823.551865012513,4337.426561991998,4.7598610418707095,-5.549327694071228,-4.731779492132655,6758662.117235071,1.3908420628273876,0.33295474937849373,-0.7360387537444244,0.024366980124468435,-2.1209750716204745,-0.04295374372191022,-1.4566381517090674,9.870442378055226E-5,6.481786639377388E-6,4.810885971677432E-6,393575.99503586226,2.9361668103814E-12,942.5802295136625,4.7598610418707095,-5.549327694071228,-4.731779492132655
5100.0,3212095.7599583548,4477679.162045033,3924604.6521848165,-3837624.5009017256,3951901.1777316425,3927442.7808470344,-2185.1614311470903,-6142.770051419562,4043.6893792000565,4.940071895139832,-5.087177220151386,-5.055692576715988,6758662.117234823,1.3952173320745327,0.3406700540395581,-0.6677466747970995,0.02351542082287806,-2.1150321112600095,-0.042908652137324484,-1.4571209277478185,9.870358665061117E-5,6.46628764105122E-6,4.838020943981736E-6,394410.6978416038,2.91676144218394E-12,944.6603452713796,4.940071895139832,-5.087177220151386,-5.055692576715988
5160.0,2838793.7447319664,4519087.5071638385,4157832.296509857,-3959744.1396439574,3574466.086408805,4160779.9478105903,-1883.919020249915,-6433.542506835642,3731.2101261152384,5.097477115905339,-4.601499095516543,-5.356275511828738,6758662.117234764,1.399592601321678,0.3482519480483489,-0.5994563882542451,0.022858683313051673,-2.1090892344042227,-0.04285882230691367,-1.4576034706200462,9.870273655582312E-5,6.4508984232362056E-6,4.865148236878033E-6,395202.499402809,2.9059125202255457E-12,947.2032235360416,5.097477115905339,-4.601499095516543,-5.356275511828738
5220.0,2452680.673244076,4542969.768211512,4371798.420195446,-4063519.9219973837,3180471.9901477424,4374841.938862271,-1573.934890272897,-6694.523855026345,3401.430675924994,5.231350238005585,-4.094519830593363,-5.632144263452852,6758662.117234396,1.4039678705687753,0.35573683328946576,-0.5311675694144926,0.022365841916336334,-2.10314644554411,-0.04280425925793366,-1.4580857463497523,9.870187355028216E-5,6.435618971328848E-6,4.8922678851754044E-6,395935.5372750223,2.9048977715300523E-12,950.2534679729433,5.231350238005585,-4.094519830593363,-5.632144263452852
5280.0,2055383.878652833,4549319.623860118,4565510.722407398,-4148470.0907433364,2771743.316938969,4568636.008295451,-1256.6401051623611,-6924.50528613726,3055.8726240090036,5.341071334272682,-3.568563458875502,-5.882026454784078,6758662.1172345765,1.4083431398158728,0.3631532170687454,-0.46287985426672135,0.022014589633833192,-2.0972037491525306,-0.04274496822007328,-1.4585677210371069,9.870099768767392E-5,6.420449270802019E-6,4.919379923699635E-6,396594.6258588231,2.9150227800113508E-12,953.8574535815575,5.341071334272682,-3.568563458875502,-5.882026454784078
5340.0,1648582.5946452878,4538196.8885645345,4738070.353614518,-4214199.803135064,2350172.786159956,4741262.926794352,-933.4996561591927,-7122.420103548735,2696.1304139827457,5.426129857963319,-3.0260413179433363,-6.104767104871143,6758662.117234144,1.4127184090629386,0.37052417507314295,-0.39459285934089716,0.021788900836668984,-2.0912611496833473,-0.042680954624542446,-1.4590493608596709,9.870010902127457E-5,6.405389307208601E-6,4.946484387293084E-6,397165.5409322349,2.937640771940527E-12,958.0631332201842,5.426129857963319,-3.0260413179433363,-6.104767104871143
5400.0,1234000.868442364,4509726.834888788,4888676.070181689,-4260402.968150408,1917712.7309438495,4891921.137789394,-606.0058251077171,-7287.348645721802,2323.8641338371576,5.48612702793857,-2.469441441033546,-6.299333883015671,6758662.117234125,1.4170936783099726,0.3778690376902814,-0.32630619645829423,0.021677497723773358,-2.0853186515702293,-0.04261222410320592,-1.4595306320734154,9.869920760395265E-5,6.390439066181337E-6,4.973581310814195E-6,397635.2875856781,2.9741586092993174E-12,962.9184641137817,5.48612702793857,-2.469441441033546,-6.299333883015671
5460.0,813400.2592709861,4464099.284146897,5016627.947875293,-4286863.681528359,1476366.1445474692,5019910.472422152,-275.67141862578,-7418.522560810488,1940.792011900642,5.520777746322532,-1.9013175976092074,-6.464821856616416,6758662.117234224,1.4214689475570224,0.38520459104105853,-0.2580194843475934,0.021672836284885182,-2.0793762592256266,-0.04253878248774515,-1.460011501013825,9.869829348816816E-5,6.37559853343328E-6,5.000670729137028E-6,397992.34690521104,3.0260196759364503E-12,968.4678750167755,5.520777746322532,-1.9013175976092074,-6.464821856616416
5520.0,388572.35218954005,4401567.470766542,5121330.637205122,-4293457.251689339,1028177.4901634194,5124635.406037153,55.97709850480042,-7515.3284141742015,1548.6826436594436,5.529912038590322,-1.3242780228975422,-6.600457711342217,6758662.117234391,1.4258442168040246,0.3925459713169672,-0.18973235835283464,0.02177044247027304,-2.0734339770397403,-0.0424606358087401,-1.4604919340970715,9.869736672597265E-5,6.360867694758331E-6,5.027752677150999E-6,398226.8971768033,3.0946541828102575E-12,974.7463606491883,5.529912038590322,-1.3242780228975422,-6.600457711342217
5580.0,-38668.88191215071,4322446.686439066,5202296.1454188125,-4280150.811357538,575223.3147357282,5205607.8410110455,387.40654180385144,-7577.3106113651465,1149.346981695847,5.513476007351002,-0.7409738778943756,-6.705603423817104,6758662.117234318,1.430219486051027,0.3999073669389157,-0.1214444790465184,0.021968496342330418,-2.0674918093795167,-0.042377790294792224,-1.4609718978210071,9.86964273690104E-5,6.3462465360318854E-6,5.054827189760368E-6,398331.00584991026,3.1813918345606063E-12,981.7713731569424,5.513476007351002,-0.7409738778943756,-6.705603423817104
5640.0,-466494.8484872951,4227112.710752096,5259146.131938493,-4247003.511452607,119602.70831100756,5262449.402704469,717.0839880087057,-7604.173621702953,744.6301221546879,5.471532292457019,-0.15408748286275095,-6.779759368381198,6758662.11723428,1.4345947552979816,0.407302606107557,-0.053155540335377366,0.022267603067620045,-2.061549760587585,-0.04229025237163632,-1.4614513587663172,9.8695475468519E-5,6.331735043211172E-6,5.081894301883863E-6,398298.7890155059,3.2873427450802964E-12,989.5337288792382,5.471532292457019,-0.15408748286275095,-6.779759368381198
5700.0,-893070.1813010648,4116000.0356115587,5291613.706063155,-4194166.295598866,-336572.34872926737,5294893.2373573175,1043.4837686350227,-7595.783490171626,336.4029222094984,5.404260031533933,0.4336796311261579,-6.822566840975401,6758662.117234385,1.4389700245449362,0.4147456863059108,0.015134722464616305,0.022670716384998686,-2.0556078349812745,-0.04219802866124266,-1.4619302835975307,9.869451107532811E-5,6.317333202335906E-6,5.108954048454298E-6,398126.5357020441,3.4132686000812415E-12,997.9899613042521,5.404260031533933,0.4336796311261579,-6.822566840975401
5760.0,-1316560.6512097302,3989599.891338335,5299544.717855675,-4121881.25539241,-791186.7075546569,5302785.302844738,1365.0944460690298,-7552.168628099979,-73.44651603049948,5.311954316579274,1.0196188065623917,-6.833809984819074,6758662.117234481,1.443345293791875,0.4222512913775611,0.08342652413982497,0.0231831992762544,-2.0496660368516078,-0.042101125980891226,-1.462408639064098,9.869353423986036E-5,6.30304099952881E-6,5.1360064644181295E-6,397812.7948620453,3.5594800361402634E-12,1007.0591803973025,5.311954316579274,1.0196188065623917,-6.833809984819074
5820.0,-1735141.098270349,3848458.082887354,5282898.535288625,-4030480.5683846693,-1242131.7984002524,5286085.145367892,1680.4257418659047,-7473.519875885142,-483.0214588632922,5.1950251439221615,1.601026432274987,-6.813417104279839,6758662.117234098,1.447720563038782,0.4298353379887128,0.15172002020006903,0.02381302206282844,-2.0437243704622836,-0.041999551342380585,-1.4628863920014838,9.8692545012133E-5,6.288858420996025E-6,5.1630515847354595E-6,397358.4235215109,3.725796672884771E-12,1016.6267136442474,5.1950251439221615,1.601026432274987,-6.813417104279839
5880.0,-2147003.3533387575,3693172.645168974,5241748.302919181,-3920385.022563408,-1687315.359902339,5244866.1573510645,1988.0153868181676,-7360.189833917165,-890.425214517234,5.053995856599036,2.1752161557199208,-6.761461355225869,6758662.117233719,1.4520958322856732,0.4375155954389299,0.22001529603248676,0.024571112991532872,-2.037782840048671,-0.04189331195094439,-1.4633635093320856,9.869154344175589E-5,6.274785453027765E-6,5.19008944437892E-6,396766.59516904555,3.911586530120822E-12,1026.5544966775,5.053995856599036,2.1752161557199208,-6.761461355225869
5940.0,-2550364.1150762476,3524391.326956934,5176280.67960792,-3792102.132936806,-2124671.106306389,5179315.31406257,2286.435862357666,-7212.691460832755,-1293.7698291427835,4.889501080059293,2.739531084572976,-6.678160802189184,6758662.117233602,1.4564711015325642,0.4453124311105939,0.28831235383199555,0.025471893185178486,-2.031841449816866,-0.04178241520443312,-1.4638399580663695,9.869052957793388E-5,6.260822081998639E-6,5.217120078333897E-6,396042.7680813001,4.115869047916003E-12,1036.695462365329,4.889501080059293,2.739531084572976,-6.678160802189184
6000.0,-2943472.7481823964,3342808.913350159,5086795.055076251,-3646223.85765256,-2552168.2886368264,5089732.388758346,2574.3010029659417,-7031.695941275688,-1691.1847670453644,4.7022841540798686,3.291355926217965,-6.563877834855085,6758662.117233777,1.4608463707794237,0.4532497498847102,0.3566110962555345,0.026534049651417847,-2.025900203942684,-0.04166686869244036,-1.4643157053037692,9.868950346946484E-5,6.246968294368353E-6,5.244143521597773E-6,395194.6139107431,4.3374398301806944E-12,1046.9077224613184,4.7022841540798686,3.291355926217965,-6.563877834855085
6060.0,-3324618.9687076127,3149164.397206103,4973702.247395427,-3483423.9228945067,-2967821.1061421293,4976528.648446705,2850.2724295049297,-6818.029828462669,-2080.8255365533437,4.493194065855184,3.8281290126632195,-6.419117938760345,6758662.117234144,1.4652216400262512,0.46135622292347006,0.42491130527869114,0.027781631115726846,-2.0199591065707483,-0.04154668019527718,-1.4647907182338415,9.868846516474503E-5,6.2332240766820745E-6,5.2711598091797334E-6,394231.9074835652,4.5749712853407575E-12,1057.064975373574,4.493194065855184,3.8281290126632195,-6.419117938760345
6120.0,-3692140.3824758115,2944238.010393845,4837522.685830568,-3304454.7675967477,-3369697.9247415992,4840225.034704607,3113.065783741169,-6572.671470020906,-2460.88222268252,4.263181891394918,4.347354157514226,-6.244527817590977,6758662.117233943,1.4695969092745076,0.46966694545697274,0.4932126139842387,0.02924559848649653,-2.0140181618134343,-0.04142185768316885,-1.4652649641371245,9.86874147117606E-5,6.2195894155709315E-6,5.298168976100319E-6,393166.37938847794,4.82706078391673E-12,1067.0616326163995,4.263181891394918,4.347354157514226,-6.244527817590977
6180.0,-4044429.8430027706,2728848.1260706917,4678884.085787746,-3110144.12078259,-3755930.2598051154,4681449.836301843,3361.4567348325777,-6296.746728798745,-2829.587887681189,4.013296754649161,4.846612290935103,-6.0408928671625315,6758662.11723346,1.4739721785212876,0.47822573561468024,0.561514467800153,0.030966036161451483,-2.0080773737500452,-0.04129240931520502,-1.4657384103862083,9.868635215809572E-5,6.206064297752562E-6,5.325171057391018E-6,392011.53354820085,5.092222713274388E-12,1076.813221849025,4.013296754649161,4.846612290935103,-6.0408928671625315
