time,gePosition_m_X,gePosition_m_Y,gePosition_m_Z,eiPosition_m_X,eiPosition_m_Y,eiPosition_m_Z,eiVelocity_m_s_X,eiVelocity_m_s_Y,eiVelocity_m_s_Z,eiAccel_m_s2_X,eiAccel_m_s2_Y,eiAccel_m_s2_Z,semiMajorAxis_m,gast_rad,eulerAngle_rad_Roll,eulerAngle_rad_Pitch,eulerAngle_rad_Yaw,eulerAngleWrtEi_rad_Roll,eulerAngleWrtEi_rad_Pitch,eulerAngleWrtEi_rad_Yaw,bodyAngularRateWrtEi_rad_s_Roll,bodyAngularRateWrtEi_rad_s_Pitch,bodyAngularRateWrtEi_rad_s_Yaw,altitudeMsl_m,airDensity_kg_m3,ambientTemperature_dgK,eiGravitation_m_s2_X,eiGravitation_m_s2_Y,eiGravitation_m_s2_Z
0.0,-1428622.31101,4163200.46562,5136049.67203,-4292653.41,955168.47,5139356.57,109.649663,-7527.72649,1484.521489,5.52898656936,-1.23026788741,-6.61954989995,6758662.11723,1.02334780893,5.666859310097427E-17,-0.2024581932313422,-1.0271182499535224E-16,-2.471593905353287,-0.03718896447605677,-1.4289931348888525,0.0,0.0,0.0,398252.763838,3.11591362917E-12,976.47737094,5.52898656936,-1.23026788741,-6.61954989995
60.0,-1789712.64868,3920255.31305,5213136.6043,-4276130.76361,501640.150639,5216447.94771,440.899504426,-7584.0430456,1084.18939672,5.50841669093,-0.646201702282,-6.71971240616,6758662.11723,1.02772307802,-5.04145989032309E-16,-0.1343880466853914,1.3653953869627944E-16,-2.471593905353287,-0.03718896447605677,-1.4289931348888525,0.0,0.0,0.0,398335.16147,3.20687244874E-12,983.702829946,5.50841669093,-0.646201702282,-6.71971240616
120.0,-2144732.03326,3662345.31178,5266057.24147,-4239785.46485,45786.4492663,5269357.6801,770.149856361,-7605.20775889,678.7772427,5.46236021842,-0.058989324127,-6.78881750198,6758662.11723,1.03209834711,-1.2795687423200214E-15,-0.0663117980950497,-3.3380054147501584E-16,-2.471593905353287,-0.03718896447605677,-1.4289931348888525,0.0,0.0,0.0,398280.483171,3.31726588913E-12,991.661468685,5.46236021842,-0.058989324127,-6.78881750198
180.0,-2492166.12293,3390599.00166,5294562.85755,-4183783.25764,-410279.480789,5297837.08957,1095.87688043,-7591.11290731,270.159254332,5.39101509823,0.528665740843,-6.82652947799,6758662.11723,1.0364736162,-7.216460977245137E-16,0.0017710140289972146,7.910351455826064E-16,-2.471593905353287,-0.03718896447605677,-1.4289931348888525,0.0,0.0,0.0,398085.378679,3.44775481373E-12,1000.300609,5.39101509823,0.528665740843,-6.82652947799
240.0,-2830524.93281,3106195.85057,5298517.62797,-4108380.89026,-864442.894078,5301750.4708,1416.572094,-7541.8131943,-139.774483848,5.29469509567,1.11405482452,-6.83265572643,6758662.11723,1.04084888529,-6.677626714540835E-16,0.06986082100316059,3.547489192106908E-16,-2.471593905353287,-0.03718896447605677,-1.4289931348888525,0.0,0.0,0.0,397748.768109,3.59852917815E-12,1009.53002767,5.29469509567,1.11405482452,-6.83265572643
300.0,-3158349.2707,2810361.12396,5277899.32319,-4013924.98617,-1314597.20057,5281075.7838,1730.7492879,-7457.52569377,-549.126655788,5.17382866283,1.69447627941,-6.80714795491,6758662.11723,1.04522415437,8.966980595572332E-16,0.13795802196364546,8.441571576289743E-16,-2.471593905353287,-0.03718896447605677,-1.4289931348888525,0.0,0.0,0.0,397271.88372,3.76928395326E-12,1019.22714303,5.17382866283,1.69447627941,-6.80714795491
360.0,-3474217.08765,2504360.5957,5232799.48317,-3900850.50203,-1758653.68795,5235904.82755,2036.95136094,-7338.62906256,-956.001393646,5.02895729882,2.26724769265,-6.75010277495,6758662.11723,1.04959942346,1.4177731278296375E-15,0.20606298200208997,2.2259038106965624E-15,-2.471593905353287,-0.03718896447605677,-1.4289931348888525,0.0,0.0,0.0,396658.271822,3.95927497991E-12,1029.24864764,5.02895729882,2.26724769265,-6.75010277495
420.0,-3776749.71579,2189495.12225,5163423.07076,-3769678.779,-2194551.17459,5166442.89226,2333.75704093,-7185.6620202,-1358.51297384,4.86073340379,2.82971808105,-6.66176165595,6758662.11723,1.05397469255,1.1533003888150634E-15,0.27417603045985506,1.387564530294023E-15,-2.471593905353287,-0.03718896447605677,-1.4289931348888525,0.0,0.0,0.0,395913.75464,4.16743259548E-12,1039.44538411,4.86073340379,2.82971808105,-6.66176165595
480.0,-4064617.96598,1867095.10307,5070087.60404,-3621015.19486,-2620265.54951,5073007.89024,2619.78746171,-6999.32109896,-1754.79449109,4.66991762971,3.37928001561,-6.54251023745,6758662.11723,1.05834996164,0.0,0.34229745936735095,1.6758193376822174E-15,-2.471593905353287,-0.03718896447605677,-1.4289931348888525,0.0,0.0,0.0,395046.35254,4.39248786983E-12,1049.67618037,4.66991762971,3.37928001561,-6.54251023745
540.0,-4336548.05782,1538514.85011,4953221.77021,-3455546.42661,-3033819.15549,4956028.96803,2893.71256637,-6780.45766981,-2143.0064719,4.4573757334,3.91338162297,-6.39287699509,6758662.11723,1.06272523073,-4.843110884819026E-16,0.41042752207308136,1.161589876280568E-15,-2.471593905353287,-0.03718896447605677,-1.4289931348888525,0.0,0.0,0.0,394066.16769,4.63306699777E-12,1059.81737392,4.4573757334,3.91338162297,-6.39287699509
600.0,-4591327.35534,1205126.8898,4813363.52578,-3274037.33485,-3433289.97225,4816044.60446,3154.25730682,-6530.07425328,-2521.34538841,4.22407493918,4.42953841007,-6.21353125793,6758662.11723,1.06710049981,8.129781848026756E-16,0.47856643203081367,1.5477853902982743E-15,-2.471593905353287,-0.03718896447605677,-1.4289931348888525,0.0,0.0,0.0,392985.230813,4.88772979641E-12,1069.76694871,4.22407493918,4.42953841007,-6.21353125793
660.0,-4827809.88176,868316.221086,4651157.69009,-3077327.483,-3816820.55719,4653700.20187,3400.20761071,-6249.32012759,-2888.05203397,3.97107982106,4.92534485816,-6.00528057771,6758662.11723,1.0714757689,2.599331714162204E-15,0.5467143617768164,2.944555457448281E-15,-2.471593905353287,-0.03718896447605677,-1.4289931348888525,0.0,0.0,0.0,391817.313346,5.15495300749E-12,1079.44416186,3.97107982106,4.92534485816,-6.00528057771
720.0,-5044921.58748,529474.553225,4467353.04181,-2866327.30621,-4182626.70184,4469745.1799,3630.4160871,-5939.48624934,-3241.41972145,3.69954771645,5.39848573122,-5.76906745355,6758662.11723,1.07585103799,3.2619734912119623E-15,0.6148714420868653,3.0198738961653018E-15,-2.471593905353287,-0.03718896447605677,-1.4289931348888525,0.0,0.0,0.0,390577.707882,5.43307543139E-12,1088.78644481,3.69954771645,5.39848573122,-5.76906745355
780.0,-5241665.34627,189994.547074,4262798.92999,-2642013.94644,-4529005.7634,4265029.58367,3843.80744331,-5601.99950563,-3579.8022658,3.41072368629,5.84674704438,-5.50596541829,6758662.11723,1.08022630708,4.0077204357882885E-15,0.6830377613304707,2.9923716200222532E-15,-2.471593905353287,-0.03718896447605677,-1.4289931348888525,0.0,0.0,0.0,389282.980377,5.72022664279E-12,1097.7452932,3.41072368629,5.84674704438,-5.50596541829
840.0,-5417125.65531,-148735.916456,4038441.41394,-2405426.77194,-4854344.63194,4040500.22042,4039.38358617,-5238.41631976,-3901.62171297,3.10593503834,6.26802663725,-5.21717449618,6758662.11723,1.08460157617,3.1900286675263224E-15,0.7512133650205838,3.3656701269064537E-15,-2.471593905353287,-0.03718896447605677,-1.4289931348888525,0.0,0.0,0.0,387950.698132,6.01425775883E-12,1106.28229852,3.10593503834,6.26802663725,-5.21717449618
900.0,-5570473.01589,-485339.417195,3795318.94811,-2157662.60064,-5157127.29515,3797196.34098,4216.22838204,-4850.41563555,-4205.37577766,2.78658543362,6.66034429836,-4.90401604459,6758662.11723,1.08897684525,3.577896623855039E-15,0.8193982555570322,3.826926360464908E-15,-2.471593905353287,-0.03718896447605677,-1.4289931348888525,0.0,0.0,0.0,386599.138075,6.3126881824E-12,1114.36594672,2.78658543362,6.66034429836,-4.90401604459
960.0,-5700967.97255,-818454.602498,3534557.63056,-1899870.6489,-5435941.96416,3536244.8846,4373.51205129,-4439.79130921,-4489.64495351,2.45414859808,7.02185138673,-4.56792699599,6758662.11723,1.09335211434,2.3742214361694763E-15,0.8875923921671792,2.198353181637758E-15,-2.471593905353287,-0.03718896447605677,-1.4289931348888525,0.0,0.0,0.0,385246.980295,6.61267311836E-12,1121.96917921,2.45414859808,7.02185138673,-4.56792699599
1020.0,-5807964.78976,-1146741.697,3257366.03583,-1633247.22809,-5689487.726,3258855.30789,4510.49517421,-4008.44394013,-4753.09926035,2.11016166425,7.35083989866,-4.2104535197,6758662.11723,1.09772738343,2.056893510194604E-5,0.9557971895101968,1.1285617330354285E-6,-2.4715742045828355,-0.037189734651982026,-1.4289945767734151,1.969639675837424E-6,1.5022080172318384E-7,6.527557588994916E-8,383912.992166,6.91099941407E-12,1129.0678263,2.11016166425,7.35083989866,-4.2104535197
1080.0,-5890914.74666,-1468887.89283,2965029.65483,-1359030.21298,-5916580.68979,2966314.02071,4626.53228704,-3558.37217567,-4994.50459422,1.75621817019,7.64575092852,-3.83324412651,6758662.11723,1.10210265252,3.3272636431880926E-4,1.0240320884002159,2.0122775752562144E-5,-2.4712775067606843,-0.03720132840662932,-1.4290162941304452,7.893368023219518E-6,6.019547819804953E-7,2.6166664835717596E-7,382615.708702,7.20410831208E-12,1135.63958297,1.75621817019,7.64575092852,-3.83324412651
1140.0,-5949369.03175,-1783612.59828,2658904.96671,-1078493.30727,-6116159.59655,2659978.45374,4721.07504834,-3091.66352777,-5212.72864769,1.39396074566,7.90518247478,-3.43804224265,6758662.11723,1.10647792161,0.0010287206083258182,1.0923029400343551,6.969831496381306E-5,-2.4706244136826605,-0.03722681387628188,-1.4290641134205098,1.3817096355975751E-5,1.0534801695772029E-6,4.5832276312785084E-7,381373.114964,7.48814599554E-12,1141.66340206,1.39396074566,7.90518247478,-3.43804224265
1200.0,-5982981.22111,-2089672.52353,2340413.16932,-792940.132318,-6287290.8642,2341270.78449,4793.67495799,-2610.48474187,-5406.7463694,1.02507351745,8.12789654441,-3.02667828318,6758662.11723,1.11085319069,0.002124473959695529,1.1606094918547452,1.6453905755793837E-4,-2.4696149221373576,-0.03726611287472705,-1.4291380683633694,1.974082462185097E-5,1.5046406947795481E-6,6.55442802556256E-7,380202.336435,7.7590399177E-12,1147.11912903,1.02507351745,8.12789654441,-3.02667828318
1260.0,-5991509.32546,-2385866.58275,2011033.59675,-503698.166694,-6429173.04247,2011671.35038,4843.98561294,-2117.07176185,-5575.64493382,0.651274268517,8.31282551192,-2.6010612582,6758662.11723,1.11522845978,0.003648109019727609,1.228951425506349,3.315574800594598E-4,-2.4682490270982274,-0.037319104484856154,-1.42923821088257,2.5664552701377382E-5,1.9552805341171837E-6,8.532256102290715E-7,379119.343262,8.01259721908E-12,1151.98723184,0.651274268517,8.31282551192,-2.6010612582
1320.0,-5974817.39318,-2671040.59285,1672296.85424,-212112.564554,-6541140.65464,1672711.77894,4871.76448598,-1613.71933672,-5718.62819429,0.274306387484,8.45907769192,-2.16316994869,6758662.11723,1.11960372887,0.005655248377238959,1.2973283537023512,6.251769962623727E-4,-2.466526721863206,-0.03738562497488857,-1.4293646108139708,3.1588280378779936E-5,2.4052445016745743E-6,1.0518699744165115E-6,378138.674091,8.24461890324E-12,1156.24846939,0.274306387484,8.45907769192,-2.16316994869
1380.0,-5932876.65821,-2944091.74979,1325777.7021,80460.1180873,-6622667.40622,1325967.86694,4876.87421622,-1102.77031762,-5835.0205947,-0.104069352975,8.56594208807,-1.71504369194,6758662.11723,1.12397899796,0.00827494928534386,1.3657398091395707,0.0011732500046456504,-2.4644479980023535,-0.03746546768806704,-1.4295173555479523,3.7512007313370364E-5,2.8543782403145084E-6,1.251574611592927E-6,377273.184958,8.4510389103E-12,1159.884107,-0.104069352975,8.56594208807,-1.71504369194
1440.0,-5865766.22415,-3203972.86468,973087.721764,372658.259633,-6673368.74336,973052.241649,4859.28340212,-586.604695271,-5924.27051757,-0.482083148433,8.6328922848,-1.25877281965,6758662.11723,1.12835426705,0.011893794526809805,1.4341851972349466,0.002361132520469695,-2.4620128454276657,-0.037558382903903925,-1.4296965495651603,4.3435733011220474E-5,3.302528412931274E-6,1.4525381500289636E-6,376533.828253,8.6280865492E-12,1162.87683742,-0.482083148433,8.6328922848,-1.25877281965
1500.0,-5773673.27738,-3449696.34278,615867.798494,663121.541664,-6693003.74703,615606.838617,4819.06689047,-67.6284305421,-5985.95304931,-0.857964603813,8.65958945283,-0.796488794607,6758662.11723,1.13272953613,0.01845059430404683,1.5026634573326936,0.006126369935482818,-2.4592212524803445,-0.03766407767481837,-1.429902313869271,4.935945679741146E-5,3.749542893520582E-6,1.6549591135093866E-6,375929.466258,8.77244310478E-12,1165.21147632,-0.857964603813,8.65958945283,-0.796488794607
1560.0,-5656892.82478,-3680337.88969,255780.45603,950497.319819,-6681476.35219,255295.231438,4756.40555737,451.73786822,-6019.77214562,-1.22995122007,8.64588444371,-0.330354094469,6758662.11723,1.13710480522,2.2126863467849827,1.5701473031824065,2.197208641262231,-2.4560732059307937,-0.037782215637815364,-1.4301347853359863,5.528317778706139E-5,4.195270958275663E-6,1.859035905178312E-6,375466.723086,8.88138327436E-12,1166.8754629,-1.22995122007,8.64588444371,-0.330354094469
1620.0,-5515826.9535,-3895039.93044,-105497.920298,1233446.96624,-6638835.88436,-106205.150078,4671.58557971,969.070365641,-6025.5621838,-1.59629688217,8.59181895409,0.137448106468,6758662.11723,1.14148007431,-3.1320076809152413,1.5018684655377113,3.1321831304873644,-2.452568691065887,-0.037912416803649866,-1.4303941159503224,6.120689485862167E-5,4.639563476578649E-6,2.0649667915240674E-6,375149.878085,8.95289368481E-12,1167.85924417,-1.59629688217,8.59181895409,0.137448106468
1680.0,-5350983.61252,-4093014.72833,-466284.934963,1510652.15306,-6565276.90947,-467210.876186,4564.99719846,1481.95346136,-6003.28889111,-1.95528030342,8.497625745,0.604724404555,6758662.11723,1.1458553434,-3.1244381233023466,1.4332934161136455,3.135871109825384,-2.4487076917936896,-0.03805425732749061,-1.430680471960127,6.713060662612637E-5,5.082273101869782E-6,2.272949886549052E-6,374980.802908,8.98576118951E-12,1168.15658401,-1.95528030342,8.497625745,0.604724404555
1740.0,-5162974.91824,-4273547.19177,-824900.070469,1780821.04651,-6461138.39612,-826040.410293,4437.13297779,1987.99123664,-5953.04964202,-2.30521338067,8.36372790759,1.06928172851,6758662.11723,1.15023061249,-3.1190363946998176,1.364686919123715,3.137024885959714,-2.444490190730722,-0.038207269259338025,-1.4309940329231277,7.305431141266312E-5,5.5232544623944415E-6,2.483183136124611E-6,374958.943572,8.97962539548E-12,1167.76482406,-2.30521338067,8.36372790759,1.06928172851
1800.0,-4952514.9884,-4435997.35904,-1179672.57443,2042694.38164,-6326902.19296,-1181022.00084,4288.58556662,2484.81882823,-5875.0731203,-2.64444941491,8.19073717181,1.5289379396,6758662.11723,1.15460588158,-3.1139078278054115,1.2960502960352367,3.1375374128203233,-2.4399161692717737,-0.03837094028117758,-1.4313349906597364,7.897800722332059E-5,5.962364351950188E-6,2.695864302565808E-6,375081.347819,8.93499233768E-12,1166.68511611,-2.64444941491,8.19073717181,1.5289379396
1860.0,-4720417.31123,-4579802.552,-1528949.30741,2295051.38803,-6163190.82728,-1530501.5338,4120.04497215,2970.11367208,-5769.71834538,-2.97139115191,7.97945126077,1.98153241328,6758662.11723,1.15898115066,-3.1086709176254654,1.2273845210892533,3.1377883330472955,-2.4349856077120777,-0.03854471343139236,-1.4317035481028753,8.490169172005571E-5,6.399461920284724E-6,2.911190949412161E-6,375342.737191,8.85320905418E-12,1164.92263944,-2.97139115191,7.97945126077,1.98153241328
1920.0,-4467591.65876,-4704479.19181,-1871102.5134,2536715.53753,-5970764.63424,-1872850.30781,3932.29535744,3441.60655985,-5637.47306582,-3.28449859834,7.73085029914,2.42493654487,6758662.11723,1.16335641975,-3.103197442499285,1.158690550605767,3.137903833003073,-2.429698485421843,-0.03872798682062346,-1.4320999180553045,9.082536219499017E-5,6.83440886363349E-6,3.129360426505074E-6,375735.622232,8.7364016828E-12,1162.48681226,-3.28449859834,7.73085029914,2.42493654487
1980.0,-4195040.55576,-4809624.27078,-2204537.47528,2766560.086,-5750518.22983,-2206472.69401,3726.21137791,3897.09245199,-5478.95152616,-3.58229656936,7.4460922902,2.85706412167,6758662.11723,1.16773168884,-3.0974316027496993,1.0899693689557128,3.1379374774009046,-2.4240547808986124,-0.03892011334082355,-1.4325243218492076,9.674901554702292E-5,7.267069614838381E-6,3.350569855309617E-6,376250.45835,8.58738226833E-12,1159.39150229,-3.58229656936,7.4460922902,2.85706412167
2040.0,-3903855.31784,-4894916.4765,-2527700.0178,2983513.38179,-5503476.34364,-2529813.64338,3502.75407406,4334.44099187,-5294.89161681,-3.86338192553,7.12650768163,3.27588150415,6758662.11723,1.17210695793,-3.0914187181894794,1.0212278609132102,3.1379210903823846,-2.418133490117979,-0.03911763756697385,-1.4329710463639544,9.872843389395554E-5,7.397068317645092E-6,3.443559965476169E-6,376875.83903,8.40953146521E-12,1155.65523919,-3.86338192553,7.12650768163,3.27588150415
2100.0,-3595211.6747,-4960116.9658,-2839083.82159,3186563.91498,-5230789.03119,-2841366.00481,3262.96634031,4751.60666722,-5086.15142032,-4.12643045779,6.77359304646,3.67941755973,6758662.11723,1.17648222702,-3.0853870084381336,0.9524860018082005,3.1378839855202454,-2.4121921534803956,-0.039311163418340754,-1.4334208339594632,9.872832312506375E-5,7.376060013661285E-6,3.4711228057136326E-6,377598.722345,8.20666555465E-12,1151.30142861,-4.12643045779,6.77359304646,3.67941755973
2160.0,-3270364.9962,-5005069.78779,-3137237.51245,3374765.08257,-4933726.2884,-3139677.61834,3007.96799232,5146.63856673,-4853.70517037,-4.37020338194,6.38900391095,4.06577329389,6758662.11723,1.1808574961,-3.0793505180205276,0.8837459392997444,3.137830915730012,-2.406250677582991,-0.039499975146393605,-1.4338721569280963,9.872819615777119E-5,7.355162307492079E-6,3.4986762566033186E-6,378404.686044,7.98289658484E-12,1146.35856574,-4.37020338194,6.38900391095,4.06577329389
2220.0,-2930645.14156,-5029701.95675,-3420771.4912,3547239.64632,-4613672.09406,-3423358.14874,2738.95045726,5517.68968151,-4598.63864334,-4.59355340568,5.9745467669,4.43313112474,6758662.11723,1.18523276519,-3.073306106059592,0.8150083418088028,3.1377636517878376,-2.400309066370209,-0.039684066688382175,-1.4343249791083772,9.8728053067127E-5,7.334375181370021E-6,3.5262203515857364E-6,379278.206025,7.74249400907E-12,1140.86044225,-4.59355340568,5.9745467669,4.43313112474
2280.0,-2577450.95345,-5034023.1775,-3688364.47094,3703183.86127,-4272117.90915,-3691085.62614,2457.17111372,5863.02570399,-4322.14400536,-4.79543033435,5.53217031098,4.77976374962,6758662.11723,1.18960803428,-3.067251332585033,0.746273879721577,3.1376830974950223,-2.394367323821401,-0.03986343221909554,-1.43477926434581,9.872789392765674E-5,7.313698617597476E-6,3.5537551241188472E-6,380202.952557,7.48975504853E-12,1134.84633516,-4.79543033435,5.53217031098,4.77976374962
2340.0,-2212244.42083,-5018125.22718,-3938769.68948,3841871.25495,-3910655.66432,-3941612.66178,2163.94730996,6181.03327914,-4025.5141409,-4.97488618394,5.06395595884,5.10404255435,6758662.11723,1.19398330337,-3.0611841435188536,0.6775432224905179,3.1375895807814786,-2.3884254539508243,-0.04003806615051304,-1.4352349764998622,9.872771881336235E-5,7.2931325985291605E-6,3.5812806077478797E-6,381162.098391,7.22888930943E-12,1128.36115504,-4.97488618394,5.06395595884,5.10404255435
2400.0,-1836544.53614,-4982180.99909,-4170820.76717,3962656.0387,-3530970.2699,-4173772.30869,1860.6500908,6470.22766607,-3710.13649165,-5.13107977331,4.57210768613,5.40444551896,6758662.11723,1.19835857246,-3.05510268305246,0.6088170357754754,3.137483012548148,-2.3824834608425487,-0.04020796313093159,-1.4356920794387273,9.872752779824584E-5,7.272677106537253E-6,3.6087968360180617E-6,382138.632762,6.96392113452E-12,1121.45551427,-5.13107977331,4.57210768613,5.40444551896
2460.0,-1451920.87382,-4926443.21575,-4383437.1812,4064976.13476,-3134831.68476,-4386483.53872,1548.69766527,6729.25977126,-3377.48643729,-5.26328077062,4.05894125292,5.67956457666,6758662.11723,1.20273384154,-3.049005172433546,0.5400959785953219,3.137362973479678,-2.3765413485980984,-0.0403731180444421,-1.4361505370480527,9.872732095526193E-5,7.2523321240811916E-6,3.636303842492075E-6,383115.675292,6.69861096956E-12,1114.18564961,-5.26328077062,4.05894125292,5.67956457666
2520.0,-1059986.91893,-4851242.81987,-4575629.33029,4148355.80439,-2724086.58303,-4578756.30955,1229.54864842,6956.92251834,-3029.12025205,-5.37087317277,3.5268728718,5.9281123865,6758662.11723,1.20710911063,-3.0428898241133435,0.4713807005389156,3.1372287584979577,-2.370599121336451,-0.040533526011103965,-1.436610313227448,9.872709835719086E-5,7.2320976336378725E-6,3.663801660819868E-6,384076.783908,6.43639489124E-12,1106.6130995,-5.37087317277,3.5268728718,5.9281123865
2580.0,-662393.175639,-4756987.05301,-4746503.16519,4212407.8646,-2300649.65923,-4749696.19729,904.695111769,7152.15652278,-2666.66767347,-5.45335819984,2.978407383,6.14892848384,6758662.11723,1.21148437972,-3.0367547745339984,0.4026718390720579,3.137079393866344,-2.3646567832463954,-0.040689182385025245,-1.4370713718939763,9.872686007681286E-5,7.2119736177365486E-6,3.691290324668841E-6,385006.251149,6.18033962638E-12,1098.80399948,-5.45335819984,2.978407383,6.14892848384
2640.0,-260820.086577,-4644157.23354,-4895264.36301,4256835.4831,-1866494.61459,-4898508.57248,575.65547802,7314.05504394,-2291.82412158,-5.51035659068,2.41612600294,6.34098477708,6758662.11723,1.21585964881,-3.0305980251887963,0.33397001691775385,3.13691363506036,-2.35871433849927,-0.04084008275540987,-1.4375336769821538,9.872660618586096E-5,7.191960058993742E-6,3.7187698677063958E-6,385889.383534,5.93310923105E-12,1090.82783651,-5.51035659068,2.41612600294,6.34098477708
2700.0,143029.20478,-4513306.24645,-5021222.02541,4281433.54312,-1423644.86836,-5024502.29981,243.967296296,7441.86819104,-1906.34260862,-5.54161028942,1.84267371467,6.50339036293,6758662.11723,1.2202349179,-3.024417385951326,0.2652758395778449,3.1367299487558986,-2.3527717913536765,-0.04098622294481227,-1.4379971924509316,9.872633675589368E-5,7.172056940025971E-6,3.746240323704653E-6,386712.759104,5.69693952857E-12,1082.75552186,-5.54161028942,1.84267371467,6.50339036293
2760.0,547436.216033,-4365055.75871,-5123791.88362,4286089.57208,-974164.039852,-5127092.9441,-88.8200654075,7535.0063634,-1512.02538078,-5.54698351642,1.26074637043,6.6353956374,6758662.11723,1.22461018698,-3.018210415053604,0.19658989300124882,3.136526480488269,-2.346829146050766,-0.041127599008962866,-1.4384618822732234,9.872605185829495E-5,7.152264243519572E-6,3.7737017263833752E-6,387464.45869,5.47361785341E-12,1074.65674208,-5.54698351642,1.26074637043,6.6353956374
2820.0,950674.578557,-4200093.17523,-5202498.99515,4270784.23028,-520146.247209,-5205805.46788,-421.152773474,7593.04291018,-1110.71533498,-5.52646322134,0.673077577775,6.73639568389,6758662.11723,1.22898545607,-3.011974351943259,0.12791274142743103,3.1363010073363236,-2.340886406884049,-0.04126420723624448,-1.4389277104498677,9.872575156340157E-5,7.132581952230691E-6,3.8011541095670415E-6,388134.26706,5.26446868907E-12,1066.59675154,-5.52646322134,0.673077577775,6.73639568389
2880.0,1351017.54709,-4019168.35126,-5256979.92038,4235591.35791,-63706.2704561,-5260276.40827,-751.479890592,7615.71599841,-704.28725438,-5.48015891954,0.0824254411652,6.80593292463,6758662.11723,1.23336072516,-3.00570603808049,0.05924492544926348,3.136050873502352,-2.334943578181941,-0.04139604414699416,-1.4393946410061385,9.872543594189937E-5,7.113010048950381E-6,3.828597507080134E-6,388713.840609,5.0703496281E-12,1058.6330516,-5.48015891954,0.0824254411652,6.80593292463
2940.0,1746745.532,-3823090.07806,-5286984.36911,4180677.58104,393030.373695,-5290255.52374,-1078.26070948,7602.92968311,-294.638907134,-5.40830191683,-0.508440768804,6.84369902604,6758662.11723,1.23773599425,-2.9994018206831594,-0.009413039673696305,3.1357729052447363,-2.329000664272859,-0.04152310649297967,-1.439862637989998,9.872510506342697E-5,7.093548516539509E-6,3.856031952799492E-6,389196.838942,4.89166478687E-12,1050.81264739,-5.40830191683,-0.508440768804,6.84369902604
3000.0,2136153.61998,-3612722.35949,-5292376.31056,4106301.47935,847937.39722,-5295606.9037,-1399.97202195,7554.75417709,116.317946674,-5.31124393136,-1.09675394702,6.84953605368,6758662.11723,1.24211126334,-2.9930574326655917,-0.0780606653931427,3.135463299473582,-2.3230576695550322,-0.04164539125670123,-1.440331665480825,9.87247589974485E-5,7.07419733789385E-6,3.8834574806019585E-6,389579.018289,4.72840200403E-12,1043.17061153,-5.31124393136,-1.09675394702,6.84953605368
3060.0,2517559.04894,-3388980.49772,-5273134.54234,4012812.3205,1298897.69838,-5276309.53698,-1715.11528751,7471.4253227,526.666594845,-5.18945512471,-1.67976241572,6.82343687653,6758662.11723,1.24648653242,-2.986667840061892,-0.1466974908771571,3.135117478242623,-2.317114598374331,-0.041762895651042575,-1.4408016875806875,9.872439781307897E-5,7.054956495978988E-6,3.910874124451639E-6,389858.285387,4.5801948662E-12,1035.73039825,-5.18945512471,-1.67976241572,6.82343687653
3120.0,2889308.60313,-3152827.00713,-5229352.71723,3900648.36831,1743813.26381,-5232457.33761,-2022.22366647,7353.34327161,934.494414725,-5.04352155781,-2.25474304741,6.76554482506,6758662.11723,1.25086180151,-2.9802270449608192,-0.2153230835542271,3.134729897181876,-2.3111714551987985,-0.04187561711822368,-1.4412726684283053,9.872402157890984E-5,7.03582597381287E-6,3.938281918260281E-6,390034.7111,4.44640287045E-12,1028.50581833,-5.04352155781,-2.25474304741,6.76554482506
3180.0,3249785.89493,-2905267.37568,-5161238.82875,3770334.77393,2180614.96794,-5164258.62914,-2319.86888361,7201.07038306,1337.90187218,-4.87414209014,-2.81901418174,6.67615261189,6758662.11723,1.2552370706,-2.973727826708365,-0.2839370390795616,3.1342937916569604,-2.305228244444117,-0.041983553329277196,-1.441744572186833,9.872363036318347E-5,7.016805754483257E-6,3.965680896079259E-6,390110.503745,4.32619711232E-12,1021.50406958,-4.87414209014,-2.81901418174,6.67615261189
3240.0,3597418.50042,-2647345.69357,-5069114.15954,3622481.06096,2607272.22312,-5072035.0914,-2606.66788966,7015.32835501,1735.01143397,-4.68212474387,-3.36994827148,6.55570052779,6758662.11723,1.25961233969,-2.9671613969957877,-0.3525389805384874,3.1338008359237453,-2.2992849705608767,-0.04208670218369937,-1.4422173630595678,9.872322423361864E-5,6.997895821095361E-6,3.993071091890134E-6,390089.94273,4.21863810765E-12,1014.72898684,-4.68212474387,-3.36994827148,6.55570052779
3300.0,3930684.91648,-2380140.16912,-4953411.69894,3457778.21787,3021802.43515,-4956220.17625,-2881.28928911,6796.99460607,2123.9763506,-4.46838255712,-3.90498419548,6.40477392979,6758662.11723,1.26398760878,-2.9605169327047824,-0.42112855666080357,3.133240679743434,-2.293341638034574,-0.042185061808751916,-1.4426910052777315,9.872280325741055E-5,6.97909615684166E-6,4.0204525397442775E-6,389979.273774,4.12273655827E-12,1008.18379823,-4.46838255712,-3.90498419548,6.40477392979
3360.0,4248121.30806,-2104758.55224,-4814674.03892,3276995.41243,3422280.2197,-4817357.0012,-3142.4595046,6547.09793026,2502.98926769,-4.2339289529,-4.42163917965,6.22410004192,6758662.11723,1.26836287786,-2.9537809321078816,-0.4897054386683667,3.1326003078816353,-2.287398251368157,-0.04227863055824028,-1.443165463110944,9.872236750192885E-5,6.960406745001901E-6,4.047825273762878E-6,389786.567639,4.0374940666E-12,1001.87300306,-4.2339289529,-4.42163917965,6.22410004192
3420.0,4548328.01547,-1822333.48559,-4653550.75969,3080976.34491,3806846.33689,-4656095.73263,-3388.96864965,6266.81344962,2870.29062535,-3.97987265256,-4.91752027039,6.01454409236,6758662.11723,1.27273814695,-2.946936310543558,-0.5582693151787304,3.13186313925667,-2.28145481508203,-0.04236740701286271,-1.4436407008654766,9.872191703332157E-5,6.941827568838377E-6,4.075189328032217E-6,389521.544878,3.96192588275E-12,995.80331902,-3.97987265256,-4.91752027039,6.01454409236
3480.0,4829975.79243,-1534017.80365,-4470795.31905,2870635.25837,4173716.30259,-4473190.47225,-3619.6760832,5957.45689307,3224.17680656,-3.70741216439,-5.39033530847,5.77710481403,6758662.11723,1.27711341604,-2.939961103601679,-0.6268198843075297,3.1310077331269945,-2.275511333679141,-0.042451389978290406,-1.4441166828877439,9.872145191773669E-5,6.92335861177046E-6,4.102544736690931E-6,389195.369732,3.89507036472E-12,989.983858481,-3.70741216439,-5.39033530847,5.77710481403
3540.0,5091811.74723,-1240979.79992,-4267261.46147,2646952.62573,4521188.6371,-4269495.66324,-3833.51562167,5620.47823318,3563.00799723,-3.4178298796,-5.83790335535,5.51290933839,6758662.11723,1.28148868513,-2.9328265627773122,-0.6953568415105185,3.1300058879215045,-2.269567811714801,-0.0425305784856911,-1.4445933735608107,9.872097222079857E-5,6.904999857200066E-6,4.129891533930023E-6,388820.416842,3.83599024602E-12,984.425772496,-3.4178298796,-5.83790335535,5.51290933839
3600.0,5332664.96062,-944398.48182,-4043899.16547,2410970.53513,4847652.71354,-4045962.03427,-4029.50038567,5257.45471481,3885.2157225,-3.11248580948,-6.25816452766,5.22320751493,6758662.11723,1.28586395422,-2.925494282780946,-0.7638798607619375,3.1288197719531463,-2.263624253779225,-0.04260497179033279,-1.445070737309632,9.872047800813157E-5,6.886751288616384E-6,4.1572297539579464E-6,388410.014959,3.78376998763E-12,979.141589629,-3.11248580948,-6.25816452766,5.22320751493
3660.0,5551451.75548,-645458.833004,-3801750.14953,2163787.7958,5151596.17072,-3803632.10189,-4206.72726119,4870.08331244,4189.31002579,-2.7928109981,-6.6491892002,4.90936569081,6758662.11723,1.2902392233,-2.9179117330418185,-0.8323885648926448,3.127397458011482,-2.257680664392816,-0.04267456937106017,-1.4455487386027945,9.871996934413838E-5,6.868612889578412E-6,4.1845594309657E-6,387978.172269,3.73751229014E-12,974.144424896,-2.7928109981,-6.6491892002,4.90936569081
3720.0,5747180.5952,-345347.10215,-3541942.95901,1906554.7884,5431611.85718,-3543635.25372,-4364.3809566,4460.17265522,4473.88625938,-2.46030064639,-7.00918654134,4.57285998723,6758662.11723,1.29461449239,-2.910005052220825,-0.9008824774521893,3.1256657216455013,-2.251737048180696,-0.042739370929771,-1.4460273419507732,9.871944629339617E-5,6.850584643714959E-6,4.211880599231551E-6,387539.288378,3.69633571359E-12,969.447175251,-2.46030064639,-7.00918654134,4.57285998723
3780.0,5918956.58916,-45246.1367517,-3265687.65822,1640468.08441,5686404.27585,-3267182.43658,-4501.73763939,4029.63446069,4737.63145745,-2.11650698341,-7.33651234958,4.21526911059,6758662.11723,1.29898976148,-2.9016669277366134,-0.9693609415824161,3.1235179244072784,-2.245793409698175,-0.042799376390194405,-1.4465065119111666,9.871890892013305E-5,6.832666534689746E-6,4.239193293051218E-6,387107.858265,3.65937448086E-12,965.061769014,-2.11650698341,-7.33651234958,4.21526911059
3840.00000001,6065985.58576,253669.219936,-2974270.15348,1366764.86033,5914795.50107,-2975560.4754,-4618.16813851,3580.47451995,4979.33026473,-1.76303192131,-7.62967616384,3.8382667379,6758662.11723,1.30336503057,-2.8927351471875213,-1.0378229764222486,3.1207925692881577,-2.239849753570375,-0.04285458589806536,-1.446986213088698,9.871835728752995E-5,6.814858546253757E-6,4.2664975467029695E-6,386698.173768,3.62578091709E-12,960.998501349,-1.76303192131,-7.62967616384,3.8382667379
3900.00000001,6187577.83496,550236.651405,-2669046.17456,1086717.13305,6115730.54229,-2670126.05039,-4713.14070037,3114.78327863,5197.87039659,-1.40151953039,-7.88734762431,3.44361351674,6758662.11723,1.30774029966,-2.882952214242661,-1.1062670069377005,3.1172329211302436,-2.233906084404966,-0.042904999819204884,-1.4474664101334684,9.871779145911684E-5,6.797160662227788E-6,4.2937933945523365E-6,386324.028292,3.59473054627E-12,957.265465419,-1.40151953039,-7.88734762431,3.44361351674
3960.00000001,6283151.20459,843310.793085,-2351434.94331,801625.843487,6288282.13173,-2352299.36125,-4786.22328896,2634.72605916,5392.24760857,-1.03364837064,-8.10836206489,3.03314872114,6758662.11723,1.31211556874,-2.871883168173479,-1.1746903144590661,3.1124048310099783,-2.227962406809616,-0.04295061874004359,-1.4479470677444484,9.871721149755102E-5,6.779572866467545E-6,4.321080870929947E-6,385998.43044,3.5654295604E-12,953.86807594,-1.03364837064,-8.10836206489,3.03314872114
4020.00000001,6352233.93641,1131767.54422,-2022912.55937,512814.816126,6431654.91571,-2023557.50832,-4837.08542237,2142.53297092,5561.57015598,-0.661123715771,-8.29172532212,2.6087816048,6758662.11723,1.31649083783,-2.8587306496388822,-1.2430878006771426,3.105511807416333,-2.222018725409449,-0.04299144346587643,-1.4484281506729686,9.871661746496628E-5,6.762095142933452E-6,4.348360010253693E-6,385733.33217,3.53712414763E-12,950.808675334,-0.661123715771,-8.29172532212,2.6087816048
4080.00000001,6394466.92992,1414508.25115,-1685005.13421,221624.622359,6545189.03245,-1685427.62199,-4865.49954043,1640.48855565,5705.06272661,-0.285669705401,-8.43661774938,2.17248249371,6758662.11723,1.32086610692,-2.8418580254209105,-1.3114488000279878,3.0949181468856928,-2.216075044829586,-0.04302747502103711,-1.4489096237227193,9.87160094236708E-5,6.744727475638293E-6,4.375630846924014E-6,385539.376893,3.50911098672E-12,948.086209909,-0.285669705401,-8.43661774938,2.17248249371
4140.00000001,6409605.54408,1690463.74767,-1339281.70537,-70593.6240306,6628363.06181,-1339479.77225,-4871.34190026,1130.9212161,5822.06983233,0.0909785397676,-8.54239742886,1.72627365999,6758662.11723,1.32524137601,-2.8172921033589087,-1.379747062908005,3.0766516556031887,-2.2101313696951506,-0.04305871464732741,-1.4493914517497504,9.871538743475114E-5,6.727469848629758E-6,4.4028934153762564E-6,385425.67258,3.4807480787E-12,945.695962642,0.0909785397676,-8.54239742886,1.72627365999
4200.00000001,6397520.90908,1958598.23877,-987346.963921,-362484.510942,6680796.33552,-987319.691262,-4854.59299842,616.192476029,5912.05864751,0.467082805465,-8.60860257732,1.27222001869,6758662.11723,1.3296166451,-2.772261695466284,-1.4478974245940424,3.0379422199894606,-2.204187704648718,-0.04308516380331898,-1.4498735996607268,9.87147515596429E-5,6.710322246077713E-6,4.43014775006322E-6,385399.594481,3.45146499499E-12,943.629328929,0.467082805465,-8.60860257732,1.27222001869
4260.00000001,6358200.74227,2217913.01525,-630833.828326,-652694.583172,6702250.59907,-630581.342573,-4815.33752059,98.6861201851,5974.62128502,0.84090964078,-8.63495314499,0.81241968899,6758662.11723,1.33399191418,-2.6317050850590338,-1.5153933334369791,2.9037292820845986,-2.1982440542979584,-0.0431068241645279,-1.450356032425145,9.871410185890899E-5,6.6932846521869255E-6,4.45739388547261E-6,385466.62155,3.42077158171E-12,941.873621222,0.84090964078,-8.63495314499,0.81241968899
4320.00000001,6291749.66465,2467449.98736,-271395.898949,-939878.580496,6692631.01966,-270919.370684,-4753.76382153,-419.202737576,6009.47650283,1.21073815209,-8.6213516102,0.348994460598,6758662.11723,1.33836718327,-0.4667237161350456,-1.5510106829353665,0.7451155383173057,-2.192300423285446,-0.04312369762166935,-1.4508387150631166,9.87134383929378E-5,6.67635705123198E-6,4.4846318561095855E-6,385630.209941,3.38826430033E-12,940.411895303,1.21073815209,-8.6213516102,0.348994460598
4380.00000001,6198389.01619,2706295.02659,89300.1727204,-1222705.63058,6651986.53731,89998.5344871,-4670.16294012,-935.078609819,6016.47083678,1.57486770262,-8.56788297515,-0.115919794349,6758662.11723,1.34274245236,0.11984998171326185,-1.486737430674977,0.16493477507383014,-2.186356816236305,-0.043135786279959475,-1.4513216126558386,9.871276122124505E-5,6.659539427592179E-6,4.511861696531668E-6,385891.706265,3.35372002253E-12,939.228939146,1.57486770262,-8.56788297515,-0.115919794349
4440.00000001,6078456.17037,2933581.10581,449582.365546,-1499865.36899,6580509.55907,450499.323873,-4564.92715604,-1446.55656705,5995.57915741,1.93162548735,-8.47481397122,-0.58018272441,6758662.11723,1.34711772145,0.19752859397638298,-1.4188462377344597,0.093675880021573,-2.1804132377931102,-0.04314309245894085,-1.4518046903421047,9.871207040369554E-5,6.642831765664281E-6,4.539083441244013E-6,386250.302421,3.31725062229E-12,938.321964238,1.93162548735,-8.47481397122,-0.58018272441
4500.00000001,5932403.35046,3148491.22884,807780.986408,-1770073.95908,6478534.99924,808912.291643,-4438.54809634,-1951.27309811,5946.90465112,2.27937395415,-8.3425914847,-1.04165907831,6758662.11723,1.35149299054,0.2310369794109791,-1.3506677644856917,0.06661559762859169,-2.174469692563531,-0.04314561869108622,-1.4522879133252857,9.871136599893236E-5,6.62623404994976E-6,4.566297124873957E-6,386703.032995,3.27908327458E-12,937.68637922,2.27937395415,-8.3425914847,-1.04165907831
4560.00000001,5760795.95194,3350261.14124,1162236.3496,-2032079.98499,6346538.67133,1163576.75926,-4291.61440214,-2446.89685304,5870.67822823,2.61651804297,-8.1718402162,-1.49822822303,6758662.11723,1.35586825962,0.25166506467387595,-1.2824115962367362,0.05246575016146915,-2.16852618517269,-0.04314336772144944,-1.4527712468680938,9.87106480659476E-5,6.609746265002453E-6,4.593502781979016E-6,387244.815303,3.23951095728E-12,937.31308861,2.61651804297,-8.1718402162,-1.49822822303
4620.00000001,5564310.37755,3538181.8156,1511306.40374,-2284670.19177,6185135.04001,1512849.70691,-4124.80896706,-2931.1392229,5767.25736267,2.94151221641,-7.96335958944,-1.94779356359,6758662.11723,1.36024352871,0.26681514048882843,-1.2141267104711682,0.043825959440462005,-2.1625827202282566,-0.04313634250661824,-1.453254656294327,9.870991666251166E-5,6.59336839549837E-6,4.6207004471865235E-6,387868.53129,3.19888148299E-12,937.188585775,2.94151221641,-7.96335958944,-1.94779356359
4680.00000001,5343731.39336,3711601.70492,1853374.27225,-2526675.04725,5995074.34437,1855113.31849,-3938.90576077,-3401.76471209,5637.12437041,3.25286725589,-7.71811992707,-2.38829182891,6758662.11723,1.3646187978,0.279138288296579,-1.1458302710832282,0.03804724078380421,-2.1566393023379,-0.04312454621401617,-1.4537381069958515,9.870917184691856E-5,6.577100426113518E-6,4.6478901551587195E-6,388565.149624,3.15757683016E-12,937.294528027,3.25286725589,-7.71811992707,-2.38829182891
4740.00000001,5099949.01623,3869928.75911,2186855.67412,-2756974.1013,5777239.10612,2188782.40663,-3734.76625239,-3856.60105964,5480.88413557,3.54915679872,-7.43725791317,-2.81770218869,6758662.11723,1.36899406689,0.28981900082725104,-1.0775296269806993,0.03394740620215995,-2.1506959360918354,-0.04310798222050626,-1.4542215644273657,9.870841367606602E-5,6.560942341646082E-6,4.675071940522934E-6,389323.885482,3.11596283809E-12,937.605259995,3.54915679872,-7.43725791317,-2.81770218869
4800.00000001,4833954.94484,4012632.20032,2510206.19206,-2974501.11882,5532640.03908,2512311.685,-3513.33544997,-4293.54906743,5299.26129543,3.82902359293,-7.12207136408,-3.2340551677,6758662.11723,1.37336933598,0.2994664288123051,-1.0092282732063527,0.030919845209113464,-2.144752626080279,-0.043086654113089186,-1.4547049941151262,9.870764220720087E-5,6.544894126964056E-6,4.7022458379763145E-6,390132.394821,3.07435217165E-12,938.086179365,3.82902359293,-7.12207136408,-3.2340551677
4860.00000001,4546838.54842,4139244.05376,2821928.35603,-3178248.9641,5262411.3788,2824202.85585,-3275.63757385,-4710.59209447,5093.09689754,4.09118544736,-6.77401333066,-3.63544132469,6758662.11723,1.37774460506,0.3084262717948547,-0.9409279372783552,0.028621666012512526,-2.1388093768759946,-0.04306056568611074,-1.455188361646476,9.870685749687173E-5,6.528955766987794E-6,4.729411882216007E-6,390976.99921,3.03418000935E-12,938.781374305,4.09118544736,-6.77401333066,-3.63544132469
4920.00000001,4239782.42886,4249360.43154,3120578.51088,-3367274.215,4967805.65358,3123011.48142,-3022.77138254,-5105.8051779,4863.34454389,4.33444085595,-6.39468555705,-4.02001966409,6758662.11723,1.38211987415,0.31690970290497716,-0.8726294429956045,0.02684480807401891,-2.132866193069197,-0.04302972094178544,-1.4556716326820622,9.870605960127822E-5,6.513127246724921E-6,4.756570107956607E-6,391842.936768,2.99715450858E-12,939.756422715,4.33444085595,-6.39468555705,-4.02001966409
4980.00000001,3914057.57391,4342642.56813,3404773.43795,-3540701.48677,4650187.92029,3407353.60914,-2755.90517152,-5477.36374286,4611.06603918,4.55767427605,-5.98583132249,-4.38602574993,6758662.11723,1.38649514324,0.3250533955707426,-0.8043331141864899,0.025456059180536592,-2.126923079180289,-0.04299412408949837,-1.4561547729558353,9.870524857592182E-5,6.497408551287774E-6,4.7837205499301704E-6,392714.634271,2.96475721796E-12,941.062957605,4.55767427605,-5.98583132249,-4.38602574993
5040.00000001,3571018.12061,4418817.60653,3673196.70132,-3697727.44658,4311029.49095,3675912.12124,-2476.27146614,-5823.55186503,4337.42656198,4.75986104189,-5.54932769406,-4.73177949215,6758662.11723,1.39087041233,0.33295010130099084,-0.7360389819039096,0.024366529189313656,-2.1209800397645804,-0.04295377954353627,-1.4566377482663235,9.870442447612945E-5,6.481799665806152E-6,4.810863242903654E-6,393575.995165,2.9383651039E-12,942.74756366,4.75986104189,-5.54932769406,-4.73177949215
5100.00000001,3212095.7497,4477679.13556,3924604.69079,-3837624.50091,3951901.17771,3927442.78085,-2185.16143113,-6142.77005143,4043.68937919,4.94007189515,-5.08717722014,-5.05569257674,6758662.11723,1.39524568142,0.3406653690005789,-0.6677468991789232,0.023514991673729987,-2.115037079342474,-0.042908691923785665,-1.4571205244888494,9.870358735722807E-5,6.46630057553202E-6,4.83799822166147E-6,394410.697979,2.91929535405E-12,944.854844169,4.94007189515,-5.08717722014,-5.05569257674
5160.00000001,2838793.73354,4519087.47898,4157832.33478,-3959744.13965,3574466.08639,4160779.94782,-1883.91902024,-6433.54250685,3731.2101261,5.09747711592,-4.6014990955,-5.35627551185,6758662.11723,1.39962095051,0.3482472294288991,-0.5994566088808987,0.02285827189698956,-2.1090942024169186,-0.04285886605398756,-1.4576030675737843,9.870273727314834E-5,6.450911265787161E-6,4.865125520970577E-6,395202.499547,2.90883760332E-12,947.429232731,5.09747711592,-4.6014990955,-5.35627551185
5220.00000001,2452680.66113,4542969.73843,4371798.45793,-4063519.922,3180471.99013,4374841.93887,-1573.93489026,-6694.52385504,3401.43067591,5.23135023802,-4.09451983058,-5.63214426347,6758662.11723,1.40399621959,0.3557320837069019,-0.5311677862948193,0.022365444879014304,-2.103151413473411,-0.04280430696156285,-1.458085343544804,9.870187427851906E-5,6.435631721945714E-6,4.892245175650294E-6,395935.537425,2.90828290847E-12,950.516202765,5.23135023802,-4.09451983058,-5.63214426347
5280.00000001,2055383.86564,4549319.5926,4565510.7594,-4148470.09074,2771743.31692,4568636.0083,-1256.64010515,-6924.50528615,3055.87262399,5.34107133428,-3.56856345886,-5.8820264548,6758662.11723,1.40837148868,0.3631484385450969,-0.46288006740434434,0.022014204136659016,-2.0972087170149005,-0.04274501987551797,-1.4585673185023784,9.870099842657277E-5,6.420461929503995E-6,4.9193572205373925E-6,396594.626012,2.91894962574E-12,954.162871194,5.34107133428,-3.56856345886,-5.8820264548
5340.00000001,1648582.58078,4538196.85595,4738070.38967,-4214199.80313,2350172.78614,4741262.9268,-933.499656144,-7122.42010356,2696.13041397,5.42612985797,-3.02604131792,-6.10476710489,6758662.11723,1.41274675777,0.37051936915969075,-0.39459306872922123,0.021788524424298218,-2.0912661174570695,-0.04268101022731759,-1.4590489586237714,9.870010977089111E-5,6.4054018740106755E-6,4.946461690468646E-6,397165.541087,2.94220226063E-12,958.41769949,5.42612985797,-3.02604131792,-6.10476710489
5400.00000001,1234000.85375,4509726.80105,4888676.1051,-4260402.96815,1917712.73092,4891921.13779,-606.005825092,-7287.34864573,2323.86413382,5.48612702795,-2.46944144101,-6.29933388303,6758662.11723,1.41712202686,0.3778642055538603,-0.32630640208553496,0.02167712822558619,-2.085323619267962,-0.04261228364844102,-1.4595302301630428,9.869920836418299E-5,6.390451541101697E-6,4.973558620280823E-6,397635.287741,2.97945624016E-12,963.328798147,5.48612702795,-2.46944144101,-6.29933388303
5460.00000001,813400.243808,4464099.24923,5016627.98145,-4286863.68153,1476366.14452,5019910.47242,-275.671418609,-7418.52256082,1940.79201188,5.52077774633,-1.90131759758,-6.46482185663,6758662.11723,1.42149729595,0.38519973352418896,-0.2580196861973839,0.021672471738629084,-2.079381226845807,-0.04253884597055692,-1.4600110994580264,9.869829425898284E-5,6.375610916482813E-6,5.000648044880511E-6,397992.347058,3.0321592582E-12,968.940263737,5.52077774633,-1.90131759758,-6.46482185663
5520.00000001,388572.336006,4401567.43492,5121330.66924,-4293457.25169,1028177.49014,5124635.40604,55.9770985216,-7515.32841418,1548.68264364,5.5299120386,-1.32427802287,-6.60045771136,6758662.11723,1.42587256503,0.39254108898133844,-0.18973255640265538,0.021770081061646025,-2.0734389445713814,-0.04246070322395239,-1.460491532923352,9.869736750747598E-5,6.360879985947043E-6,5.027729999139388E-6,398226.897326,3.10173978898E-12,975.286154449,5.5299120386,-1.32427802287,-6.60045771136
5580.00000001,-38668.8987572,4322446.64981,5202296.17572,-4280150.81135,575223.314713,5205607.84101,387.406541821,-7577.31061137,1149.34698168,5.51347600736,-0.740973877866,-6.70560342383,6758662.11723,1.43024783412,0.39990246009775193,-0.12144467326884384,0.021968136354661265,-2.0674967768080075,-0.04237786163700939,-1.4609714970574244,9.869642816097512E-5,6.346258735374674E-6,5.054804517964039E-6,398331.005993,3.18951795849E-12,982.382306354,5.51347600736,-0.740973877866,-6.70560342383
5640.00000001,-466494.865928,4227112.67352,5259146.16031,-4247003.51145,119602.708288,5262449.4027,717.083988026,-7604.17362171,744.630122135,5.47153229246,-0.154087482833,-6.77975936839,6758662.11723,1.43462310321,0.40729767483609497,-0.053155730699057845,0.02226724283834366,-2.0615547279190096,-0.04229032763550662,-1.4614509584406792,9.869547627096745E-5,6.331747150698351E-6,5.081871636261049E-6,398298.78915,3.29658512187E-12,990.217249976,5.47153229246,-0.154087482833,-6.77975936839
5700.00000001,-893070.199265,4115999.99794,5291613.73233,-4194166.29559,-336572.348753,5294893.23735,1043.48376865,-7595.78349017,336.402922189,5.40426003154,0.433679631157,-6.82256684099,6758662.11723,1.4389983723,0.4147407304577159,0.015134535996198552,0.022670354265507793,-2.0556128022153497,-0.04219810784104875,-1.4619298837390728,9.869451188824207E-5,6.317345218007801E-6,5.108931388989363E-6,398126.535827,3.42367473266E-12,998.744692521,5.40426003154,0.433679631157,-6.82256684099
5760.00000001,-1316560.66962,3989599.8534,5299544.74184,-4121881.25539,-791186.707578,5302785.30284,1365.09444609,-7552.1686281,-73.4465160518,5.31195431658,1.01961880659,-6.83380998483,6758662.11723,1.44337364139,0.42224631057992734,0.08342634160878445,0.02318283359347113,-2.0496710039905386,-0.04210120907089183,-1.4624082396988471,9.869353506323897E-5,6.303052923375297E-6,5.13598381107302E-6,397812.794976,3.57106093847E-12,1007.88062989,5.31195431658,1.01961880659,-6.83380998483
5820.00000001,-1735141.11704,3848458.04486,5282898.55682,-4030480.56838,-1242131.79842,5286085.14536,1680.42574188,-7473.51987588,-483.021458885,5.19502514392,1.60102643231,-6.81341710429,6758662.11723,1.44774891047,0.4298303316385951,0.15171984165439534,0.023812651080145877,-2.0437293374857264,-0.04199963833654706,-1.462885993157001,9.86925458458746E-5,6.288870253047643E-6,5.163028937488416E-6,397358.423623,3.7385213555E-12,1017.50731979,5.19502514392,1.60102643231,-6.81341710429
5880.00000001,-2147003.37238,3693172.60724,5241748.32183,-3920385.02255,-1687315.35993,5244866.15734,1988.01538684,-7360.18983391,-890.425214539,5.0539958566,2.17521615575,-6.76146135523,6758662.11723,1.45212417956,0.4375105626772447,0.2200151215277853,0.02457073486605689,-2.037787806959516,-0.04189340284325718,-1.4633631110360545,9.869154428571628E-5,6.274797193289098E-6,5.190066803194498E-6,396766.595257,3.92538015518E-12,1027.48400002,5.0539958566,2.17521615575,-6.76146135523
5940.00000001,-2550364.1343,3524391.28931,5176280.69576,-3792102.13293,-2124671.10633,5179315.31406,2286.43586238,-7212.69146083,-1293.76982917,4.88950108006,2.73953108461,-6.67816080219,6758662.11723,1.45649944865,0.44530737080511035,0.28831218342929094,0.025471505919502733,-2.031846416618151,-0.04178250998842572,-1.4638395603475394,9.869053043215684E-5,6.260833730468641E-6,5.217097443185116E-6,396042.768155,4.13061467529E-12,1037.66151364,4.88950108006,2.73953108461,-6.67816080219
6000.00000001,-2943472.76749,3342808.87618,5086795.06833,-3646223.85764,-2552168.28866,5089732.38875,2574.30100298,-7031.69594127,-1691.18476707,4.70228415407,3.29135592625,-6.56387783486,6758662.11723,1.46087471774,0.4532446605804622,0.35661093002731026,0.02653365103659822,-2.0259051706329685,-0.04166696736179144,-1.464315308188509,9.868950433389096E-5,6.246979851077425E-6,5.2441208924715774E-6,395194.613969,4.35298276682E-12,1047.89658813,4.70228415407,3.29135592625,-6.56387783486
6060.00000001,-3324618.98799,3149164.36069,4973702.25762,-3483423.92288,-2967821.10616,4976528.64844,2850.27242952,-6818.02982845,-2080.82553658,4.49319406585,3.8281290127,-6.41911793876,6758662.11723,1.46524998683,0.46135110279046737,0.42491114330927593,0.027781218660731494,-2.019964073140399,-0.04154678274350855,-1.4647903217502631,9.868846603943881E-5,6.2332355416240515E-6,5.2711371860302774E-6,394231.907527,4.59112467507E-12,1058.06221171,4.49319406585,3.8281290127,-6.41911793876
6120.00000001,-3692140.40164,2944237.97472,4837522.69291,-3304454.76758,-3369697.92476,4840225.03469,3113.06578376,-6572.67147001,-2460.8822227,4.26318189139,4.34735415755,-6.24452781759,6758662.11723,1.46962525591,0.46966179221203774,0.49321245637207245,0.029245169329224417,-2.014023128259419,-0.04142196410344857,-1.465264568313115,9.868741559662241E-5,6.219600788774209E-6,5.298146358889975E-6,393166.379416,4.84361130426E-12,1068.05264919,4.26318189139,4.34735415755,-6.24452781759
6180.00000001,-4044429.86193,2728848.09142,4678884.08963,-3110144.12077,-3755930.25982,4681449.83629,3361.45673485,-6296.74672878,-2829.5878877,4.01329675464,4.84661229097,-6.04089286716,6758662.11723,1.474000525,0.4782205464129127,0.561514314658274,0.03096558695138964,-2.0080823400740995,-0.04129251960050212,-1.4657380152481343,9.868635305308924E-5,6.206075579211032E-6,5.3251484460968835E-6,392011.533561,5.10893581089E-12,1077.78371233,4.01329675464,4.84661229097,-6.04089286716
6240.00000001,-4379942.61426,2503848.01022,4498518.62547,-2901391.22606,-4124721.48142,4500935.86271,3594.2867292,-5991.52401358,-3185.22680065,3.74468131612,5.32357281808,-5.80913400399,6758662.11723,1.47837579409,0.48708317819164704,0.6298159211615323,0.03299487912313594,-2.0021417126161505,-0.04115845758188091,-1.466210630020638,9.868527845596318E-5,6.192659899757286E-6,5.352143482697212E-6,390782.432571,5.38546365075E-12,1087.18999397,3.74468131612,5.32357281808,-5.80913400399
6300.00000001,-4697203.19389,2270122.6363,4297259.62913,-2679162.72958,-4474355.20112,4299517.13002,3810.46845586,-5658.40863806,-3526.14245756,3.45856680525,5.77600464603,-5.55030385439,6758662.11723,1.48275106318,0.49632228026860076,0.6981161566563033,0.035402501749833996,-1.996201249917283,-0.041019786581372286,-1.4666823801919366,9.868419185201907E-5,6.179353737323002E-6,5.379131503719718E-6,389495.454263,5.67136269718E-12,1096.22083778,3.45856680525,5.77600464603,-5.55030385439
6360.00000001,-4994812.04601,2028585.06697,4076037.79533,-2444488.24916,-4803203.30081,4078125.0727,4008.99100062,-5298.93652931,-3850.74535382,3.15626761312,6.20178682501,-5.26558231304,6758662.11723,1.48712633227,0.5060344245055588,0.7664134600066577,0.03828210766657221,-1.990260955921941,-0.040876515319339356,-1.467153233415844,9.868309328785718E-5,6.166157078853117E-6,5.406112544245523E-6,388168.023264,5.96453287662E-12,1104.83630794,3.15626761312,6.20178682501,-5.26558231304
6420.00000001,-5271451.83686,1780173.09724,3835876.94211,-2198455.6443,-5109733.56495,3837784.29759,4188.92466288,-4914.7673109,-4157.52047161,2.83917546489,6.59891874888,-4.95627148337,6758662.11723,1.49150160135,0.5163513448271512,0.8347056424946642,0.04176268641783025,-1.984320834592022,-0.04072865270080102,-1.467623157442165,9.868198280920517E-5,6.153069911432194E-6,5.433086639338288E-6,386818.322156,6.26254913159E-12,1113.0038162,2.83917546489,6.59891874888,-4.95627148337
6480.00000001,-5525893.42659,1525845.65752,3577889.32859,-1942206.00776,-5392516.87992,3579607.89799,4349.42541091,-4507.67678852,-4445.03444548,2.50875319372,6.96552986174,-4.62379001531,6758662.11723,1.49587687044,0.5274579519700857,0.9029895888332716,0.04602654175771997,-1.9783808898370632,-0.040576207815431996,-1.4680921201166997,9.86808604616161E-5,6.14009222221461E-6,5.460053824079133E-6,385464.987041,6.56262603837E-12,1120.69560478,2.50875319372,6.96552986174,-4.62379001531
6540.00000002,-5757001.4749,1266579.19609,3303270.55352,-1676928.40143,-5650233.96527,3304792.3484,4489.73895208,-4079.5488692,-4711.94237066,2.16652814048,7.29988881794,-4.26966685946,6758662.11723,1.50025213953,0.5396226131026017,0.9712607544783233,0.05133953861991456,-1.9724411254793361,-0.040419189935992104,-1.4685600893864759,9.867972629046856E-5,6.127223998459461E-6,5.487014133566627E-6,384126.792817,6.86160842013E-12,1127.88702314,2.16652814048,7.29988881794,-4.26966685946
6600.00000002,-5963739.65288,1003364.01964,3013294.05716,-1403854.3599,-5881681.60392,3014612.00232,4609.2043966,-3632.36694881,-4956.9942196,1.81408520624,7.60041204429,-3.89553446009,6758662.11723,1.50462740862,0.5532506884728253,1.0395122762017883,0.058104610721455605,-1.9665015453585648,-0.04025760851762801,-1.46902703329277,9.867858034026841E-5,6.114465227495657E-6,5.513967602881892E-6,382822.333747,7.15598971722E-12,1134.55542921,1.81408520624,7.60041204429,-3.89553446009
6660.00000002,-6145175.43517,737200.604859,2709305.25092,-1124252.18709,-6085778.34074,2710413.21771,4707.25749461,-3168.20480485,-5179.04083401,1.45305958683,7.86567165523,-3.50312141305,6758662.11723,1.50900267771,0.5689852028534903,1.1077332977083987,0.06696240572159379,-1.9605621532795672,-0.04009147319700066,-1.4694929199780868,9.867742265552159E-5,6.101815896739376E-6,5.54091426714095E-6,381569.705136,7.44195810878E-12,1140.67952686,1.45305958683,7.86567165523,-3.50312141305
6720.00000002,-6300484.4489,469095.894289,2392715.30112,-839421.071709,-6261569.62072,2393608.13634,4783.43342878,-2689.21703502,-5377.03946085,1.0851292214,8.0944026738,-3.09424461794,6758662.11723,1.51337794679,0.5879112793675972,1.175905564063692,0.0789956948125045,-1.954622952942441,-0.03992079379088896,-1.469957717686161,9.867625328003584E-5,6.08927599371151E-6,5.567854161459825E-6,380386.192012,7.71546883982E-12,1146.23897034,1.0851292214,8.0944026738,-3.09424461794
6780.00000002,-6428954.35731,200059.58982,2064994.59522,-550685.049096,-6408232.34096,2065668.14547,4837.36914588,-2197.62908436,-5550.05880334,0.71200698895,8.28550951414,-2.67080095753,6758662.11723,1.51775321588,0.6120144884335403,1.2439957684374576,0.09618769887617361,-1.9486839480821911,-0.039745580295666195,-1.4704213947619558,9.867507225761891E-5,6.076845506020224E-6,5.594787320954542E-6,379287.970735,7.97233944067E-12,1151.21408929,0.71200698895,8.28550951414,-2.67080095753
6840.00000002,-6529988.25818,-68899.5431589,1727665.9203,-259386.837224,-6525078.79305,1728117.05171,4868.80521362,-1695.72690678,-5697.28355922,0.335432689132,8.43807168389,-2.23475854054,6758662.11723,1.52212848497,0.645354525578228,1.311935881195871,0.12259574445646841,-1.9427451423291024,-0.03956584288642737,-1.4708839196499177,9.867387963120592E-5,6.0645244213784E-6,5.621713780741125E-6,378289.829283,8.20836158832E-12,1155.58556369,0.335432689132,8.43807168389,-2.23475854054
6900.00000002,-6603107.57911,-336777.347722,1382297.38536,33118.42411,-6611559.97539,1382523.99857,4877.58719077,-1185.84630873,-5818.01842161,-0.0428351543324,8.55134866875,-1.78814754743,6758662.11723,1.52650375406,0.697696286683254,1.3795618724334158,0.16798231761472762,-1.9368065392960063,-0.039381591915418436,-1.4713452608992146,9.867267544355744E-5,6.052312727568732E-6,5.648633575953054E-6,377404.91173,8.41943450714E-12,1159.33446243,-0.0428351543324,8.55134866875,-1.78814754743
6960.00000002,-6647954.45414,-602577.910513,1030495.12036,325469.50147,-6667268.25785,1030496.16065,4863.66650119,-670.362025153,-5911.69151973,-0.421027627629,8.62478396499,-1.33305072162,6758662.11723,1.53087902315,0.7995870448230753,1.4463551834717303,0.2628922193782311,-1.9308681425608276,-0.03919283791168714,-1.4718053871654782,9.867145973708494E-5,6.040210412478636E-6,5.675546741741259E-6,376644.492032,8.60172604119E-12,1162.44313616,-0.421027627629,8.62478396499,-1.33305072162
7020.00000002,-6664293.56828,-865317.147179,673895.786178,616305.433341,-6691939.38418,673671.248721,4827.10080469,-151.676579898,-5977.85727953,-0.797373856485,8.65800823011,-0.87159355173,6758662.11723,1.53525429223,1.1076746792581649,1.5095199715600685,0.5639707729680499,-1.9249299556491317,-0.03899959157986139,-1.4722642672038235,9.86702325538509E-5,6.028217464065339E-6,5.702453313256671E-6,376017.781688,8.75183116957E-12,1164.89595985,-0.797373856485,8.65800823011,-0.87159355173
7080.00000002,-6652013.45928,-1124026.32552,314158.930759,904271.902733,-6685453.80103,313709.861003,4768.05386036,367.791015859,-6016.19868723,-1.17010948845,8.65084152626,-0.40593419288,6758662.11723,1.53962956132,2.5847335644362017,1.5336604870824062,2.0339896901723917,-1.9189919820166705,-0.03880186379910201,-1.4727218698775775,9.866899393504507E-5,6.01633387044315E-6,5.729353325632767E-6,375531.775242,8.86691647642E-12,1166.6798577,-1.17010948845,8.65084152626,-0.40593419288
7140.00000002,-6611127.26811,-1377755.514,-47040.7722015,1188027.5863,-6647837.30532,-47712.2831346,4686.79488046,885.616672054,-6026.52894159,-1.53748518371,8.60329463603,0.0617468224194,6758662.11723,1.54400483041,-2.96179927284614,1.4793685354651018,2.7635685118281024,-1.9130542251017424,-0.038599665622230106,-1.4731781641582762,9.866774392220628E-5,6.0045596197263776E-6,5.7562468140379325E-6,375191.136803,8.94484299954E-12,1167.78470353,-1.53748518371,8.60329463603,0.0617468224194
7200.00000002,-6541772.93253,-1625576.94368,-408021.365155,1466250.44943,-6579261.00527,-408912.189932,4583.69737574,1399.38267889,-6008.79248375,-1.89777506955,8.51556943547,0.529257031084,6758662.11723,1.5483800995,-2.796852797620297,1.4136498359448302,2.9214047092557878,-1.9071166882902861,-0.03839300827485435,-1.4736331191186856,9.866648255582617E-5,5.99289470020386E-6,5.783133813605645E-6,374998.12994,8.9842599549E-12,1168.20364042,-1.89777506955,8.51556943547,0.529257031084
7260.00000002,-6444212.82066,-1866588.27181,-767101.491529,1737643.95686,-6480040.59386,-768207.480951,4459.2374957,1906.68915984,-5963.065397,-2.24928511305,8.38805831438,0.994402589679,6758662.11723,1.55275536859,-2.725897602027369,1.3463258116295793,2.9852098643486733,-1.9011793748984276,-0.038181903154323814,-1.4740867039432723,9.866520987639638E-5,5.981339100234253E-6,5.810014359539196E-6,374952.592411,8.98466344125E-12,1167.93334832,-2.24928511305,8.38805831438,0.994402589679
7320.00000002,-6318832.80419,-2099915.73594,-1122608.28559,2000943.16874,-6350634.93669,-1123924.28773,4313.9918701,2405.16546115,-5889.55517172,-2.59036136654,8.22134263981,1.4549988722,6758662.11723,1.55713063767,-2.6846298529349584,1.278504187492103,3.019284462435854,-1.8952422882248388,-0.03796636182815719,-1.474538887928204,9.866392592371041E-5,5.96989280822857E-6,5.836888486972062E-6,375051.956216,8.94641660286E-12,1166.97428052,-2.59036136654,8.22134263981,1.4549988722
7380.00000002,-6166140.77344,-2324717.18776,-1472885.22918,2254920.69242,-6191643.97977,-1474405.11325,4148.63496067,2892.48142049,-5788.59983449,-2.91939804043,8.01619026441,1.9088810586,6758662.11723,1.56150590676,-2.6563492548216185,1.2104667618696814,3.0403252026133174,-1.889305431498379,-0.03774639603456637,-1.474989640470878,9.866263073756179E-5,5.958555812772356E-6,5.8637562310726295E-6,375291.312517,8.87073052875E-12,1165.33088326,-2.91939804043,8.01619026441,1.9088810586
