time,gePosition_m_X,gePosition_m_Y,gePosition_m_Z,eiPosition_m_X,eiPosition_m_Y,eiPosition_m_Z,eiVelocity_m_s_X,eiVelocity_m_s_Y,eiVelocity_m_s_Z,eiAccel_m_s2_X,eiAccel_m_s2_Y,eiAccel_m_s2_Z,semiMajorAxis_m,gast_rad,eulerAngle_rad_Roll,eulerAngle_rad_Pitch,eulerAngle_rad_Yaw,eulerAngleWrtEi_rad_Roll,eulerAngleWrtEi_rad_Pitch,eulerAngleWrtEi_rad_Yaw,bodyAngularRateWrtEi_rad_s_Roll,bodyAngularRateWrtEi_rad_s_Pitch,bodyAngularRateWrtEi_rad_s_Yaw,altitudeMsl_m,airDensity_kg_m3,ambientTemperature_dgK,eiGravitation_m_s2_X,eiGravitation_m_s2_Y,eiGravitation_m_s2_Z
0.0,-1428622.31112709,4163200.4655738,5136049.67204027,-4292653.41,955168.47,5139356.57,109.649663,-7527.72649,1484.521489,5.5289865693572,-1.23026788740987,-6.61954989994585,6758662.11722884,1.02331944621101,-1.0E-16,-0.202458193231342,2.0E-16,-2.4715939053549,-0.0371889644761342,-1.42899313488854,0.0,0.0,0.0,398252.763838142,3.1122E-12,976.192653674721,5.5289865693572,-1.23026788740987,-6.61954989994585
60.0,-1789712.64876688,3920255.3134273,5213136.60397904,-4276130.76360613,501640.15063872,5216447.94770978,440.899504425955,-7584.04304560366,1084.18939672292,5.50841669093322,-0.646201702281534,-6.71971240615587,6758662.11722887,1.02769471546425,-4.0E-16,-0.134388046685342,-0.0,-2.4715939053549,-0.0371889644761342,-1.42899313488854,0.0,0.0,0.0,398335.161468169,3.2024E-12,983.369143358291,5.50841669093322,-0.646201702281534,-6.71971240615587
120.0,-2144732.0333194,3662345.3126043,5266057.24088062,-4239785.46485071,45786.449266332,5269357.68010073,770.149856360686,-7605.20775889381,678.777242699508,5.46236021841803,-0.0589893241270332,-6.78881750197499,6758662.11722883,1.0320699847175,-3.0E-16,-0.0663117980950796,6.0E-16,-2.4715939053549,-0.0371889644761342,-1.42899313488854,0.0,0.0,0.0,398280.483168024,3.312E-12,991.275655191297,5.46236021841803,-0.0589893241270332,-6.78881750197499
180.0,-2492166.12299056,3390599.0029,5294562.85672707,-4183783.25764152,-410279.480789291,5297837.08956815,1095.87688042975,-7591.11290731489,270.159254331849,5.39101509822693,0.52866574084301,-6.82652947798943,6758662.11722882,1.03644525395931,-2.9E-15,0.0017710140289967,4.0E-16,-2.4715939053549,-0.0371889644761342,-1.42899313488854,0.0,0.0,0.0,398085.3786748,3.4417E-12,999.861374013802,5.39101509822693,0.52866574084301,-6.82652947798943
240.0,-2830524.93283794,3106195.85223943,5298517.62697299,-4108380.89026465,-864442.894077516,5301750.47079899,1416.5720940025,-7541.81319429643,-139.77448384783,5.29469509567264,1.11405482451904,-6.83265572642931,6758662.11722884,1.04082052320969,-1.7E-15,0.0698608210031735,1.0E-16,-2.4715939053549,-0.0371889644761342,-1.42899313488854,0.0,0.0,0.0,397748.768104346,3.5916E-12,1009.03826093396,5.29469509567264,1.11405482451904,-6.83265572642931
300.0,-3158349.27068251,2810361.12607352,5277899.32207647,-4013924.98616908,-1314597.20057467,5281075.78379538,1730.74928789973,-7457.52569377281,-549.126655787512,5.17382866282785,1.69447627941292,-6.80714795491088,6758662.11722881,1.04519579246293,-3.7E-15,0.137958021963569,-3.0E-16,-2.4715939053549,-0.0371889644761342,-1.42899313488854,0.0,0.0,0.0,397271.883714379,3.7614E-12,1018.68603174665,5.17382866282785,1.69447627941292,-6.80714795491088
360.0,-3474217.0876188,2504360.59818322,5232799.48200484,-3900850.50203112,-1758653.68795,5235904.82755069,2036.95136094463,-7338.62906255864,-956.00139364551,5.02895729882105,2.26724769265305,-6.75010277495461,6758662.1172288,1.04957106170188,-3.0E-15,0.206062982002844,-7.0E-16,-2.4715939053549,-0.0371889644761342,-1.42899313488854,0.0,0.0,0.0,396658.271816294,3.9505E-12,1028.66356558606,5.02895729882105,2.26724769265305,-6.75010277495461
420.0,-3776749.7157209,2189495.1251204,5163423.06959608,-3769678.77900142,-2194551.17459278,5166442.89226163,2333.75704093037,-7185.6620201973,-1358.5129738363,4.86073340379137,2.82971808104516,-6.66176165594907,6758662.11722882,1.05394633095227,-2.0E-15,0.274176030459355,-6.0E-16,-2.4715939053549,-0.0371889644761342,-1.42899313488854,0.0,0.0,0.0,395913.754633969,4.1579E-12,1038.82359594937,4.86073340379137,2.82971808104516,-6.66176165594907
480.0,-4064617.96585945,1867095.10630415,5070087.60293968,-3621015.19485927,-2620265.54951359,5073007.89024476,2619.7874617098,-6999.32109896086,-1754.79449109399,4.66991762971392,3.37928001560926,-6.54251023745084,6758662.11722886,1.05832160020265,-7.0E-16,0.342297459366943,-6.0E-16,-2.4715939053549,-0.0371889644761342,-1.42899313488854,0.0,0.0,0.0,395046.352534709,4.3822E-12,1049.02643605174,4.66991762971392,3.37928001560926,-6.54251023745084
540.0,-4336548.05765017,1538514.85367808,4953221.76924825,-3455546.42660972,-3033819.1554875,4956028.9680342,2893.71256636816,-6780.45766980691,-2143.00647189947,4.45737573340151,3.91338162296548,-6.39287699509342,6758662.11722893,1.06269686945303,-1.4E-15,0.410427522072939,-4.0E-16,-2.4715939053549,-0.0371889644761342,-1.42899313488854,0.0,0.0,0.0,394066.16768517,4.6222E-12,1059.14947100887,4.45737573340151,3.91338162296548,-6.39287699509342
600.0,-4591327.35512146,1205126.89368974,4813363.52501608,-3274037.3348504,-3433289.97224998,4816044.60446428,3154.25730682291,-6530.07425328215,-2521.34538840932,4.22407493918389,4.42953841007283,-6.21353125792587,6758662.11722894,1.06707213870913,-2.4E-15,0.478566432031261,-3.0E-16,-2.4715939053549,-0.0371889644761342,-1.42899313488854,0.0,0.0,0.0,392985.230809613,4.8764E-12,1069.09131825969,4.22407493918389,4.42953841007283,-6.21353125792587
660.0,-4827809.88150349,868316.225201669,4651157.68959356,-3077327.48299947,-3816820.55719276,4653700.20187414,3400.20761071366,-6249.32012759414,-2888.05203397396,3.97107982105512,4.92534485815692,-6.00528057770761,6758662.11722897,1.0714474079538,1.5E-15,0.546714361776741,1.6E-15,-2.4715939053549,-0.0371889644761342,-1.42899313488854,0.0,0.0,0.0,391817.313344238,5.1433E-12,1078.7715032867,3.97107982105512,4.92534485815692,-6.00528057770761
720.0,-5044921.58717981,529474.557546531,4467353.04163684,-2866327.30620534,-4182626.70183817,4469745.17990409,3630.41608710307,-5939.48624933574,-3241.41972144966,3.69954771645439,5.39848573122372,-5.76906745354871,6758662.11722898,1.07582267720419,2.0E-15,0.614871442086113,2.0E-16,-2.4715939053549,-0.0371889644761342,-1.42899313488854,0.0,0.0,0.0,390577.707881745,5.4213E-12,1088.12741165133,3.69954771645439,5.39848573122372,-5.76906745354871
780.0,-5241665.34592555,189994.551533034,4262798.93021112,-2642013.94644413,-4529005.76339734,4265029.58367307,3843.80744331259,-5601.99950563094,-3579.80226580135,3.41072368629182,5.84674704437561,-5.50596541829295,6758662.11722894,1.08019794645171,-1.9E-15,0.683037761330207,-9.0E-16,-2.4715939053549,-0.0371889644761342,-1.42899313488854,0.0,0.0,0.0,389282.980377661,5.7085E-12,1097.11022049672,3.41072368629182,5.84674704437561,-5.50596541829295
840.0,-5417125.65492679,-148735.911961008,4038441.41462094,-2405426.77194363,-4854344.63194301,4040500.22042338,4039.38358616868,-5238.41631975528,-3901.62171297128,3.10593503833543,6.26802663725425,-5.21717449618087,6758662.11722895,1.08457321569067,-2.3E-15,0.751213365021107,-1.7E-15,-2.4715939053549,-0.0371889644761342,-1.42899313488854,0.0,0.0,0.0,387950.698134415,6.0029E-12,1105.68096071401,3.10593503833543,6.26802663725425,-5.21717449618087
900.0,-5570473.01547434,-485339.412664834,3795318.94930193,-2157662.60064381,-5157127.29514867,3797196.34098099,4216.22838203827,-4850.41563555375,-4205.37577765728,2.7865854336178,6.66034429835598,-4.90401604458787,6758662.11722896,1.08894848494105,-1.9E-15,0.819398255557184,-1.7E-15,-2.4715939053549,-0.0371889644761342,-1.42899313488854,0.0,0.0,0.0,386599.138079688,6.3018E-12,1113.80733938154,2.7865854336178,6.66034429835598,-4.90401604458787
960.0,-5700967.97210349,-818454.597994031,3534557.63232429,-1899870.64890394,-5435941.96416277,3536244.88459677,4373.51205128819,-4439.79130921346,-4489.6449535128,2.45414859808208,7.02185138672565,-4.56792699598511,6758662.11722897,1.09332375419143,-1.8E-15,0.887592392167968,2.0E-16,-2.4715939053549,-0.0371889644761342,-1.42899313488854,0.0,0.0,0.0,385246.980300878,6.6025E-12,1121.46132185438,2.45414859808208,7.02185138672565,-4.56792699598511
1020.0,-5807964.78929802,-1146741.69255305,3257366.0382143,-1633247.22808712,-5689487.72599526,3258855.3078914,4510.49517421355,-4008.44394012615,-4753.09926035203,2.11016166424597,7.35083989865653,-4.21045351969828,6758662.117229,1.09769902344753,2.06721668879E-5,0.955797197030904,1.1342259632E-6,-2.47157410571428,-0.0371897385172618,-1.42899458400996,1.9745761161E-6,1.505972901E-7,6.543918E-8,383912.992172884,6.9017E-12,1128.61758947139,2.11016166424597,7.35083989865653,-4.21045351969828
1080.0,-5890914.74618771,-1468887.88854309,2965029.65788749,-1359030.21298398,-5916580.68979203,2966314.02071485,4626.53228704321,-3558.37217567435,-4994.50459422186,1.75621817019126,7.64575092852467,-3.83324412651147,6758662.11722893,1.10207429269791,3.331426745419E-4,1.0240321185023,2.01479667464E-5,-2.47127711088567,-0.0372013438690161,-1.42901632311057,7.8983044635E-6,6.023311617E-7,2.618303905E-7,382615.708710365,7.1959E-12,1135.25254461002,1.75621817019126,7.64575092852467,-3.83324412651147
1140.0,-5949369.0312497,-1783612.5943091,2658904.97049029,-1078493.30727021,-6116159.59655273,2659978.45373574,4721.07504834272,-3091.66352777368,-5212.72864769034,1.39396074566216,7.90518247477936,-3.43804224265412,6758662.11722895,1.10644956193401,0.0010294558790878,1.09230299269476,6.97482114305E-5,-2.47062372081708,-0.0372268408883504,-1.4290641641622,1.38220327962E-5,1.0538563103E-6,4.584868091E-7,381373.114973407,7.4812E-12,1141.34373969863,1.39396074566216,7.90518247477936,-3.43804224265412
1200.0,-5982981.22062771,-2089672.51982012,2340413.17385551,-792940.132318386,-6287290.86420417,2341270.7844855,4793.67495799488,-2610.48474187409,-5406.74636939725,1.02507351744905,8.12789654441039,-3.02667828318415,6758662.11722899,1.11082483119011,0.0021255368649086,1.16060956702659,1.646216494906E-4,-2.46961393226247,-0.037266151353652,-1.42913814090548,1.97457610621E-5,1.5050164664E-6,6.55607318E-7,380202.336445099,7.7535E-12,1146.86955458213,1.02507351744905,8.12789654441039,-3.02667828318415
1260.0,-5991509.32500534,-2385866.5794125,2011033.60207702,-503698.16669436,-6429173.042467,2011671.35038273,4843.98561293818,-2117.07176184575,-5575.64493381733,0.651274268517162,8.31282551191723,-2.60106125820466,6758662.11722899,1.11520010044049,0.0036495132818526,1.22895152312348,3.316858170687E-4,-2.46824774022362,-0.0373191543119353,-1.42923830527348,2.56694891414E-5,1.955655807E-6,8.533907609E-7,379119.343271715,8.0086E-12,1151.80897714089,0.651274268517162,8.31282551191723,-2.60106125820466
1320.0,-5974817.39272324,-2671040.59001858,1672296.86038922,-212112.56455431,-6541140.6546351,1672711.77894476,4871.76448597512,-1613.71933672153,-5718.62819429269,0.274306387483965,8.45907769192004,-2.16316994869345,6758662.117229,1.11957536967945,0.0056570178538523,1.29732847367434,6.253742660494E-4,-2.46652513797388,-0.037385685995881,-1.42936472711963,3.15932168182E-5,2.4056191468E-6,1.0520359259E-6,378138.674100816,8.2422E-12,1156.14131746527,0.274306387483965,8.45907769192004,-2.16316994869345
1380.0,-5932876.65781449,-2944091.74744898,1325777.70908434,80460.1180872135,-6622667.40621776,1325967.86694114,4876.8742162195,-1102.7703176167,-5835.02059469547,-0.104069352975052,8.56594208806799,-1.715043691941,6758662.11722896,1.12395063893269,0.0082771315868734,1.36573995134436,0.0011735631428868,-2.46444611709056,-0.037465539712756,-1.42951749384939,3.7516943752E-5,2.8547521295E-6,1.2517415295E-6,377273.184967215,8.4502E-12,1159.84640445432,-0.104069352975052,8.56594208806799,-1.715043691941
1440.0,-5865766.22382437,-3203972.86290322,973087.729604974,372658.259632584,-6673368.74335871,973052.241648627,4859.28340212075,-586.604695271457,-5924.27051757402,-0.482083148432695,8.63289228480459,-1.25877281964979,6758662.11722899,1.12832590818593,0.011896509040355,1.43418536149545,0.0023616802269078,-2.46201066749623,-0.0375584657062592,-1.42969670995558,4.34406694487E-5,3.3029014188E-6,1.4527061998E-6,376533.828260442,8.6288E-12,1162.90556110442,-0.482083148432695,8.63289228480459,-1.25877281964979
1500.0,-5773673.27712897,-3449696.34164391,615867.807197708,663121.541664056,-6693003.74702991,615606.838616801,4819.06689047301,-67.6284305422186,-5985.9530493058,-0.857964603812728,8.65958945282898,-0.796488794607543,6758662.11722899,1.13270117743631,0.0184543255818289,1.50266364326058,0.0061276360546557,-2.45921877750906,-0.037664170992597,-1.429902496457,4.93643932329E-5,3.74991489E-6,1.6551284606E-6,375929.466263016,8.7746E-12,1165.30237071448,-0.857964603812728,8.65958945282898,-0.796488794607543
1560.0,-5656892.82461752,-3680337.88927615,255780.465598208,950497.319819383,-6681476.35218847,255295.231437642,4756.40555737188,451.73786822014,-6019.77214561535,-1.22995122006623,8.64588444371375,-0.330354094468689,6758662.11722897,1.13707644668384,2.21286218972563,1.57014710312553,2.19738171994866,-2.4560704339028,-0.0377823191724091,-1.4301349902403,5.52881142198E-5,4.1956418203E-6,1.8592067148E-6,375466.723088685,8.8849E-12,1167.02323326331,-1.22995122006623,8.64588444371375,-0.330354094468689
1620.0,-5515826.95340565,-3895039.9308628,-105497.909872624,1233446.96624131,-6638835.88436154,-106205.150077749,4671.58557970746,969.070365641116,-6025.56218379897,-1.59629688216489,8.5918189540851,0.137448106468298,6758662.11722896,1.14145171592279,-3.13200614819402,1.50186823455135,3.1321815990989,-2.45256562197645,-0.0379125302203665,-1.43039434330467,6.12118312875E-5,4.6399330806E-6,2.0651392289E-6,375149.878083675,8.9577E-12,1168.05779321931,-1.59629688216489,8.5918189540851,0.137448106468298
1680.0,-5350983.61257858,-4093014.72954424,-466284.923695406,1510652.1530577,-6565276.90947246,-467210.876185622,4564.99719846212,1481.95346135839,-6003.28889111467,-1.95528030341496,8.49762574499596,0.604724404554614,6758662.11722895,1.14582698517889,-3.12443561935624,1.43329316397758,3.13587024898811,-2.4487043256343,-0.0380543802546164,-1.43068072190903,6.713554305E-5,5.0826413259E-6,2.2731241167E-6,374980.802903324,8.9916E-12,1168.39927877386,-1.95528030341496,8.49762574499596,0.604724404554614
1740.0,-5162974.91843944,-4273547.19386603,-824900.058379691,1780821.04650638,-6461138.39612124,-826040.410293359,4437.13297779464,1987.99123663926,-5953.04964202478,-2.30521338066818,8.36372790758928,1.0692817285131,6758662.11722893,1.15020225442927,-3.11903336537129,1.36468664582317,3.13702424896764,-2.44448652747673,-0.0382074012884424,-1.43099430562165,7.30592478299E-5,5.5236211862E-6,2.4833593239E-6,374958.943562422,8.9864E-12,1168.04477903315,-2.30521338066818,8.36372790758928,1.0692817285131
1800.0,-4952514.98876372,-4435997.36205582,-1179672.56155015,2042694.38163965,-6326902.19296386,-1181022.00083517,4288.58556662327,2484.81882823115,-5875.07312029932,-2.64444941490613,8.1907371718141,1.52893793960155,6758662.11722894,1.15457752367966,-3.1139043861032,1.29605000175364,3.13753688573327,-2.43991220890222,-0.0383710809668286,-1.43133528627158,7.89829436322E-5,5.9627294571E-6,2.6960426126E-6,375081.347804565,8.9425E-12,1166.99547821383,-2.64444941490613,8.1907371718141,1.52893793960155
1860.0,-4720417.31177547,-4579802.55599024,-1528949.29377129,2295051.38802784,-6163190.82727827,-1530501.53379618,4120.04497214574,2970.11367207645,-5769.71834537809,-2.97139115191287,7.97945126076767,1.9815324132759,6758662.11722897,1.15895279293004,-3.10866710873336,1.22738420607127,3.13778786967941,-2.43498135022115,-0.0385448622908887,-1.43170386680178,8.49066281183E-5,6.3998252904E-6,2.9113715464E-6,375342.73717172,8.8612E-12,1165.25686060381,-2.97139115191287,7.97945126076767,1.9815324132759
1920.0,-4467591.65945038,-4704479.19686224,-1871102.49905694,2536715.53752901,-5970764.63423897,-1872850.30780825,3932.29535743579,3441.6065598536,-5637.47306582436,-3.28449859833492,7.73085029914256,2.4249365448675,6758662.11722899,1.16332806216899,-3.10319328880765,1.15869021513451,3.13790340987749,-2.42969393078196,-0.0387281433333489,-1.43210026002357,9.08302985804E-5,6.8347703847E-6,3.1295434747E-6,375735.622207122,8.7448E-12,1162.83889605431,-3.28449859833492,7.73085029914256,2.4249365448675
1980.0,-4195040.55666981,-4809624.27685717,-2204537.46028362,2766560.08600013,-5750518.22982524,-2206472.69401429,3726.21137791165,3897.09245199399,-5478.95152615822,-3.58229656936021,7.4460922902021,2.85706412166967,6758662.117229,1.16770333142223,-3.09742711676963,1.08996901334457,3.13793708084965,-2.42404992911022,-0.0389202769485951,-1.43252468727214,9.67539519167E-5,7.267429175E-6,3.350755519E-6,376250.458318801,8.596E-12,1159.75621270568,-3.58229656936021,7.4460922902021,2.85706412166967
2040.0,-3903855.31899984,-4894916.48363007,-2527700.00220742,2983513.3817907,-5503476.34364012,-2529813.64337879,3502.75407406107,4334.44099186723,-5294.89161680589,-3.86338192552636,7.12650768163134,3.27588150414579,6758662.11722902,1.17207860067547,-3.09141409280911,1.02122750016102,3.13792072563465,-2.41812853905534,-0.0391178007993633,-1.43297142053824,9.87284338085E-5,7.3970507647E-6,3.4435829384E-6,376875.838993535,8.4182E-12,1156.02826133882,-3.86338192552636,7.12650768163134,3.27588150414579
2100.0,-3595211.67602848,-4960116.97407085,-2839083.80546986,3186563.91497868,-5230789.03119491,-2841366.00480917,3262.96634031037,4751.60666722407,-5086.15142031892,-4.1264304577897,6.77359304645847,3.67941755972944,6758662.11722901,1.17645386991157,-3.08538234473496,0.952485643338724,3.13788365084457,-2.41218720231379,-0.0393113227248292,-1.43342120942759,9.8728323026E-5,7.3760425529E-6,3.4711457708E-6,377598.722302018,8.2153E-12,1151.67947389085,-4.1264304577897,6.77359304645847,3.67941755972944
2160.0,-3270364.99776836,-5005069.79715692,-3137237.49586789,3374765.08257431,-4933726.28839849,-3139677.61834287,3007.96799231993,5146.63856673043,-4853.70517037444,-4.37020338193555,6.38900391094964,4.06577329388592,6758662.11722906,1.1808291391591,-3.07934582231293,0.883745583135617,3.13783060439198,-2.40624572630275,-0.0395001305218542,-1.4338725336611,9.87281960452E-5,7.3551449388E-6,3.4986992139E-6,378404.685995256,7.9915E-12,1146.73941664901,-4.37020338193555,6.38900391094964,4.06577329388592
2220.0,-2930645.14339684,-5029701.96720964,-3420771.47425171,3547239.64632245,-4613672.0940596,-3423358.14874461,2738.95045725709,5517.68968150628,-4598.63864334116,-4.59355340567688,5.97454676689681,4.43313112473822,6758662.11722905,1.18520440840948,-3.07330138283899,0.815007987976787,3.13776335882892,-2.40030411497191,-0.0396842181279106,-1.43432535707562,9.87280529412E-5,7.3343579049E-6,3.5262433011E-6,379278.20597086,7.751E-12,1141.24293547986,-4.59355340567688,5.97454676689681,4.43313112473822
2280.0,-2577450.95559301,-5034023.1890373,-3688364.4536949,3703183.8612728,-4272117.90914548,-3691085.62614034,2457.17111372191,5863.02570398799,-4322.14400535768,-4.79543033434893,5.53217031097946,4.77976374961544,6758662.11722905,1.18957967766558,-3.06724658514988,0.74627352824466,3.13768281915913,-2.39436237231013,-0.0398635797180086,-1.4347796435177,9.87278937883E-5,7.3136814332E-6,3.5537780659E-6,380202.952497485,7.4981E-12,1135.23028469051,-4.79543033434893,5.53217031097946,4.77976374961544
2340.0,-2212244.42325245,-5018125.2398008,-3938769.67204942,3841871.25494627,-3910655.66432023,-3941612.66178343,2163.94730996203,6181.03327914375,-4025.51414089648,-4.97488618394351,5.06395595884157,5.10404255434567,6758662.11722905,1.1939549469131,-3.06117937431125,0.677542873396283,3.13758931410409,-2.38842050234438,-0.0400382097041709,-1.43523535684504,9.87277186609E-5,7.2931155063E-6,3.5813035418E-6,381162.098326338,7.2371E-12,1128.74722066978,-4.97488618394351,5.06395595884157,5.10404255434567
2400.0,-1836544.53879732,-4982181.01278231,-4170820.74964127,3962656.0386994,-3530970.26989712,-4173772.30869328,1860.65009079793,6470.22766607027,-3710.13649165393,-5.13107977330633,4.57210768612703,5.40444551895833,6758662.11722903,1.19833021615206,-3.0550978939006,0.608816689089388,3.13748275512136,-2.38247850913849,-0.0402081027349162,-1.43569246092797,9.87275276324E-5,7.2726601064E-6,3.6088197624E-6,382138.632693792,6.9721E-12,1121.84502408977,-5.13107977330633,4.57210768612703,5.40444551895833
2460.0,-1451920.876792,-4926443.23047299,-4383437.16367372,4064976.13476226,-3134831.6847598,-4386483.53871902,1548.69766527187,6729.25977126165,-3377.48643729296,-5.26328077061895,4.05894125292038,5.67956457666304,6758662.11722904,1.2027054854053,-3.04900036470405,0.540095634341956,3.13736272331314,-2.37653639679213,-0.0403732536947255,-1.43615091965093,9.87273207763E-5,7.252315216E-6,3.6363267612E-6,383115.675220448,6.7067E-12,1114.58038820284,-5.26328077061895,4.05894125292038,5.67956457666304
2520.0,-1059986.92219812,-4851242.83558609,-4575629.31287015,4148355.80438889,-2724086.58302654,-4578756.30954747,1229.54864842329,6956.92251834345,-3029.12025204798,-5.37087317276826,3.52687287180051,5.92811238649638,6758662.11722906,1.20708075465283,-3.04288499884389,0.471380358747646,3.13722851388347,-2.37059416943954,-0.0405336577034858,-1.43661069691396,9.87270981652E-5,7.2320808176E-6,3.6638245719E-6,384076.783833767,6.4444E-12,1107.01507606967,-5.37087317276826,3.52687287180051,5.92811238649638
2580.0,-662393.179166488,-4756987.06967161,-4746503.14799752,4212407.8646,-2300649.65923339,-4749696.19728514,904.695111768889,7152.15652277818,-2666.66767346598,-5.45335819983568,2.97840738299949,6.14892848384064,6758662.11722907,1.21145602389464,-3.03674993244065,0.40267149976884,3.13707915334554,-2.36465183124848,-0.0406893101159629,-1.4370717566341,9.87268598718E-5,7.2119568938E-6,3.6913132281E-6,385006.251072346,6.1884E-12,1099.21521217583,-5.45335819983568,2.97840738299949,6.14892848384064
2640.0,-260820.090419522,-4644157.25109703,-4895264.34614737,4256835.48310176,-1866494.61458587,-4898508.57248131,575.655478019826,7314.05504394427,-2291.82412158403,-5.51035659068179,2.41612600293897,6.34098477708032,6758662.11722906,1.21583129314788,-3.03059316680286,0.333969680129786,3.13691339730187,-2.35870938641901,-0.0408402065212272,-1.4375340627469,9.87266059678E-5,7.1919434271E-6,3.7187927635E-6,385889.383457114,5.9412E-12,1091.25004959984,-5.51035659068179,2.41612600293897,6.34098477708032
2700.0,143029.200640046,-4513306.26484232,-5021222.0090031,4281433.54311999,-1423644.86836366,-5024502.29981305,243.967296295855,7441.86819103667,-1906.34260862108,-5.54161028941853,1.8426737146673,6.50339036292982,6758662.11722904,1.22020656239826,-3.02441251156428,0.265275505333567,3.13672971254016,-2.35276683918234,-0.0409863427420929,-1.43799757920787,9.8726336525E-5,7.1720404001E-6,3.746263212E-6,386712.759026604,5.7051E-12,1083.19007167143,-5.54161028941853,1.8426737146673,6.50339036292982
2760.0,547436.21160298,-4365055.77786721,-5123791.86777146,4286089.57207991,-974164.039852042,-5127092.94410331,-88.8200654070877,7535.00636340341,-1512.02538077689,-5.54698351641569,1.26074637043157,6.6353956373971,6758662.11722904,1.22458183164864,-3.01820552481193,0.19658956132904,3.1365262446823,-2.34682419379969,-0.0411277148345375,-1.4384622699939,9.87260516144E-5,7.1522477956E-6,3.7737246071E-6,387464.458614429,5.4818E-12,1075.10438442342,-5.54698351641569,1.26074637043157,6.6353956373971
2820.0,950674.573836446,-4200093.19507742,-5202498.97998936,4270784.23027696,-520146.247208985,-5205805.46787883,-421.15277347353,7593.04291018305,-1110.71533497795,-5.52646322133994,0.673077577775959,6.73639568389456,6758662.11722905,1.22895710090188,-3.01196944582635,0.127912412357203,3.13630077084506,-2.34088145456112,-0.0412643190871201,-1.43892809910475,9.87257513068E-5,7.1325655964E-6,3.8011769828E-6,388134.266986495,5.2727E-12,1067.0575582423,-5.52646322133994,0.673077577775959,6.73639568389456
2880.0,1351017.54215959,-4019168.37169611,-5256979.90601575,4235591.3579072,-63706.2704566121,-5260276.40827409,-751.479890591863,7615.71599841328,-704.287254380612,-5.48015891954017,0.0824254411658065,6.80593292462789,6758662.11722903,1.23333237013798,-3.00570111592448,0.0592445990112695,3.1360506352463,-2.33493862578436,-0.0413961520204002,-1.43939503056441,9.87254356725E-5,7.1129937851E-6,3.8286203728E-6,388713.840538909,5.0787E-12,1059.10635733756,-5.48015891954017,0.0824254411658065,6.80593292462789
2940.0,1746745.52681707,-3823090.09901963,-5286984.35566802,4180677.58104461,393030.373694563,-5290255.52373987,-1078.26070947834,7602.92968310498,-294.638907134816,-5.40830191683057,-0.508440768803242,6.84369902603605,6758662.11722903,1.23770763938837,-2.99939688216472,-0.0094133634481915,3.13577266411241,-2.32899571181364,-0.0415232103863275,-1.43986302842263,9.87251047813E-5,7.0935323446E-6,3.8560548111E-6,389196.83887576,4.9E-12,1051.29704197727,-5.40830191683057,-0.508440768803242,6.84369902603605
3000.0,2136153.61456935,-3612722.3808703,-5292376.2981441,4106301.479354,847937.397219235,-5295606.90369749,-1399.97202194823,7554.75417708781,116.317946673517,-5.31124393135566,-1.09675394702352,6.84953605367844,6758662.11722904,1.24208290863875,-2.99305247730679,-0.0780609864715313,3.13546305434712,-2.3230527170185,-0.0416454911676366,-1.44033205675625,9.87247587027E-5,7.0741812579E-6,3.8834803315E-6,389579.018227837,4.7368E-12,1043.66396878157,-5.31124393135566,-1.09675394702352,6.84953605367844
3060.0,2517559.04336611,-3388980.51939098,-5273134.53107079,4012812.32049638,1298897.69837611,-5276309.53698159,-1715.11528750719,7471.4253227025,526.666594844423,-5.18945512471062,-1.67976241572116,6.82343687652494,6758662.11722907,1.2464581778777,-2.98666286725108,-0.146697809225481,3.13511722791464,-2.31710964579268,-0.0417629915772319,-1.44080207967071,9.87243975058E-5,7.054940508E-6,3.910896968E-6,389858.285331199,4.5885E-12,1036.22993227441,-5.18945512471062,-1.67976241572116,6.82343687652494
3120.0,2889308.59736021,-3152827.02902276,-5229352.70721779,3900648.36831084,1743813.26381001,-5232457.33761456,-2022.22366646689,7353.34327160783,934.494414724551,-5.04352155781167,-2.25474304740578,6.76554482505608,6758662.11722909,1.25083344713094,-2.98022205389216,-0.215323399137553,3.13472964038017,-2.31116650255288,-0.0418757090575709,-1.44127306130141,9.87240212591E-5,7.0358100777E-6,3.9383047544E-6,390034.711051019,4.4547E-12,1029.00816025733,-5.04352155781167,-2.25474304740578,6.76554482505608
3180.0,3249785.88900021,-2905267.39768537,-5161238.82010046,3770334.77392579,2180614.96793476,-5164258.6291408,-2319.86888361335,7201.07038306276,1337.90187217558,-4.87414209013697,-2.8190141817371,6.676152611891,6758662.11722909,1.25520871638133,-2.97372281636567,-0.283937351858543,3.13429352694837,-2.30522329173763,-0.0419836412800186,-1.44174496581513,9.87236300309E-5,7.0167899503E-6,3.9657037249E-6,390110.503703828,4.3343E-12,1022.0053607684,-4.87414209013697,-2.8190141817371,6.676152611891
3240.0,3597418.49436665,-2647345.71556312,-5069114.15234606,3622481.06095598,2607272.22311576,-5072035.09140276,-2606.66788966231,7015.32835500632,1735.01143396727,-4.6821247438661,-3.36994827148201,6.5557005277888,6758662.11722909,1.25958398563171,-2.96715636614512,-0.352539290472648,3.13380056171859,-2.29928001780611,-0.0420867861442199,-1.44221775741146,9.87232238889E-5,6.9978801088E-6,3.9930939134E-6,390089.942695625,4.2266E-12,1015.22498710971,-4.6821247438661,-3.36994827148201,6.5557005277888
3300.0,3930684.91033609,-2380140.19098516,-4953411.69330459,3457778.21786699,3021802.43514517,-4956220.17624809,-2881.2892891083,6796.99460606673,2123.97635060154,-4.46838255711736,-3.90498419548339,6.40477392978706,6758662.11722906,1.26395925488209,-2.96051187984819,-0.421128863707991,3.13324039421138,-2.29333668523695,-0.0421851417774559,-1.44269140032416,9.87228029005E-5,6.9790805364E-6,4.020475354E-6,389979.273747649,4.1305E-12,1008.67000825432,-4.46838255711736,-3.90498419548339,6.40477392978706
3360.0,4248121.30189623,-2104758.57380907,-4814674.03493072,3276995.41242787,3422280.21970103,-4817357.00120441,-3142.45950460107,6547.09793026495,2502.98926769107,-4.23392895290099,-4.42163917965244,6.22410004191866,6758662.11722904,1.26833452412105,-2.95377585537644,-0.489705742779487,3.13260000893798,-2.28739329852709,-0.0422787065339839,-1.44316585882257,9.87223671326E-5,6.9603912165E-6,4.0478480807E-6,389786.567620952,4.0449E-12,1002.34480000736,-4.23392895290099,-4.42163917965244,6.22410004191866
3420.0,4548328.00928642,-1822333.50678985,-4653550.75743573,3080976.34491468,3806846.33689109,-4656095.73263202,-3388.96864964488,6266.81344961684,2870.29062534671,-3.97987265256373,-4.91752027038839,6.01454409236431,6758662.11722905,1.27270979337429,-2.94693120766093,-0.558269616301059,3.13186282440126,-2.28144986219058,-0.0423674789943656,-1.44364109721301,9.87219166517E-5,6.9418121322E-6,4.0752121278E-6,389521.544868114,3.969E-12,996.256103343861,-3.97987265256373,-4.91752027038839,6.01454409236431
3480.0,4829975.78627297,-1534017.82434583,-4470795.31859513,2870635.25836753,4173716.30259295,-4473190.47225278,-3619.67608320143,5957.45689306545,3224.17680655454,-3.70741216438568,-5.39033530847363,5.77710481403167,6758662.11722903,1.27708506262181,-2.93995597176832,-0.626820182381257,3.13100739937568,-2.27550638075743,-0.042451457964816,-1.44411707984016,9.8721451524E-5,6.9233432669E-6,4.1025675293E-6,389195.369730048,3.9017E-12,990.413208361755,-3.70741216438568,-5.39033530847363,5.77710481403167
3540.0,5091811.74116184,-1240979.81993645,-4267261.46288673,2646952.62573247,4521188.63709865,-4269495.66324399,-3833.51562166667,5620.47823317791,3563.00799722945,-3.41782987960479,-5.83790335534593,5.51290933839072,6758662.11722902,1.28146033186077,-2.93282139846123,-0.695357136465878,3.13000553163788,-2.26956285877241,-0.0425306424765149,-1.44459377108839,9.87209718151E-5,6.9049846042E-6,4.1299143194E-6,388820.416848307,3.8422E-12,984.827601006282,-3.41782987960479,-5.83790335534593,5.51290933839072
3600.0,5332664.95467096,-944398.501065189,-4043899.16881665,2410970.53513246,4847652.7135426,-4045962.03426974,-4029.50038566907,5257.45471480681,3885.2157224999,-3.1124858094836,-6.25816452766269,5.22320751492804,6758662.11722904,1.28583560110829,-2.92548908156154,-0.763880152519465,3.12881938856456,-2.2636193007939,-0.0426050317849338,-1.44507113538318,9.87204775902E-5,6.8867361274E-6,4.1572525322E-6,388410.014971599,3.7895E-12,979.512298198724,-3.1124858094836,-6.25816452766269,5.22320751492804
3660.0,5551451.74969387,-645458.851390035,-3801750.15485664,2163787.79580348,5151596.17072007,-3803632.1018894,-4206.72726118828,4870.08331243855,4189.31002578799,-2.79281099810524,-6.64918920020122,4.90936569080623,6758662.11722903,1.29021087036154,-2.91790648920185,-0.832388853355017,3.12739704174393,-2.2576757113927,-0.0426746253691208,-1.44554913719246,9.87199689142E-5,6.8685978202E-6,4.1845822021E-6,387978.172287956,3.7427E-12,974.481045777091,-2.79281099810524,-6.64918920020122,4.90936569080623
3720.0,5747180.5896237,-345347.119522059,-3541942.96635779,1906554.78839926,5431611.85717704,-3543635.25372557,-4364.38095659912,4460.17265522184,4473.88625938351,-2.46030064639365,-7.00918654133816,4.57285998722558,6758662.11722906,1.29458613960906,-2.90999975822525,-0.900882762499698,3.12566526491903,-2.25173209515087,-0.0427394229310312,-1.44602774102793,9.87194458516E-5,6.8505696661E-6,4.2119033633E-6,387539.288402796,3.7009E-12,969.747495397337,-2.46030064639365,-7.00918654133816,4.57285998722558
3780.0,5918956.58385293,-45246.1530393195,-3265687.66761614,1640468.08440698,5686404.27585255,-3267182.4365849,-4501.7376393938,4029.63446068898,4737.63145744966,-2.11650698341198,-7.33651234958111,4.21526911059205,6758662.11722902,1.29896140886516,-2.90166157346489,-0.969361223059591,3.1235174170517,-2.24578845666056,-0.0427994243948023,-1.44650691144647,9.87189084663E-5,6.8326516489E-6,4.2392160501E-6,387107.858293845,3.6634E-12,965.324428232253,-2.11650698341198,-7.33651234958111,4.21526911059205
3840.0,6065985.58076717,253669.204969592,-2974270.16493936,1366764.8603268,5914795.50107068,-2975560.47540013,-4618.16813850936,3580.47451994697,4979.3302647256,-1.76303192131057,-7.62967616384154,3.83826673789821,6758662.11722901,1.30333667810126,-2.89272971853312,-1.03782325412574,3.12079199719547,-2.23984480052285,-0.0428546299060387,-1.44698661305144,9.8718356822E-5,6.8148437522E-6,4.2665202967E-6,386698.173799822,3.6292E-12,961.223058660455,-1.76303192131057,-7.62967616384154,3.83826673789821
3900.0,6187577.83033227,550236.637787164,-2669046.18809527,1086717.13304608,6115730.542292,-2670126.0503934,-4713.14070037307,3114.78327862854,5197.87039658654,-1.40151953039067,-7.88734762431078,3.44361351674073,6758662.11722903,1.30771194735164,-2.88294669070799,-1.10626728057932,3.11723226382652,-2.23390113134656,-0.0429050398311082,-1.447466810494,9.87177909817E-5,6.7971459599E-6,4.2938161376E-6,386324.02832654,3.5976E-12,957.452429175451,-1.40151953039067,-7.88734762431078,3.44361351674073
3960.0,6283151.20038635,843310.780925425,-2351434.95890966,801625.843487449,6288282.1317308,-2352299.36124893,-4786.22328896472,2634.72605915899,5392.24760857179,-1.0336483706372,-8.10836206489171,3.03314872113891,6758662.11722909,1.31208721660202,-2.87187751839477,-1.17469058361406,3.1124040571775,-2.2279574537471,-0.042950654756403,-1.44794746847446,9.87172110083E-5,6.7795582559E-6,4.321103607E-6,385998.430474983,3.5677E-12,954.018895184443,-1.0336483706372,-8.10836206489171,3.03314872113891
4020.0,6352233.93266323,1131767.53370983,-2022912.57701922,512814.816126111,6431654.91571021,-2023557.50832108,-4837.08542236712,2142.53297091679,5561.57015597622,-0.661123715771268,-8.29172532212302,2.60878160479874,6758662.11722912,1.31646248583812,-2.85872482211957,-1.24308806466227,3.10551086560448,-2.22201377234532,-0.0429914754875921,-1.4484285517436,9.87166169641E-5,6.7620806241E-6,4.3483827394E-6,385733.33220347,3.5389E-12,950.925692017849,-0.661123715771268,-8.29172532212302,2.60878160479874
4080.0,6394466.92669125,1414508.24230268,-1685005.15387398,221624.622359367,6545189.03244638,-1685427.62199388,-4865.49954042626,1640.48855565354,5705.06272660789,-0.28566970540172,-8.43661774938323,2.17248249371032,6758662.11722915,1.3208377550885,-2.84185192649847,-1.31144905762886,3.09491694351327,-2.21607009176633,-0.0430275030489124,-1.44891002510395,9.87160089111E-5,6.7447130485E-6,4.3756535692E-6,385539.376924726,3.5104E-12,948.172573723124,-0.28566970540172,-8.43661774938323,2.17248249371032
4140.0,6409605.54142777,1690463.74056777,-1339281.72702224,-70593.6240300353,6628363.0618126,-1339479.77224601,-4871.34190025938,1130.9212161002,5822.06983232943,0.0909785397668333,-8.54239742886254,1.72627365998851,6758662.11722912,1.32521302433889,-2.81728553449072,-1.37974731159754,3.07664999224748,-2.21012641663838,-0.0430587386823921,-1.44939185341112,9.87153869107E-5,6.7274555132E-6,4.4029161307E-6,385425.672607369,3.4816E-12,945.755512245536,0.0909785397668333,-8.54239742886254,1.72627365998851
4200.0,6397520.90705735,1958598.23348016,-987346.987497593,-362484.510941684,6680796.33552171,-987319.691262689,-4854.59299842423,616.192476030009,5912.05864751141,0.467082805464259,-8.60860257731945,1.27222001869013,6758662.11722913,1.32958829359213,-2.7722541068121,-1.44789765752108,3.03793954692178,-2.20418275159164,-0.0430851838471117,-1.44987400157508,9.8714751024E-5,6.7103080023E-6,4.4301704586E-6,385399.594503656,3.452E-12,943.666445143318,0.467082805464259,-8.60860257731945,1.27222001869013
4260.0,6358200.74092404,2217913.0118744,-630833.853765509,-652694.583171313,6702250.59906611,-630581.342573761,-4815.33752059034,98.6861201863636,5974.62128501957,0.840909640779444,-8.6349531449924,0.812419688990696,6758662.11722914,1.33396356284251,-2.63169369665361,-1.51539351675083,2.90372281947038,-2.19823910125713,-0.0431068402184275,-1.45035643456145,9.87141013118E-5,6.6932705001E-6,4.4574165872E-6,385466.621565094,3.4211E-12,941.893059161598,0.840909640779444,-8.6349531449924,0.812419688990696
4320.0,6291749.66400293,2467449.9860296,-271395.926175164,-939878.580495419,6692631.01965859,-270919.370685339,-4753.76382152531,-419.202737574436,6009.47650282697,1.21073815208788,-8.62135161020103,0.348994460598848,6758662.11722913,1.33833883208147,-0.466721309469345,-1.55101028392455,0.745118067819275,-2.19229547026553,-0.0431237096872204,-1.45083911739278,9.87134378343E-5,6.6763429908E-6,4.484654551E-6,385630.20994779,3.3884E-12,940.418595083009,1.21073815208788,-8.62135161020103,0.348994460598848
4380.0,6198389.01630561,2706295.02728258,89300.143796437,-1222705.63057801,6651986.53731182,89998.5344861251,-4670.16294012214,-935.078609817834,6016.47083677599,1.57486770261568,-8.56788297514797,-0.115919794348138,6758662.11722914,1.34271410133185,0.119851786625479,-1.48673712706044,0.164937916893336,-2.18635186324601,-0.0431357943591136,-1.4513220151498,9.87127606513E-5,6.6595254588E-6,4.5118843847E-6,385891.706262489,3.3537E-12,939.22631033922,1.57486770261568,-8.56788297514797,-0.115919794348138
4440.0,6078456.17129795,2933581.10856779,449582.335024273,-1499865.36899004,6580509.55906889,450499.323872019,-4564.92715604359,-1446.55656705062,5995.57915740792,1.93162548735304,-8.47481397122141,-0.580182724408417,6758662.11722914,1.34708937058509,0.197531650638236,-1.41884595659076,0.0936777808660453,-2.18040828482515,-0.0431430965536934,-1.45180509297274,9.87120698223E-5,6.6428178885E-6,4.5391061227E-6,386250.302408852,3.3171E-12,938.312067776928,1.93162548735304,-8.47481397122141,-0.580182724408417
4500.0,5932403.35223323,3148491.23370562,807780.954400755,-1770073.95908075,6478534.99924296,808912.291642345,-4438.54809634324,-1951.27309811003,5946.9046511234,2.27937395414908,-8.34259148470085,-1.04165907831225,6758662.11722912,1.35146463983547,0.231040582647087,-1.35066749425932,0.0666169629061626,-2.17446473962579,-0.0431456188037209,-1.45228831606248,9.87113654063E-5,6.6262202644E-6,4.5663197996E-6,386703.032971475,3.2789E-12,937.670908632945,2.27937395414908,-8.34259148470085,-1.04165907831225
4560.0,5760795.95459817,3350261.14825014,1162236.31623305,-2032079.98499319,6346538.67132891,1163576.75925433,-4291.61440213902,-2446.89685303485,5870.67822823028,2.61651804296417,-8.17184021619981,-1.49822822302582,6758662.11722914,1.35583990908586,0.251668972958071,-1.28241133335398,0.0524668216580903,-2.16852123226584,-0.043143363854339,-1.45277164968191,9.8710647462E-5,6.609732571E-6,4.59352545E-6,387244.815266682,3.2392E-12,937.293181380604,2.61651804296417,-8.17184021619981,-1.49822822302582
4620.0,5564310.38107365,3538181.82484581,1511306.36913888,-2284670.19177084,6185135.04000881,1512849.70690483,-4124.80896706129,-2931.1392228996,5767.25736267261,2.94151221641248,-7.96335958944041,-1.94779356358973,6758662.11722916,1.36021517832195,0.266819244591918,-1.2141264533836,0.0438268466713104,-2.16257776735726,-0.0431363346622685,-1.45325505915708,9.87099160475E-5,6.5933547931E-6,4.6207231086E-6,387868.53124169,3.1985E-12,937.164631261985,2.94151221641248,-7.96335958944041,-1.94779356358973
4680.0,5343731.39782218,3711601.7163202,1853374.23656035,-2526675.04725295,5995074.34437411,1855113.31848596,-3938.90576077539,-3401.76471209284,5637.12437041435,3.25286725588706,-7.71811992706593,-2.38829182890917,6758662.11722918,1.36459044757234,0.279142529877459,-1.14583001899038,0.0380480024052276,-2.15663434950482,-0.0431245343950059,-1.45373850987847,9.87091712206E-5,6.5770869153E-6,4.6479128099E-6,388565.149562458,3.1572E-12,937.265942274326,3.25286725588706,-7.71811992706593,-2.38829182890917
4740.0,5099949.02163671,3869928.77267722,2186855.63749682,-2756974.10130009,5777239.10612564,2188782.40662544,-3734.7662523858,-3856.60105964254,5480.8841355698,3.54915679871398,-7.43725791317124,-2.81770218868467,6758662.1172292,1.36896571681986,0.289823345176236,-1.07752937941817,0.0339480772709348,-2.15069098330509,-0.0431079664300219,-1.45422196730221,9.87084130387E-5,6.5609289224E-6,4.6750945887E-6,389323.885407506,3.1155E-12,937.570044649688,3.54915679871398,-7.43725791317124,-2.81770218868467
4800.0,4833954.95116943,4012632.21609561,2510206.1546651,-2974501.11882295,5532640.03908002,2512311.68500089,-3513.33544996846,-4293.54906742871,5299.26129543133,3.82902359292462,-7.12207136408136,-3.23405516769656,6758662.11722923,1.37334098605596,0.299470853670043,-1.00922802988862,0.0309204483668337,-2.14474767334525,-0.0430866343539214,-1.45470539695126,9.87076415589E-5,6.5448807993E-6,4.7022684796E-6,390132.394733289,3.0737E-12,938.04207566431,3.82902359292462,-7.12207136408136,-3.23405516769656
4860.0,4546838.55575832,4139244.07160733,2821928.31802354,-3178248.96410412,5262411.37880056,2824202.85584647,-3275.63757384784,-4710.59209446774,5093.09689754081,4.09118544736238,-6.77401333065545,-3.63544132468403,6758662.11722923,1.37771625531206,0.308430762079474,-0.94092769801922,0.0286222167565449,-2.13880442420202,-0.0430605419616432,-1.45518876441664,9.87068568375E-5,6.5289425308E-6,4.7294345173E-6,390976.999109614,3.0335E-12,938.729698844784,4.09118544736238,-6.77401333065545,-3.63544132468403
4920.0,4239782.43716974,4249360.45147533,3120578.47244311,-3367274.21499868,4967805.65357691,3123011.48141746,-3022.77138253987,-5105.80517790036,4863.34454388668,4.33444085595154,-6.39468555705357,-4.02001966408515,6758662.11722925,1.38209152455673,0.31691424797182,-0.872629207672239,0.0268453175072463,-2.13286124044056,-0.0430296932556114,-1.4556720353586,9.87060589308E-5,6.5131141021E-6,4.7565927366E-6,391842.936655525,2.9964E-12,939.697612392562,4.33444085595154,-6.39468555705357,-4.02001966408515
4980.0,3914057.58323609,4342642.59005251,3404773.39926906,-3540701.48677222,4650187.92029398,3407353.60913966,-2755.90517151846,-5477.36374285864,4611.06603918071,4.55767427604939,-5.98583132249326,-4.38602574992476,6758662.1172292,1.38646679380997,0.325057987665734,-0.804332882715908,0.0254565355588284,-2.12691812661335,-0.0429940924449201,-1.45615517550782,9.87052478946E-5,6.4973954982E-6,4.7837431721E-6,392714.634147864,2.9639E-12,940.996748315359,4.55767427604939,-5.98583132249326,-4.38602574992476
5040.0,3571018.13092588,4418817.63039561,3673196.66258784,-3697727.44658011,4311029.49095145,3675912.12124256,-2476.27146613593,-5823.55186502594,4337.42656198245,4.75986104188422,-5.54932769406031,-4.73177949215122,6758662.11722922,1.39084206306035,0.332954734641641,-0.736038754230863,0.0243669788480043,-2.12097508725912,-0.042953743944473,-1.45663815066659,9.8704423784E-5,6.4817867042E-6,4.8108858586E-6,393575.99503181,2.9374E-12,942.672923180137,4.75986104188422,-5.54932769406031,-4.73177949215122
5100.0,3212095.76094742,4477679.16132307,3924604.65219189,-3837624.50090482,3951901.17771453,3927442.78085411,-2185.16143113557,-6142.77005143248,4043.68937918948,4.94007189515286,-5.08717722013871,-5.05569257673435,6758662.11722919,1.3952173322993,0.340670039193406,-0.66774667526786,0.0235154196100074,-2.11503212690178,-0.0429086523741548,-1.45712092670995,9.87035866541E-5,6.4662877054E-6,4.8380208309E-6,394410.697837504,2.9182E-12,944.769888379992,4.94007189515286,-5.08717722013871,-5.05569257673435
5160.0,2838793.74574435,4519087.50651583,4157832.29651619,-3959744.13964633,3574466.08639093,4160779.94781692,-1883.91902023766,-6433.54250684784,3731.21012610358,5.09747711591778,-4.60149909550205,-5.35627551184676,6758662.11722919,1.39959260154969,0.348251933102618,-0.59945638870943,0.0228586821521,-2.10908925004928,-0.0428588225579734,-1.45760346958684,9.87027365594E-5,6.4508984871E-6,4.8651481239E-6,395202.499398683,2.9076E-12,947.331174763801,5.09747711591778,-4.60149909550205,-5.35627551184676
5220.0,2452680.6742893,4542969.76763576,4371798.42020101,-4063519.92199906,3180471.99012924,4374841.93886784,-1573.93489025998,-6694.52385503773,3401.43067591238,5.23135023801723,-4.094519830577,-5.63214426347024,6758662.11722919,1.40396787080293,0.355736818251655,-0.531167569854159,0.0223658407976722,-2.10314646119264,-0.0428042595231955,-1.45808574532126,9.87018735539E-5,6.4356190348E-6,4.8922677722E-6,395935.53727096,2.9068E-12,950.401353646095,5.23135023801723,-4.094519830577,-5.63214426347024
5280.0,2055383.87964896,4549319.62339918,4565510.72241213,-4148470.09074421,2771743.31691978,4568636.00830019,-1256.64010514876,-6924.50528614755,3055.87262399535,5.34107133428357,-3.56856345885736,-5.88202645480092,6758662.11722919,1.40834314003902,0.36315320194455,-0.462879854690869,0.0220145885493696,-2.09720376480477,-0.0427449684994985,-1.45856772001345,9.87009976914E-5,6.4204493338E-6,4.9193798107E-6,396594.625854733,2.9172E-12,954.026705185152,5.34107133428357,-3.56856345885736,-5.88202645480092
5340.0,1648582.59565364,4538196.88818807,4738070.35361848,-4214199.80313508,2350172.78614029,4741262.92679832,-933.499656145007,-7122.42010355801,2696.13041396821,5.42612985797307,-3.02604131792347,-6.10476710488718,6758662.1172292,1.41271840928941,0.370524159866972,-0.394592859749544,0.0217888997793934,-2.09126116533951,-0.0426809549180989,-1.45904935984092,9.8700109025E-5,6.4053893697E-6,4.9464842744E-6,397165.540928224,2.9401E-12,958.254996472367,5.42612985797307,-3.02604131792347,-6.10476710488718
5400.0,1234000.86945902,4509726.83460113,4888676.07018468,-4260402.96814946,1917712.7309237,4891921.13779238,-606.005825093051,-7287.34864572994,2323.86413382169,5.48612702794745,-2.46944144101217,-6.29933388303111,6758662.11722915,1.41709367853979,0.377869022405437,-0.326306196851416,0.021677496687493,-2.08531866723051,-0.0426122244108774,-1.45953063105964,9.86992076077E-5,6.3904391282E-6,4.9735811979E-6,397635.287581553,2.9769E-12,963.133874709175,5.48612702794745,-2.46944144101217,-6.29933388303111
5460.0,813400.260291747,4464099.28395229,5016627.94787733,-4286863.68152647,1476366.14452689,5019910.47242419,-275.671418610654,-7418.52256081724,1940.79201188434,5.52077774633033,-1.90131759758626,-6.464821856631,6758662.11722915,1.42146894779017,0.385204575679905,-0.258019484725145,0.0216728352640649,-2.07937627489023,-0.0425387828095035,-1.46001150000511,9.8698293492E-5,6.375598595E-6,5.0006706163E-6,397992.346901059,3.0291E-12,968.707301039434,5.52077774633033,-1.90131759758626,-6.464821856631
5520.0,388572.353197756,4401567.47066998,5121330.63720616,-4293457.25168661,1028177.49014247,5124635.40603819,55.9770985203107,-7515.32841417938,1548.68264364238,5.52991203859694,-1.32427802287302,-6.60045771135565,6758662.1172292,1.4258442170377,0.392545955881066,-0.189732358714771,0.0217704414598013,-2.07343399270889,-0.0424606361445528,-1.4604919330935,9.86973667299E-5,6.3608677559E-6,5.0277525643E-6,398226.897172692,3.0981E-12,975.009621213271,5.52991203859694,-1.32427802287302,-6.60045771135565
5580.0,-38668.8809573593,4322446.68644109,5202296.14541878,-4280150.81135381,575223.314714511,5205607.84101101,387.406541819673,-7577.31061136888,1149.34698167809,5.51347600735644,-0.740973877868451,-6.70560342382951,6758662.11722918,1.43021948627666,0.399907351429152,-0.12144447939278,0.0219684953373911,-2.0674918250534,-0.0423777906446309,-1.46097189682265,9.8696427373E-5,6.3462465967E-6,5.054827077E-6,398331.00584574,3.1852E-12,982.057456832267,5.51347600735644,-0.740973877868451,-6.70560342382951
5640.0,-466494.847527497,4227112.71085284,5259146.13193739,-4247003.51144806,119602.70828965,5262449.40270336,717.083988024789,-7604.17362170503,744.63012213629,5.4715322924611,-0.154087482835547,-6.77975936839208,6758662.11722922,1.4345947555299,0.407302590524125,-0.0531555406659027,0.022267602063571,-2.06154977626642,-0.042290252735472,-1.46145135777324,9.86954754725E-5,6.3317351034E-6,5.0818941891E-6,398298.789011421,3.2915E-12,989.840650303313,5.4715322924611,-0.154087482835547,-6.77975936839208
5700.0,-893070.180352889,4116000.03581356,5291613.70606078,-4194166.2955935,-336572.348750671,5294893.23735494,1043.48376865128,-7595.78349017202,336.402922190534,5.40426003153691,0.433679631154499,-6.82256684098482,6758662.11722925,1.43897002478028,0.414745670648382,0.0151347221499067,0.0226707153772692,-2.05560785066526,-0.042198029039037,-1.46193028260982,9.86945110794E-5,6.3173332621E-6,5.1089539357E-6,398126.53569792,3.4177E-12,998.314702222739,5.40426003153691,0.433679631154499,-6.82256684098482
5760.0,-1316560.65032303,3989599.89162865,5299544.71785209,-4121881.2553861,-791186.707576023,5302785.30284115,1365.09444608539,-7552.1686280986,-73.4465160499388,5.31195431658095,1.01961880659178,-6.83380998482707,6758662.11722923,1.44334529401923,0.422251275644943,0.0834265238410607,0.0231831982602262,-2.04966605254094,-0.042101126372633,-1.46240863808184,9.8693534244E-5,6.3030410589E-6,5.1360063517E-6,397812.794857882,3.5643E-12,1007.39775292288,5.31195431658095,1.01961880659178,-6.83380998482707
5820.0,-1735141.09741313,3848458.08327312,5282898.535284,-4030480.56837745,-1242131.79842146,5286085.14536326,1680.42574188223,-7473.51987588207,-483.021458883102,5.19502514392215,1.60102643230515,-6.81341710428605,6758662.11722926,1.44772056326676,0.429835322179372,0.15172001991731,0.0238130210337295,-2.04372438615715,-0.0419995517479982,-1.46288639102472,9.86925450163E-5,6.2888584799E-6,5.1630514721E-6,397358.423517474,3.7308E-12,1016.97435530113,5.19502514392215,1.60102643230515,-6.81341710428605
5880.0,-2147003.35251427,3693172.64564918,5241748.30291342,-3920385.02255525,-1687315.35992329,5244866.15734529,1988.01538683444,-7360.18983391241,-890.425214537321,5.05399585659745,2.17521615575074,-6.76146135523037,6758662.11722926,1.45209583251429,0.437515579550526,0.220015295765857,0.0245711119443461,-2.03778285574926,-0.0418933123703917,-1.46336350836089,9.8691543446E-5,6.2747855114E-6,5.1900893317E-6,396766.595165055,3.9168E-12,1026.90596767521,5.05399585659745,2.17521615575074,-6.76146135523037
5940.0,-2550364.11427764,3524391.32753745,5176280.67960115,-3792102.13292771,-2124671.10632701,5179315.3140558,2286.43586237375,-7212.69146082603,-1293.76982916303,4.88950108005584,2.73953108460416,-6.67816080219175,6758662.1172293,1.45647110176467,0.445312415140043,0.288312353581642,0.0254718921144505,-2.03184146552337,-0.0417824156376911,-1.46383995710079,9.86905295822E-5,6.26082214E-6,5.2171199657E-6,396042.768077469,4.1212E-12,1037.04538442989,4.88950108005584,2.73953108460416,-6.67816080219175
6000.0,-2943472.74741364,3342808.91403137,5086795.0550682,-3646223.8576424,-2552168.28865699,5089732.38875029,2574.3010029817,-7031.69594126711,-1691.18476706567,4.70228415407498,3.29135592624968,-6.56387783485616,6758662.11722926,1.46084637101505,0.453249733828048,0.356611096021654,0.026534048551204,-2.02590021965532,-0.0416668691394587,-1.46431570434391,9.86895034738E-5,6.2469683519E-6,5.244143409E-6,395194.613906784,4.3428E-12,1047.25089156029,4.70228415407498,3.29135592624968,-6.56387783485616
6060.0,-3324618.9679996,3149164.39795958,4973702.24738614,-3483423.92288332,-2967821.10616167,4976528.64843742,2850.27242952033,-6818.02982845206,-2080.82553657364,4.49319406584879,3.82812901269523,-6.41911793875984,6758662.11722926,1.46522164025686,0.461356206775754,0.424911305061497,0.0277816299793018,-2.0199591222897,-0.0415466806560448,-1.46479071727976,9.86884651691E-5,6.2332241337E-6,5.2711596966E-6,394231.907479512,4.5803E-12,1057.39659898205,4.49319406584879,3.82812901269523,-6.41911793875984
6120.0,-3692140.38183325,2944238.01120753,4837522.68582007,-3304454.76758465,-3369697.92476038,4840225.0346941,3113.06578375619,-6572.67147000855,-2460.88222270267,4.26318189138703,4.34735415754629,-6.24452781758872,6758662.11722926,1.46959690949868,0.469666929212014,0.49321261378397,0.0292455973062068,-2.01401817753893,-0.0414218581576384,-1.46526496318891,9.86874147162E-5,6.2195894722E-6,5.2981688636E-6,393166.37938437,4.8323E-12,1067.37747270536,4.26318189138703,4.34735415754629,-6.24452781758872
6180.0,-4044429.84239782,2728848.12697715,4678884.08577614,-3110144.12076956,-3755930.25982309,4681449.83629023,3361.45673484711,-6296.74672878471,-2829.58788770116,4.01329675463957,4.84661229096699,-6.04089286715842,6758662.11722924,1.47397217874906,0.478225719264846,0.561514467617118,0.0309660349283427,-2.00807738948229,-0.04129240980335,-1.46573840944393,9.86863521626E-5,6.2060643539E-6,5.3251709449E-6,392011.53354411,5.0973E-12,1077.10965163402,4.01329675463957,4.84661229096699,-6.04089286715842
6240.0,-4379942.59513852,2503848.04461953,4498518.62493643,-2901391.22605764,-4124721.48141346,4500935.8627152,3594.28672919667,-5991.52401358398,-3185.22680065033,3.74468131612207,5.32357281807998,-5.80913400399128,6758662.1172292,1.47834744799087,0.487088390439935,0.629816069529944,0.0329953510852652,-2.00213676216499,-0.0411583439402912,-1.46621102351037,9.86852775554E-5,6.1926487657E-6,5.3521659756E-6,390782.432569401,5.3737E-12,1086.52773335303,3.74468131612207,5.32357281807998,-5.80913400399128
6300.0,-4697203.17529024,2270122.66938667,4297259.63198554,-2679162.7295776,-4474355.20112145,4299517.13002195,3810.46845586023,-5658.40863806199,-3526.14245755676,3.4585668052544,5.77600464603196,-5.55030385439148,6758662.11722927,1.4827227172384,0.496327536375035,0.698116300266477,0.0354030025417006,-1.99619629959725,-0.041019669102617,-1.46668277294774,9.86841909416E-5,6.1793426945E-6,5.3791539908E-6,389495.454275012,5.6596E-12,1095.58078722048,3.4585668052544,5.77600464603196,-5.55030385439148
6360.0,-4994812.02802466,2028585.09857021,4076037.80163285,-2444488.24916377,-4803203.30080447,4078125.07270463,4008.99100061413,-5298.93652930792,-3850.7453538219,3.15626761311996,6.20178682501175,-5.26558231303969,6758662.11722925,1.48709798648878,0.506039730151188,0.766413598652278,0.038282643298385,-1.99025600575334,-0.040876394010612,-1.46715362541041,9.86830923674E-5,6.1661461273E-6,5.4061350255E-6,388168.023288563,5.9531E-12,1104.22835633463,3.15626761311996,6.20178682501175,-5.26558231303969
6420.0,-5271451.81963113,1780173.12717569,3835876.95190273,-2198455.64429685,-5109733.56494575,3837784.29759615,4188.92466287765,-4914.7673109065,-4157.52047161107,2.83917546489013,6.59891874887449,-4.95627148336694,6758662.11722924,1.49147325573631,0.516356707350729,0.834705775917097,0.0417632645123186,-1.98431588457074,-0.0407285275697262,-1.46762354864863,9.86819818788E-5,6.1530590511E-6,5.4331091149E-6,386818.32219163,6.2516E-12,1112.4371088973,2.83917546489013,6.59891874887449,-4.95627148336694
6480.0,-5525893.41021741,1525845.68563087,3577889.34188704,-1942206.00776145,-5392516.87992364,3579607.89799461,4349.42541090939,-4507.67678851735,-4445.03444547988,2.50875319372038,6.96552986173285,-4.62379001530904,6758662.11722924,1.49584852498669,0.527463381044122,0.902989716697451,0.0460271722251584,-1.97837593994917,-0.0405760788696431,-1.46809251050936,9.86808595214E-5,6.1400814531E-6,5.4600762939E-6,385464.987086274,6.5523E-12,1120.17834264038,2.50875319372038,6.96552986173285,-4.62379001530904
6540.0,-5757001.45952758,1266579.22215802,3303270.57032269,-1676928.40142728,-5650233.96526407,3304792.34839769,4489.73895208405,-4079.54886919801,-4711.942370654,2.16652814048294,7.29988881793525,-4.26966685945702,6758662.11722929,1.50022379422564,0.539628121785588,0.971260876339839,0.0513402347169051,-1.97243617574973,-0.0404190571833289,-1.46856047893727,9.86797253403E-5,6.1272133206E-6,5.4870365976E-6,384126.792869486,6.8522E-12,1127.4262850151,2.16652814048294,7.29988881793525,-4.26966685945702
6600.0,-5963739.63860232,1003364.04358263,3013294.07745504,-1403854.35990661,-5881681.60391551,3014612.00232297,4609.20439659461,-3632.36694880894,-4956.99421960318,1.81408520623766,7.60041204428995,-3.8955344600877,6758662.11722932,1.50459906347603,0.55325629494432,1.03951239144809,0.0581053907903479,-1.966496595794,-0.0402574719660729,-1.46902742197559,9.86785793804E-5,6.1144546408E-6,5.5139900613E-6,382822.33380503,7.1476E-12,1134.15702278101,1.81408520623766,7.60041204428995,-3.8955344600877
6660.0,-6145175.42210593,737200.626505008,2709305.27466635,-1124252.18709066,-6085778.3407371,2710413.21771168,4707.25749461373,-3168.20480485603,-5179.0408340044,1.45305958682882,7.86567165522442,-3.50312141304811,6758662.11722935,1.50897433272355,0.56899093343481,1.10773340546271,0.0669632962111191,-1.96055720386323,-0.0400913328545505,-1.469493307767,9.86774216858E-5,6.1018054013E-6,5.5409367199E-6,381569.705196414,7.4348E-12,1140.34787421252,1.45305958682882,7.86567165522442,-3.50312141304811
6720.0,-6300484.4371612,469095.913473676,2392715.32827264,-839421.071710431,-6261569.62071989,2393608.13633838,4783.43342878336,-2689.21703501852,-5377.03946085094,1.08512922140369,8.09440267379959,-3.09424461794589,6758662.11722936,1.51334960196536,0.587917174145838,1.17590566300252,0.0789967359011416,-1.95461800369738,-0.0399206496658489,-1.46995810455458,9.86762523007E-5,6.0892655894E-6,5.5678766086E-6,380386.192073405,7.7097E-12,1145.97703511567,1.08512922140369,8.09440267379959,-3.09424461794589
6780.0,-6428954.34700334,200059.606473872,2064994.62571099,-550685.049097389,-6408232.34095841,2065668.14546919,4837.36914588042,-2197.62908435874,-5550.05880333621,0.712006988952095,8.28550951414005,-2.67080095753542,6758662.1172294,1.51772487121575,0.612020612697181,1.243995856413,0.0961889559152057,-1.94867899899434,-0.0397454323965143,-1.47042178068261,9.86750712685E-5,6.0768351929E-6,5.5948097624E-6,379287.970794971,7.9681E-12,1151.02335269148,0.712006988952095,8.28550951414005,-2.67080095753542
6840.0,-6529988.24940477,-68899.5291659936,1727665.95403991,-259386.837225443,-6525078.79304841,1728117.05171158,4868.80521361667,-1695.72690678659,-5697.28355921426,0.335432689134322,8.43807168388858,-2.2347585405448,6758662.11722936,1.52210014046327,0.645360996048624,1.31193595436927,0.122597334200125,-1.94274019340907,-0.0395656912215923,-1.47088430459745,9.86738786325E-5,6.0645141994E-6,5.6217362167E-6,378289.829338222,8.2056E-12,1155.4660531133,0.335432689134322,8.43807168388858,-2.2347585405448
6900.0,-6603107.57196645,-336777.336470082,1382297.42224467,33118.4241082628,-6611559.97539368,1382523.99856987,4877.58719076927,-1185.84630873375,-5818.01842161252,-0.0428351543301382,8.55134866874393,-1.78814754742858,6758662.11722935,1.52647540971366,0.697703342480628,1.37956192288282,0.167984479182473,-1.93680159055277,-0.0393814364936598,-1.4713456448484,9.86726744353E-5,6.0523025968E-6,5.6486560063E-6,377404.911778648,8.4183E-12,1159.28476536794,-0.0428351543301382,8.55134866874393,-1.78814754742858
6960.0,-6647954.44871194,-602577.90210827,1030495.16026814,325469.501467926,-6667268.25784715,1030496.16064888,4863.66650118924,-670.362025155783,-5911.69151973428,-0.421027627626741,8.62478396498613,-1.33305072161807,6758662.11722935,1.53085067896118,0.799595290924529,1.44635519048304,0.262895557722439,-1.93086319399204,-0.0391926787418501,-1.47180577008853,9.86714587192E-5,6.0402003728E-6,5.6755691666E-6,376644.492070659,8.6021E-12,1162.46045332245,-0.421027627626741,8.62478396498613,-1.33305072161807
7020.0,-6664293.56465787,-865317.141752785,673895.828961988,616305.433339277,-6691939.38417881,673671.24872367,4827.10080469007,-151.676579901237,-5977.85727953081,-0.797373856482896,8.65800823010935,-0.871593551732909,6758662.11722938,1.53522594820014,1.10768608409451,1.50951985112082,0.563977256462158,-1.92492500724811,-0.038999428670901,-1.47226464907552,9.86702315264E-5,6.0282075156E-6,5.7024757327E-6,376017.781715071,8.7537E-12,1164.97623206811,-0.797373856482896,8.65800823010935,-0.871593551732909
7080.0,-6652013.45755228,-1124026.32305227,314158.976264729,904271.902731615,-6685453.80103529,313709.861004863,4768.05386036043,367.791015855913,-6016.1986872321,-1.17010948844858,8.65084152625488,-0.405934192882528,6758662.11722936,1.53960121745052,2.5847362315575,1.53366008030813,2.03398742228202,-1.918987033796,-0.0388016971601749,-1.47272225067243,9.86689928982E-5,6.016324013E-6,5.7293757396E-6,375531.775256055,8.8702E-12,1166.81795071892,-1.17010948844858,8.65084152625488,-0.405934192882528
