time,gePosition_m_X,gePosition_m_Y,gePosition_m_Z,eiPosition_m_X,eiPosition_m_Y,eiPosition_m_Z,eiVelocity_m_s_X,eiVelocity_m_s_Y,eiVelocity_m_s_Z,eiAccel_m_s2_X,eiAccel_m_s2_Y,eiAccel_m_s2_Z,semiMajorAxis_m,gast_rad,eulerAngle_rad_Roll,eulerAngle_rad_Pitch,eulerAngle_rad_Yaw,eulerAngleWrtEi_rad_Roll,eulerAngleWrtEi_rad_Pitch,eulerAngleWrtEi_rad_Yaw,bodyAngularRateWrtEi_rad_s_Roll,bodyAngularRateWrtEi_rad_s_Pitch,bodyAngularRateWrtEi_rad_s_Yaw,altitudeMsl_m,airDensity_kg_m3,ambientTemperature_dgK,eiGravitation_m_s2_X,eiGravitation_m_s2_Y,eiGravitation_m_s2_Z
0.0,-1428622.33421605,4163200.23408807,5136049.85325658,-4292653.41,955168.470000001,5139356.57,109.64966300148,-7527.72649000027,1484.52148900137,5.52898656935719,-1.23026788740986,-6.61954989994584,6758662.11722982,1.02331933954551,0.0,-0.202458193231342,0.0,-2.47159390535496,-0.0371889644762902,-1.42899313488834,0.0,0.0,0.0,398254.54116932,3.4018E-12,990.9677734375,5.52898656935719,-1.23026788740986,-6.61954989994584
60.0,-1789712.66688801,3920255.07286153,5213136.77866225,-4276130.76360603,501640.150638707,5216447.94770985,440.899504427431,-7584.04304560393,1084.18939672429,5.50841669093311,-0.646201702281487,-6.719712406156,6758662.11722981,1.02769460895833,1.0E-15,-0.134388046685337,-2.0E-16,-2.47159390535496,-0.0371889644762902,-1.42899313488834,0.0,0.0,0.0,398336.992349355,3.2024E-12,984.492431640625,5.50841669093311,-0.646201702281487,-6.719712406156
120.0,-2144732.04662905,3662345.06425589,5266057.40817693,-4239785.46485052,45786.4492663021,5269357.68010088,770.149856362154,-7605.2077588941,678.777242700872,5.46236021841777,-0.058989324126963,-6.78881750197518,6758662.11722981,1.03206987837114,8.0E-16,-0.0663117980950702,-3.0E-16,-2.47159390535496,-0.0371889644762902,-1.42899313488834,0.0,0.0,0.0,398282.351312264,3.31E-12,992.429565429687,5.46236021841777,-0.058989324126963,-6.78881750197518
180.0,-2492166.13162718,3390598.74813122,5294563.01581385,-4183783.25764123,-410279.480789338,5297837.0895684,1095.87688043119,-7591.11290731518,270.1592543332,5.39101509822649,0.528665740843096,-6.82652947798967,6758662.11722984,1.03644514778395,3.0E-16,0.0017710140290111,-5.0E-16,-2.47159390535496,-0.0371889644762902,-1.42899313488834,0.0,0.0,0.0,398087.267115198,3.4386E-12,1001.05029296875,5.39101509822649,0.528665740843096,-6.82652947798967
240.0,-2830524.93703077,3106195.59239715,5298517.77706277,-4108380.89026428,-864442.894077582,5301750.47079932,1416.57209400392,-7541.81319429672,-139.774483846494,5.29469509567205,1.11405482451913,-6.8326557264296,6758662.11722987,1.04082041719676,5.0E-16,0.0698608210031927,-6.0E-16,-2.47159390535496,-0.0371889644762902,-1.42899313488834,0.0,0.0,0.0,397750.659501357,3.5884E-12,1010.26550292968,5.29469509567205,1.11405482451913,-6.8326557264296
300.0,-3158349.27065452,2810360.86253624,5277899.46242089,-4013924.98616862,-1314597.20057474,5281075.7837958,1730.74928790111,-7457.5256937731,-549.126655786194,5.17382866282707,1.69447627941298,-6.80714795491118,6758662.11722986,1.04519568660958,9.0E-16,0.137958021963591,-7.0E-16,-2.47159390535496,-0.0371889644762902,-1.42899313488834,0.0,0.0,0.0,397273.760669469,3.7594E-12,1019.95324707031,5.17382866282707,1.69447627941298,-6.80714795491118
360.0,-3474217.08356248,2504360.33240143,5232799.61189834,-3900850.50203059,-1758653.68795009,5235904.82755119,2036.95136094596,-7338.62906255893,-956.001393644212,5.0289572988201,2.26724769265309,-6.75010277495491,6758662.11722984,1.04957095602238,1.0E-15,0.206062982002869,-1.0E-16,-2.47159390535496,-0.0371889644762902,-1.42899313488834,0.0,0.0,0.0,396660.117186776,3.9509E-12,1029.97082519531,5.0289572988201,2.26724769265309,-6.75010277495491
420.0,-3776749.70791139,2189494.85846839,5163423.18837942,-3769678.77900081,-2194551.17459288,5166442.89226219,2333.75704093164,-7185.66202019759,-1358.51297383502,4.8607334037903,2.82971808104518,-6.66176165594942,6758662.11722984,1.0539462254352,-6.0E-16,0.274176030459384,-6.0E-16,-2.47159390535496,-0.0371889644762902,-1.42899313488834,0.0,0.0,0.0,395915.551844032,4.162E-12,1040.1689453125,4.8607334037903,2.82971808104518,-6.66176165594942
480.0,-4064617.95455067,1867094.84019274,5070087.71000333,-3621015.19485857,-2620265.54951372,5073007.89024537,2619.78746171101,-6999.32109896113,-1754.79449109273,4.66991762971271,3.37928001560925,-6.54251023745121,6758662.11722982,1.05832149484801,9.0E-16,0.342297459366975,-3.0E-16,-2.47159390535496,-0.0371889644762902,-1.42899313488834,0.0,0.0,0.0,395048.085877479,4.3915E-12,1050.40612792968,4.66991762971271,3.37928001560925,-6.54251023745121
540.0,-4336548.04310486,1538514.58951118,4953221.86403547,-3455546.42660893,-3033819.15548765,4956028.96803487,2893.71256636928,-6780.45766980717,-2143.00647189824,4.45737573340016,3.91338162296542,-6.39287699509382,6758662.11722981,1.06269676426082,6.0E-16,0.410427522072975,-1.5E-15,-2.47159390535496,-0.0371889644762902,-1.42899313488834,0.0,0.0,0.0,394067.822610533,4.6383E-12,1060.55859375,4.45737573340016,3.91338162296542,-6.39287699509382
600.0,-4591327.33761593,1205126.63283089,4813363.60702585,-3274037.33484955,-3433289.97225013,4816044.60446501,3154.25730682394,-6530.07425328243,-2521.34538840811,4.22407493918241,4.42953841007267,-6.21353125792628,6758662.11722981,1.06707203367362,-1.0E-15,0.478566432031296,-1.3E-15,-2.47159390535496,-0.0371889644762902,-1.42899313488834,0.0,0.0,0.0,392986.794192961,4.901E-12,1070.52355957031,4.22407493918241,4.42953841007267,-6.21353125792628
660.0,-4827809.86129808,868315.969071724,4651157.75838314,-3077327.48299857,-3816820.55719292,4653700.20187493,3400.20761071461,-6249.32012759444,-2888.05203397277,3.97107982105355,4.92534485815665,-6.00528057770799,6758662.11722982,1.07144730308643,-1.7E-15,0.546714361776774,-1.3E-15,-2.47159390535496,-0.0371889644762902,-1.42899313488834,0.0,0.0,0.0,391818.773731068,5.1781E-12,1080.21948242187,3.97107982105355,4.92534485815665,-6.00528057770799
720.0,-5044921.56455813,529474.307458965,4467353.0968242,-2866327.30620439,-4182626.70183835,4469745.17990494,3630.41608710393,-5939.48624933605,-3241.41972144849,3.6995477164527,5.3984857312233,-5.76906745354909,6758662.11722981,1.07582257249925,-1.8E-15,0.614871442086146,-1.3E-15,-2.47159390535496,-0.0371889644762902,-1.42899313488834,0.0,0.0,0.0,390579.055703467,5.4681E-12,1089.58361816406,3.6995477164527,5.3984857312233,-5.76906745354909
780.0,-5241665.32116445,189994.308806901,4262798.97147704,-2642013.94644313,-4529005.76339754,4265029.58367401,3843.80744331334,-5601.99950563128,-3579.80226580021,3.41072368628999,5.846747044375,-5.50596541829331,6758662.1172298,1.08019784191205,-2.2E-15,0.683037761330237,-8.0E-16,-2.47159390535496,-0.0371889644762902,-1.42899313488834,0.0,0.0,0.0,389284.208134281,5.7689E-12,1098.56665039062,3.41072368628999,5.846747044375,-5.50596541829331
840.0,-5417125.62830558,-148736.146016441,4038441.44171074,-2405426.77194258,-4854344.63194323,4040500.22042439,4039.38358616932,-5238.41631975566,-3901.62171297017,3.10593503833352,6.26802663725345,-5.21717449618125,6758662.1172298,1.08457311132487,-2.5E-15,0.751213365021135,-1.6E-15,-2.47159390535496,-0.0371889644762902,-1.42899313488834,0.0,0.0,0.0,387951.800540123,6.0783E-12,1107.12976074218,3.10593503833352,6.26802663725345,-5.21717449618125
900.0,-5570472.98726818,-485339.636897017,3795318.96202706,-2157662.60064273,-5157127.29514892,3797196.34098206,4216.2283820388,-4850.41563555417,-4205.37577765619,2.78658543361583,6.66034429835499,-4.90401604458825,6758662.1172298,1.08894838073768,-3.3E-15,0.819398255557208,-2.9E-15,-2.47159390535496,-0.0371889644762902,-1.42899313488834,0.0,0.0,0.0,386600.112168255,6.3938E-12,1115.24084472656,2.78658543361583,6.66034429835499,-4.90401604458825
960.0,-5700967.94258045,-818454.811245904,3534557.63056348,-1899870.64890283,-5435941.96416304,3536244.88459791,4373.51205128858,-4439.79130921397,-4489.64495351173,2.45414859808007,7.02185138672442,-4.56792699598553,6758662.11722981,1.09332365015049,-3.0E-15,0.887592392167986,-3.1E-15,-2.47159390535496,-0.0371889644762902,-1.42899313488834,0.0,0.0,0.0,385247.825488108,6.7121E-12,1122.87268066406,2.45414859808007,7.02185138672442,-4.56792699598553
1020.0,-5807964.75871303,-1146741.89376201,3257366.02191449,-1633247.22808599,-5689487.72599555,3258855.30789261,4510.49517421382,-4008.44394012673,-4753.09926035098,2.11016166424396,7.3508398986551,-4.21045351969878,6758662.11722979,1.0976989195633,2.07044936886E-5,0.955797199385904,1.1359996983E-6,-2.47157407475201,-0.0371897397278168,-1.42899458627587,1.9760186112E-6,1.507073051E-7,6.54869872E-8,383913.710274539,7.0298E-12,1130.00073242187,2.11016166424396,7.3508398986551,-4.21045351969878
1080.0,-5890914.71479886,-1468888.07664787,2965029.62706434,-1359030.21298284,-5916580.68979238,2966314.02071612,4626.53228704339,-3558.37217567503,-4994.50459422085,1.75621817018927,7.64575092852297,-3.833244126512,6758662.11722979,1.10207418897612,3.332472543538E-4,1.02403212606432,2.01542947957E-5,-2.47127701144065,-0.0372013477534623,-1.42901633039011,7.8991385105E-6,6.023947479E-7,2.618580625E-7,382616.303914798,7.3429E-12,1136.60229492187,1.75621817018927,7.64575092852297,-3.833244126512
1140.0,-5949368.99932619,-1783612.76826859,2658904.92522849,-1078493.30726906,-6116159.59655313,2659978.45373708,4721.07504834278,-3091.66352777447,-5212.72864768934,1.39396074566022,7.90518247477739,-3.43804224265474,6758662.11722981,1.10644945838892,0.0010295952372898,1.09230300267565,6.97576680083E-5,-2.4706235894955,-0.0372268460084327,-1.42906417377927,1.38222583952E-5,1.053873469E-6,4.584943442E-7,381373.593768841,7.6471E-12,1142.65649414062,1.39396074566022,7.90518247477739,-3.43804224265474
1200.0,-5982981.18836927,-2089672.67887428,2340413.11430863,-792940.132317241,-6287290.86420461,2341270.78448689,4793.67495799482,-2610.48474187501,-5406.74636939627,1.0250735174472,8.12789654440821,-3.0266782831849,6758662.1172298,1.11082472780174,0.0021256727956845,1.16060957664051,1.6463221012E-4,-2.4696138056707,-0.0372661562755788,-1.42913815018209,1.9745378213E-5,1.5049872326E-6,6.55594672E-7,380202.707502941,7.9378E-12,1148.142578125,1.0250735174472,8.12789654440821,-3.0266782831849
1260.0,-5991509.29264263,-2385866.72273105,2011033.52846714,-503698.166693226,-6429173.0424675,2011671.35038417,4843.98561293802,-2117.0717618468,-5575.64493381641,0.651274268515437,8.31282551191483,-2.60106125820555,6758662.11722982,1.11519999721455,0.0036496063086458,1.22895152959179,3.316943136973E-4,-2.46824765496858,-0.0373191576152776,-1.42923831152593,2.56684978442E-5,1.9555802492E-6,8.533578466E-7,379119.617287879,8.2104E-12,1153.04113769531,0.651274268515437,8.31282551191483,-2.60106125820555
1320.0,-5974817.36049393,-2671040.71682334,1672296.77300613,-212112.564553188,-6541140.65463567,1672711.77894626,4871.76448597487,-1613.71933672274,-5718.62819429183,0.274306387482386,8.45907769191743,-2.16316994869451,6758662.11722984,1.11957526662736,0.0056570260063272,1.2973284742309,6.25375161265E-4,-2.46652513066339,-0.037385686282497,-1.42936472765478,3.15916170731E-5,2.4054973668E-6,1.0519826138E-6,378138.863597871,8.4599E-12,1157.33276367187,0.274306387482386,8.45907769191743,-2.16316994869451
1380.0,-5932876.62587567,-2944091.85720568,1325777.60828453,80460.1180883177,-6622667.40621843,1325967.86694269,4876.87421621916,-1102.77031761807,-5835.0205946947,-0.104069352976453,8.56594208806514,-1.71504369194223,6758662.11722985,1.12395053604017,0.0082770071209768,1.36573994324196,0.0011735452497397,-2.4644462243337,-0.0374655356157351,-1.42951748596103,3.75147355589E-5,2.8545842622E-6,1.2516676472E-6,377273.304061287,8.6818E-12,1160.99865722656,-0.104069352976453,8.56594208806514,-1.71504369194223
1440.0,-5865766.19235209,-3203972.95508512,973087.615810202,372658.259633665,-6673368.74335947,973052.241650227,4859.28340212033,-586.604695273007,-5924.27051757332,-0.482083148433891,8.63289228480157,-1.25877281965125,6758662.11722988,1.12832580545299,0.0118961868673912,1.43418534201666,0.0023616151401759,-2.46201092590365,-0.0375584558989032,-1.42969669092085,4.3437852808E-5,3.3026876323E-6,1.4526115325E-6,376533.89239715,8.8718E-12,1164.02111816406,-0.482083148433891,8.63289228480157,-1.25877281965125
1500.0,-5773673.2462934,-3449696.41580367,615867.680893266,663121.541665112,-6693003.74703074,615606.838618438,4819.06689047255,-67.6284305439506,-5985.95304930521,-0.8579646038137,8.65958945282588,-0.79648879460925,6758662.11722988,1.13270107486579,0.018453652578016,1.50266360975928,0.0061274074649738,-2.45921922369335,-0.0376641541974484,-1.42990246353304,4.93609681449E-5,3.7496553846E-6,1.6550127509E-6,375929.491927716,9.0262E-12,1166.38513183593,-0.8579646038137,8.65958945282588,-0.79648879460925
1560.0,-5656892.79457463,-3680337.94506538,255780.32733092,950497.319820409,-6681476.35218942,255295.23143931,4756.40555737137,451.737868218218,-6019.7721456149,-1.22995122006694,8.64588444371054,-0.330354094470652,6758662.11722991,1.1370763442786,2.21281972794594,1.57014715153572,2.19733992686331,-2.45607110447878,-0.0377822941703231,-1.43013494066105,5.52840806852E-5,4.1953368288E-6,1.8590696628E-6,375466.727496531,9.1418E-12,1168.07775878906,-1.22995122006694,8.64588444371054,-0.330354094470652
1620.0,-5515826.92431864,-3895039.96800286,-105498.059496743,1233446.9662423,-6638835.88436261,-106205.150076057,4671.58557970691,969.070365639001,-6025.56218379864,-1.59629688216533,8.59181895408186,0.137448106466061,6758662.11722987,1.14145161369142,-3.13200661266076,1.5018683046239,3.13218206470637,-2.45256655356144,-0.0379124958596514,-1.43039427427782,6.12071893072E-5,4.6395828676E-6,2.0649804921E-6,375149.878855235,9.2164E-12,1169.08959960937,-1.59629688216533,8.59181895408186,0.137448106466061
1680.0,-5350983.58449322,-4093014.74799981,-466285.084013787,1510652.15305865,-6565276.90947368,-467210.876183916,4564.99719846155,1481.95346135608,-6003.28889111449,-1.95528030341509,8.49762574499268,0.604724404552086,6758662.1172299,1.14582688310422,-3.12443653316383,1.43329325598972,3.13587056389353,-2.44870555484843,-0.0380543354602286,-1.43068063061335,6.71302926252E-5,5.0822461873E-6,2.2729433103E-6,374980.817732372,9.2487E-12,1169.41369628906,-1.95528030341509,8.49762574499268,0.604724404552086
1740.0,-5162974.89147212,-4273547.19357661,-824900.228676118,1780821.0465073,-6461138.39612261,-826040.410291651,4437.13297779407,1987.99123663675,-5953.04964202476,-2.305213380668,8.36372790758603,1.06928172851027,6758662.11722989,1.15020215251704,-3.11903465777345,1.36468676238293,3.13702452135005,-2.44448809094316,-0.0382073450712454,-1.43099418920445,7.30533889623E-5,5.5231814487E-6,2.4831560209E-6,374958.989881892,9.2384E-12,1169.04760742187,-2.305213380668,8.36372790758603,1.06928172851027
1800.0,-4952514.96299125,-4435997.34309448,-1179672.74105793,2042694.38164054,-6326902.19296538,-1181022.00083346,4288.58556662272,2484.81882822846,-5875.07312029947,-2.64444941490565,8.19073717181097,1.52893793959841,6758662.11722987,1.15457742192984,-3.11390606661136,1.29605014537261,3.13753714370528,-2.43991414324734,-0.0383710124329346,-1.43133514184657,7.8976476324E-5,5.9622454775E-6,2.6958163435E-6,375081.442457379,9.186E-12,1167.9921875,-2.64444941490565,8.19073717181097,1.52893793959841
1860.0,-4720417.28725766,-4579802.51853144,-1528949.48167673,2295051.38802869,-6163190.82727995,-1530501.53379448,4120.04497214524,2970.11367207358,-5769.71834537841,-2.97139115191208,7.97945126076471,1.98153241327245,6758662.11722987,1.15895269134266,-3.10866920329717,1.22738437919257,3.13778812512711,-2.43498369207478,-0.0385447806510689,-1.4317036914472,8.48995523724E-5,6.3992974552E-6,2.9111217995E-6,375342.896092797,9.0932E-12,1166.25244140625,-2.97139115191208,7.97945126076471,1.98153241327245
1920.0,-4467591.63628386,-4704479.14113003,-1871102.69450299,2536715.53752984,-5970764.63424081,-1872850.30780658,3932.29535743536,3441.60655985056,-5637.47306582489,-3.28449859833384,7.73085029913984,2.42493654486376,6758662.11722987,1.16332796075546,-3.10319582898646,1.15869042013197,3.13790366931269,-2.42969671677749,-0.0387280479125268,-1.43210005078072,9.08226144005E-5,6.8341991089E-6,3.1292696964E-6,375735.860122572,8.9626E-12,1163.83740234375,-3.28449859833384,7.73085029913984,2.42493654486376
1980.0,-4195040.53481479,-4809624.20329167,-2204537.6623738,2766560.08600094,-5750518.22982727,-2206472.69401266,3726.21137791128,3897.0924519908,-5478.95152615897,-3.58229656935883,7.44609229019964,2.85706412166563,6758662.11722987,1.16770323016828,-3.09743013662638,1.08996925251743,3.13793734854346,-2.42405319588467,-0.0389201671954065,-1.4325244411443,9.67456593072E-5,7.2668149018E-6,3.3504571133E-6,376250.788468364,8.7974E-12,1160.76123046875,-3.58229656935883,7.44609229019964,2.85706412166563
2040.0,-3903855.29846613,-4894916.39270081,-2527700.21000992,2983513.38179147,-5503476.34364236,-2529813.6433772,3502.75407406079,4334.44099186391,-5294.8916168069,-3.86338192552467,7.12650768162922,3.27588150414145,6758662.1172299,1.17207849958109,-3.09141768198967,1.02122778002817,3.13792100886643,-2.4181323811183,-0.039117674253555,-1.43297113014858,9.87182930966E-5,7.3962997772E-6,3.4432177192E-6,376876.27288153,8.6015E-12,1157.04187011718,-3.86338192552467,7.12650768162922,3.27588150414145
2100.0,-3595211.65689571,-4960116.86627993,-2839084.01802184,3186563.91497946,-5230789.03119736,-2841366.00480764,3262.96634031021,4751.60666722064,-5086.15142032018,-4.12643045778773,6.77359304645672,3.67941755972481,6758662.11722989,1.1764537689939,-3.08538653899851,0.952485965920998,3.13788395136868,-2.41219165472954,-0.0393111791320302,-1.43342087184421,9.87181823446E-5,7.3752960384E-6,3.4707746466E-6,377599.269481812,8.3794E-12,1152.70239257812,-4.12643045778773,6.77359304645672,3.67941755972481
2160.0,-3270364.97996108,-5005069.67320759,-3137237.71217998,3374765.08257507,-4933726.28840113,-3139677.61834143,3007.96799231988,5146.63856672691,-4853.70517037598,-4.37020338193335,6.38900391094836,4.0657732938811,6758662.11722989,1.18082903840671,-3.0793506245029,0.883745947832888,3.13783092180509,-2.40625078909753,-0.0394999708750167,-1.4338721485913,9.87180553994E-5,7.3544028639E-6,3.4983221883E-6,378405.353891319,8.1356E-12,1147.77185058593,-4.37020338193335,6.38900391094836,4.0657732938811
2220.0,-2930645.12686725,-5029701.82785675,-3420771.69331258,3547239.64632322,-4613672.09406245,-3423358.14874328,2738.95045725718,5517.68968150269,-4598.638643343,-4.59355340567444,5.97454676689602,4.43313112473321,6758662.11722989,1.18520430781953,-3.0733067955746,0.815008394179129,3.13776369314308,-2.40030978817068,-0.0396840434216977,-1.43432492423813,9.87179123359E-5,7.3336202361E-6,3.5258603778E-6,379278.999742014,7.8751E-12,1142.283203125,-4.59355340567444,5.97454676689602,4.43313112473321
2280.0,-2577450.94026575,-5034023.03512376,-3688364.67447599,3703183.86127358,-4272117.90914854,-3691085.62613914,2457.17111372215,5863.02570398438,-4322.14400535984,-4.7954303343463,5.53217031097919,4.77976374961026,6758662.11722991,1.18957957723233,-3.06725261094873,0.746273975332234,3.13768317069926,-2.39436865593656,-0.0398633909486926,-1.43477916264267,9.87177532288E-5,7.3129481373E-6,3.5533892486E-6,380203.874943679,7.6026E-12,1136.27587890625,-4.7954303343463,5.53217031097919,4.77976374961026
2340.0,-2212244.40911237,-5018125.07221063,-3938769.8935098,3841871.25494707,-3910655.6643235,-3941612.66178236,2163.94730996243,6181.03327914015,-4025.51414089893,-4.97488618394073,5.06395595884187,5.10404255434038,6758662.11722988,1.19395484664514,-3.06118601567035,0.67754336073921,3.1375896834502,-2.38842739642082,-0.0400380078695373,-1.43523482767405,9.8717578152E-5,7.2923865498E-6,3.580908834E-6,381163.149840787,7.3228E-12,1129.79467773437,-4.97488618394073,5.06395595884187,5.10404255434038
2400.0,-1836544.52581784,-4982180.83248315,-4170820.97073258,3962656.03870022,-3530970.2699006,-4173772.30869239,1860.6500907985,6470.22766606672,-3710.1364916567,-5.1310797733034,4.57210768612795,5.40444551895297,6758662.11722988,1.19833011605796,-3.05510515335467,0.60881721604759,3.13748314307718,-2.38248601368599,-0.040207888834159,-1.43569188321404,9.87173871792E-5,7.271935456E-6,3.6084191677E-6,382139.811261025,7.0401E-12,1122.89013671875,-5.1310797733034,4.57210768612795,5.40444551895297
2460.0,-1451920.86482259,-4926443.03854445,-4383437.38334506,4064976.13476312,-3134831.68476348,-4386483.53871828,1548.69766527262,6729.25977125817,-3377.48643729605,-5.26328077061595,4.05894125292196,5.67956457665766,6758662.11722987,1.20270538547076,-3.04900824487125,0.540096200264977,3.13736313089185,-2.37654451183038,-0.0403730287283504,-1.43615029315847,9.87171803836E-5,7.2515948383E-6,3.6359202832E-6,383116.976459931,6.7585E-12,1115.61853027343,-5.26328077061595,4.05894125292196,5.67956457665766
2520.0,-1059986.91117939,-4851242.633133,-4575629.53007319,4148355.80438979,-2724086.58303043,-4578756.30954692,1229.54864842423,6956.9225183401,-3029.12025205139,-5.37087317276524,3.52687287180276,5.92811238649104,6758662.11722988,1.20708065488357,-3.042893502465,0.471380962974435,3.13722894230522,-2.37060289498692,-0.0405334226732171,-1.43661002141879,9.87169578381E-5,7.2313646793E-6,3.6634122142E-6,384078.201087883,6.4818E-12,1108.041015625,-5.37087317276524,3.52687287180276,5.92811238649104
2580.0,-662393.169030385,-4756986.85786254,-4746503.36169145,4212407.86460096,-2300649.6592375,-4749696.1972848,904.695111770009,7152.156522775,-2666.6676734697,-5.45335819983266,2.97840738300244,6.14892848383539,6758662.11722989,1.21145592429638,-3.03675906241554,0.402672141627501,3.13707960404415,-2.36466116732197,-0.0406890660246324,-1.43707103192344,9.87167196151E-5,7.2112449615E-6,3.6908949942E-6,385007.775536464,6.213E-12,1100.22448730468,-5.45335819983266,2.97840738300244,6.14892848383539
2640.0,-260820.081010188,-4644157.03116251,-4895264.55530392,4256835.4831028,-1866494.61459016,-4898508.57248122,575.655478021131,7314.05504394126,-2291.82412158807,-5.51035659067877,2.41612600294258,6.34098477707519,6758662.11722989,1.2158311937092,-3.03060292622696,0.33397035893726,3.1369138719395,-2.35871933303423,-0.0408399543726855,-1.43753328861935,9.87164657864E-5,7.1912356675E-6,3.718368657E-6,385891.004348819,5.955E-12,1092.23779296875,-5.51035659067877,2.41612600294258,6.34098477707519
2700.0,143029.209414745,-4513306.03804502,-5021222.21261144,4281433.54312112,-1423644.86836813,-5024502.29981322,243.967296297338,7441.86819103388,-1906.34260862543,-5.54161028941558,1.84267371467159,6.50339036292487,6758662.11722986,1.220206463122,-3.02442290376714,0.265276220395262,3.13673021302935,-2.35277739635354,-0.0409860835411042,-1.43799675547342,9.87161964237E-5,7.1713367799E-6,3.7458332363E-6,386714.463790346,5.71E-12,1084.15270996093,-5.54161028941558,1.84267371467159,6.50339036292487
2760.0,547436.219852129,-4365055.54550866,-5123792.06484313,4286089.57208114,-974164.039856677,-5127092.94410378,-88.8200654054303,7535.00636340089,-1512.02538078153,-5.54698351641283,1.26074637043652,6.63539563739238,6758662.11722988,1.22458173253482,-3.01821655339988,0.196590311938388,3.1365267732159,-2.34683536153972,-0.0411274495866881,-1.4384613964739,9.8715911598E-5,7.1515482815E-6,3.7732887658E-6,387466.233157487,5.4797E-12,1076.0390625,-5.54698351641283,1.26074637043652,6.63539563739238
2820.0,950674.581683364,-4200092.95848633,-5202499.169563,4270784.2302783,-520146.247213758,-5205805.46787955,-421.152773471707,7593.04291018084,-1110.71533498286,-5.52646322133731,0.673077577781572,6.73639568389018,6758662.11722984,1.22895700194763,-3.01198111473119,0.127913197795101,3.1363013299348,-2.34089323288142,-0.0412640487987223,-1.43892717563188,9.87156113801E-5,7.1318701551E-6,3.8007352792E-6,388136.095941471,5.2655E-12,1067.96179199218,-5.52646322133731,0.673077577781572,6.73639568389018
2880.0,1351017.54964659,-4019168.13224732,-5256980.0871619,4235591.35790864,-63706.2704615065,-5260276.40827512,-751.47989058989,7615.71599841144,-704.287254385773,-5.48015891953776,0.0824254411720424,6.80593292462391,6758662.11722982,1.23333227136044,-3.00571342946052,0.0592454185454001,3.13605122777147,-2.33495101469496,-0.0413958776983873,-1.43939405698271,9.87152958402E-5,7.1123023833E-6,3.8281728105E-6,388715.707548016,5.068E-12,1059.9794921875,-5.48015891953776,0.0824254411720424,6.80593292462391
2940.0,1746745.53411614,-3823089.85806874,-5286984.52749358,4180677.58104619,393030.373689568,-5290255.52374122,-1078.26070947623,7602.92968310351,-294.638907140203,-5.4083019168284,-0.508440768796418,6.84369902603248,6758662.11722981,1.23770754077325,-2.9994098450968,-0.0094125105641753,3.13577329338108,-2.32900871132314,-0.04152293303816,-1.43986200458746,9.87149650482E-5,7.0928449491E-6,3.8556013935E-6,389198.726891489,4.8876E-12,1052.13940429687,-5.4083019168284,-0.508440768796418,6.84369902603248
3000.0,2136153.62179094,-3612722.1397941,-5292376.45979672,4106301.47935572,847937.397214166,-5295606.90369916,-1399.972021946,7554.75417708677,116.31794666793,-5.3112439313538,-1.09675394701615,6.84953605367536,6758662.11722984,1.24208281018606,-2.99306609493277,-0.0780601009990448,3.13546372417257,-2.32306632713409,-0.0416452118012089,-1.44033098253429,9.87146190734E-5,7.0734978353E-6,3.883021062E-6,389580.909824934,4.7241E-12,1044.4765625,-5.3112439313538,-1.09675394701615,6.84953605367536
3060.0,2517559.05057918,-3388980.27959518,-5273134.68174308,4012812.32049824,1298897.69837099,-5276309.53698358,-1715.11528750485,7471.42532270194,526.666594838669,-5.18945512470914,-1.67976241571331,6.82343687652241,6758662.11722986,1.24645807959887,-2.98667714550327,-0.146696891942281,3.13511794271153,-2.31712386652009,-0.0417627112007716,-1.44080095493993,9.8714257985E-5,7.0542610251E-6,3.91043185E-6,389860.163024689,4.5771E-12,1037.01513671875,-5.18945512470914,-1.67976241571331,6.82343687652241
3120.0,2889308.60471891,-3152826.7918441,-5229352.84615137,3900648.36831284,1743813.26380487,-5232457.33761688,-2022.22366646447,7353.34327160774,934.494414718665,-5.04352155781059,-2.25474304739753,6.76554482505417,6758662.11722984,1.25083334901168,-2.98023699946361,-0.215322450839354,3.13473040528605,-2.31118133389641,-0.0418754286795444,-1.44127188595106,9.87138818514E-5,7.0351345013E-6,3.9378337913E-6,390036.55761489,4.4457E-12,1029.76928710937,-5.04352155781059,-2.25474304739753,6.76554482505417
3180.0,3249785.89659371,-2905267.16448557,-5161238.94658971,3770334.77392794,2180614.96792963,-5164258.62914348,-2319.8688836109,7201.07038306316,1337.90187216959,-4.87414209013627,-2.8190141817285,6.67615261188972,6758662.11722982,1.2552086184245,-2.97373843686957,-0.283936373361068,3.13429434797862,-2.30523873370013,-0.04198336190904,-1.44174373974573,9.87134907409E-5,7.0161182471E-6,3.9652269201E-6,390112.302485136,4.329E-12,1022.74633789062,-4.87414209013627,-2.8190141817285,6.67615261188972
3240.0,3597418.50228782,-2647345.48767426,-5069114.26574169,3622481.06095827,2607272.22311067,-5072035.09140583,-2606.66788965981,7015.32835500723,1735.01143396123,-4.68212474386578,-3.36994827147311,6.55570052778818,6758662.11722982,1.2595838878373,-2.96717267031869,-0.352538282614257,3.13380144596601,-2.29929607038897,-0.0420865087889518,-1.44221648053477,9.87130847212E-5,6.9972122456E-6,3.9926112702E-6,390091.677918715,4.226E-12,1015.95050048828,-4.68212474386578,-3.36994827147311,6.55570052778818
3300.0,3930684.91867075,-2380139.96970972,-4953411.79301687,3457778.21786942,3021802.43514015,-4956220.17625154,-2881.2892891058,6796.99460606819,2123.97635059548,-4.46838255711744,-3.90498419547426,6.40477392978714,6758662.11722982,1.26395915725012,-2.96052887781709,-0.421127827353108,3.13324135010639,-2.29335334844009,-0.0421848674465117,-1.44269007256318,9.87126638597E-5,6.97841648E-6,4.0199868757E-6,389980.930803388,4.1355E-12,1009.38500976562,-4.46838255711744,-3.90498419547426,6.40477392978714
3360.0,4248121.31069835,-2104758.36046116,-4814674.12043252,3276995.41243046,3422280.2196961,-4817357.00120821,-3142.45950459859,6547.09793026699,2502.98926768503,-4.23392895290154,-4.4216391796432,6.22410004191948,6758662.11722981,1.26833442666293,-2.95379355900303,-0.489704678823132,3.13260104659278,-2.28741057234898,-0.0422784362358329,-1.4431644801115,9.87122282231E-5,6.9597309335E-6,4.0473537708E-6,389788.133335886,4.0564E-12,1003.05456542968,-4.23392895290154,-4.4216391796432,6.22410004191948
3420.0,4548328.01865792,-1822333.30253304,-4653550.82826529,3080976.34491742,3806846.3368863,-4656095.73263618,-3388.96864964244,6266.81344961944,2870.29062534076,-3.97987265256474,-4.91752027037913,6.01454409236587,6758662.11722982,1.27270969607574,-2.94694963101079,-0.558268525674896,3.13186395607214,-2.28146774662821,-0.0423672137372482,-1.44363966749726,9.87117778781E-5,6.9411555896E-6,4.0747119894E-6,389523.007748705,3.9876E-12,996.966003417968,-3.97987265256474,-4.91752027037913,6.01454409236587
3480.0,4829975.79626356,-1534017.63037709,-4470795.37435844,2870635.25837041,4173716.30258833,-4473190.47225729,-3619.67608319907,5957.45689306862,3224.17680654872,-3.70741216438716,-5.39033530846443,5.77710481403399,6758662.11722983,1.27708496548855,-2.93997513174706,-0.626819066061888,3.13100864009542,-2.27552487580631,-0.0424511987566438,-1.4441155990763,9.87113128907E-5,6.9226904315E-6,4.1020615657E-6,389196.720177261,3.928E-12,991.128601074218,-3.70741216438716,-5.39033530846443,5.77710481403399
3540.0,5091811.75181277,-1240979.63741476,-4267261.50325968,2646952.62573548,4521188.63709424,-4269495.66324884,-3833.51562166441,5620.47823318163,3563.00799722381,-3.4178298796067,-5.83790335533689,5.51290933839378,6758662.11722984,1.28146023490136,-2.9328413157023,-0.695355995486353,3.13000690009917,-2.2695819644266,-0.0425303903247783,-1.44459223924413,9.87108333265E-5,6.9043354427E-6,4.1294025339E-6,388821.647338461,3.8765E-12,985.553405761718,-3.4178298796067,-5.83790335533689,5.51290933839378
3600.0,5332664.96603683,-944398.331001035,-4043899.19354678,2410970.5351356,4847652.71353842,-4045962.0342749,-4029.50038566694,5257.45471481108,3885.21572249446,-3.11248580948596,-6.25816452765392,5.22320751493186,6758662.11722985,1.28583550431417,-2.92550978169444,-0.763878987985733,3.12882090838344,-2.26363901704596,-0.0426047876966025,-1.44506955243738,9.87103392508E-5,6.8860906067E-6,4.1567349281E-6,388411.120199549,3.8322E-12,980.25341796875,-3.11248580948596,-6.25816452765392,5.22320751493186
3660.0,5551451.76180906,-645458.694734239,-3801750.16376462,2163787.79580677,5151596.17071617,-3803632.10189489,-4206.7272611863,4870.08331244332,4189.31002578281,-2.79281099810801,-6.64918920019273,4.90936569081073,6758662.11722985,1.29021077372699,-2.91792800471496,-0.83238766647007,3.12739874331758,-2.25769603823371,-0.0426743903505628,-1.44554750313507,9.87098307284E-5,6.8679559071E-6,4.1840587826E-6,387979.149269779,3.7938E-12,975.241333007812,-2.79281099810801,-6.64918920019273,4.90936569081073
3720.0,5747180.60250228,-345346.977212923,-3541942.95933849,1906554.78840266,5431611.85717345,-3543635.25373136,-4364.38095659731,4460.1726552271,4473.88625937863,-2.4603006463968,-7.00918654133008,4.57285998723076,6758662.11722986,1.29458604313979,-2.91002213129287,-0.900881554600079,3.12566718824752,-2.25175303257045,-0.0427391979879158,-1.44602605586,9.87093078237E-5,6.8499313275E-6,4.2113741316E-6,387540.13653524,3.7605E-12,970.530517578125,-2.4603006463968,-7.00918654133008,4.57285998723076
3780.0,5918956.59750338,-45246.0258542518,-3265687.64463944,1640468.08441049,5686404.27584929,-3267182.43659099,-4501.73763939219,4029.63446069472,4737.63145744513,-2.11650698341549,-7.3365123495735,4.21526911059791,6758662.11722986,1.29896131255261,-2.90168486040688,-0.969359995672874,3.12351961619188,-2.24581000464685,-0.0427992105320027,-1.4465051751801,9.87087706007E-5,6.8320168516E-6,4.2386810093E-6,387108.579369358,3.7313E-12,966.132507324218,-2.11650698341549,-7.3365123495735,4.21526911059791
3840.0,6065985.5951861,253669.316168207,-2974270.12605051,1366764.86033039,5914795.5010678,-2975560.47540646,-4618.16813850795,3580.47451995315,4979.33026472144,-1.7630319213144,-7.62967616383446,3.83826673790465,6758662.11722984,1.30333658196542,-2.89275399718634,-1.03782200906522,3.12079454762618,-2.23986695906248,-0.042854428127551,-1.44698482570976,9.87082191229E-5,6.8142124631E-6,4.2659794501E-6,386698.771976371,3.705E-12,962.057983398437,-1.7630319213144,-7.62967616383446,3.83826673790465
3900.0,6187577.84550372,550236.73242989,-2669046.13341498,1086717.13304975,6115730.54228949,-2670126.05039999,-4713.14070037189,3114.78327863511,5197.87039658278,-1.40151953039481,-7.88734762430433,3.4436135167478,6758662.11722982,1.30771185137822,-2.88297207333162,-1.10626602010913,3.11723527534726,-2.23392390042471,-0.0429048511399495,-1.44746497211117,9.87076534535E-5,6.7965181458E-6,4.2932694883E-6,386324.510052524,3.6808E-12,958.315002441406,-1.40151953039481,-7.88734762430433,3.4436135167478
3960.0,6283151.21628236,843310.858450325,-2351434.88863379,801625.843491181,6288282.13172865,-2352299.36125572,-4786.2232889638,2634.72605916594,5392.24760856848,-1.03364837064162,-8.10836206488603,3.03314872114656,6758662.11722981,1.31208712079104,-2.87190417596914,-1.17468931075859,3.11240769819991,-2.22798083334747,-0.0429504801545224,-1.44794557909562,9.87070736552E-5,6.7789338837E-6,4.3205511582E-6,385998.804370673,3.6578E-12,954.908752441406,-1.03364837064162,-8.10836206488603,3.03314872114656
4020.0,6352233.94926092,1131767.59355974,-2022912.49141807,512814.81612989,6431654.91570848,-2023557.50832804,-4837.08542236645,2142.53297092406,5561.57015597339,-0.661123715775903,-8.2917253221181,2.60878160480685,6758662.11722983,1.31646239020385,-2.85875303466671,-1.24308678384299,3.10551541346494,-2.22203776245013,-0.0429913159757957,-1.44842661142484,9.87064797903E-5,6.7614596607E-6,4.3478244941E-6,385733.608901181,3.635E-12,951.841796875,-0.661123715775903,-8.2917253221181,2.60878160480685
4080.0,6394466.94392852,1414508.28419952,-1685005.05329138,221624.622363176,6545189.03244509,-1685427.622001,-4865.49954042589,1640.48855566109,5705.06272660556,-0.285669705406528,-8.43661774937913,2.17248249371884,6758662.11722984,1.32083765961666,-2.8418822018323,-1.31144777615541,3.09492290321438,-2.21609469235634,-0.0430273596267526,-1.4489080339123,9.87058719209E-5,6.7440954608E-6,4.3750895306E-6,385539.568870543,3.6116E-12,949.112976074218,-0.285669705406528,-8.43661774937913,2.17248249371884
4140.0,6409605.55924418,1690463.76424394,-1339281.6118741,-70593.6240262131,6628363.06181179,-1339479.77225325,-4871.34190025932,1130.92121610797,5822.06983232761,0.0909785397619023,-8.54239742885921,1.72627365999735,6758662.11722986,1.32521292902947,-2.8173189478121,-1.3797460438866,3.07665843604346,-2.21015162769287,-0.0430586123480887,-1.44938981142451,9.87052501082E-5,6.726841268E-6,4.4023463019E-6,385425.793828685,3.587E-12,946.717895507812,0.0909785397619023,-8.54239742885921,1.72627365999735
4200.0,6397520.9253768,1958598.23878844,-987346.858270244,-362484.510937868,6680796.33552138,-987319.691270026,-4854.59299842447,616.192476037958,5912.05864751011,0.467082805459251,-8.60860257731694,1.27222001869925,6758662.11722986,1.32958819844228,-2.77229363436188,-1.44789644142103,3.03795344796102,-2.20420857308844,-0.0430850755974608,-1.44987190888233,9.87046144135E-5,6.7096970667E-6,4.4295948426E-6,385399.660346603,3.5604E-12,944.6474609375,0.467082805459251,-8.60860257731694,1.27222001869925
4260.0,6358200.75967155,2217912.99873385,-630833.711013626,-652694.583167519,6702250.59906626,-630581.342581158,-4815.33752059088,98.6861201944381,5974.62128501881,0.8409096407744,-8.63495314499078,0.81241968900003,6758662.11722984,1.33396346785509,-2.63175439988755,-1.51539253642616,2.90375723595866,-2.1982655331726,-0.0431067510487203,-1.45035429126221,9.87039648973E-5,6.6926628408E-6,4.4568351871E-6,385466.648407366,3.5312E-12,942.88916015625,0.8409096407744,-8.63495314499078,0.81241968900003
4320.0,6291749.68311816,2467449.95440942,-271395.770519415,-939878.580491666,6692631.01965921,-270919.370692764,-4753.76382152615,-419.202737566289,6009.47650282679,1.21073815208285,-8.62135161020031,0.348994460608326,6758662.11722982,1.33833873726791,-0.466734631141144,-1.55101246013036,0.74510443908988,-2.19232251257457,-0.0431236405911424,-1.45083692359753,9.87033016199E-5,6.6757385749E-6,4.4840673699E-6,385630.214892078,3.4991E-12,941.42626953125,1.21073815208285,-8.62135161020031,0.348994460608326
4380.0,6198389.0356665,2706294.97740054,89300.3116720859,-1222705.63057431,6651986.53731292,89998.5344787073,-4670.16294012327,-935.078609809672,6016.47083677639,1.57486770261072,-8.56788297514817,-0.115919794338592,6758662.11722981,1.34271400668071,0.119841660586546,-1.486738821905,0.164920425270353,-2.18637951592209,-0.0431357463286653,-1.45131977097981,9.87026246412E-5,6.6589242531E-6,4.5112914254E-6,385891.70681649,3.4638E-12,940.241882324218,1.57486770261072,-8.56788297514817,-0.115919794338592
4440.0,6078456.19079231,2933581.04068928,449582.514375553,-1499865.36898642,6580509.55907048,450499.323864641,-4564.92715604502,-1446.55656704249,5995.57915740888,1.93162548734818,-8.4748139712225,-0.580182724398875,6758662.11722977,1.34708927609353,0.197514182016855,-1.41884756060275,0.0936669607588337,-2.1804365478403,-0.0431430705791015,-1.45180279856002,9.87019340205E-5,6.6422198601E-6,4.5385073884E-6,386250.316157911,3.4255E-12,939.332275390625,1.93162548734818,-8.4748139712225,-0.580182724398875
4500.0,5932403.37175866,3148491.1481629,807781.144426386,-1770073.95907722,6478534.99924503,808912.291635041,-4438.54809634498,-1951.273098102,5946.90465112494,2.27937395414437,-8.34259148470279,-1.04165907830278,6758662.11722978,1.35146454550634,0.231019559776041,-1.35066906905081,0.0666090219574136,-2.17449361295058,-0.0431456158733477,-1.45228597154979,9.87012298169E-5,6.6256253801E-6,4.5657152932E-6,386703.07724997,3.3843E-12,938.692749023437,2.27937395414437,-8.34259148470279,-1.04165907830278
4560.0,5760795.97403908,3350261.04549347,1162236.5160783,-2032079.98498978,6346538.67133145,1163576.75924712,-4291.61440214103,-2446.89685302695,5870.67822823238,2.61651804295964,-8.17184021620262,-1.49822822301649,6758662.11722979,1.35583981491915,0.251645694750799,-1.28241289742707,0.052460456691323,-2.16855071586946,-0.0431433849545965,-1.45276925522268,9.87005120889E-5,6.6091407979E-6,4.5929151745E-6,387244.906834364,3.3407E-12,938.314392089843,2.61651804295964,-8.17184021620262,-1.49822822301649
4620.0,5564310.40036066,3538181.70534386,1511306.57789944,-2284670.19176755,6185135.04001182,1512849.70689776,-4124.80896706357,-2931.13922289189,5767.25736267527,2.94151221640818,-7.96335958944404,-1.94779356358061,6758662.1172298,1.36021508433196,0.266794297776206,-1.21412801429342,0.043821466434787,-2.16260786120743,-0.0431363807775376,-1.45325261491541,9.86997808948E-5,6.5927660981E-6,4.6201070669E-6,387868.685971114,3.2951E-12,938.183410644531,2.94151221640818,-7.96335958944404,-1.94779356358061
4680.0,5343731.41678382,3711601.58079911,1853374.45328635,-2526675.0472498,5995074.34437757,1855113.31847907,-3938.9057607779,-3401.76471208537,5637.12437041756,3.25286725588301,-7.71811992707034,-2.38829182890033,6758662.11722981,1.36459035374478,0.27911622694375,-1.14583158024738,0.0380432895984584,-2.15666505356789,-0.0431246065075533,-1.4537360160291,9.86990362923E-5,6.5765012653E-6,4.647291005E-6,388565.382143281,3.2481E-12,938.281433105468,3.25286725588301,-7.71811992707034,-2.38829182890033
4740.0,5099949.04015803,3869928.62185828,2186855.86119717,-2756974.10129709,5777239.10612954,2188782.40661877,-3734.76625238855,-3856.60105963538,5480.88413557353,3.54915679871022,-7.43725791317639,-2.81770218867616,6758662.11722981,1.36896562315758,0.289795871158189,-1.07753094268948,0.0339438417356702,-2.15072229754599,-0.0431080655199008,-1.45421942403046,9.86982783388E-5,6.5603462845E-6,4.6744670235E-6,389324.209073303,3.2001E-12,938.5830078125,3.54915679871022,-7.43725791317639,-2.81770218867616
4800.0,4833954.96916985,4012632.05074903,2510206.384312,-2974501.11882012,5532640.03908433,2512311.68499446,-3513.33544997142,-4293.54906742187,5299.26129543554,3.82902359292116,-7.12207136408721,-3.23405516768845,6758662.11722982,1.37334089257039,0.299442326382066,-1.00922959587792,0.0309165668173497,-2.14477959772753,-0.0430867613989017,-1.45470280445301,9.86975070911E-5,6.5443011404E-6,4.7016351569E-6,390132.821016061,3.1515E-12,939.053466796875,3.82902359292116,-7.12207136408721,-3.23405516768845
4860.0,4546838.57303108,4139243.89274019,2821928.55255719,-3178248.96410148,5262411.37880526,2824202.85584031,-3275.63757385099,-4710.59209446128,5093.0968975455,4.09118544735927,-6.77401333066193,-3.63544132467636,6758662.1172298,1.37771616198321,0.308401260505868,-0.940929266874599,0.0286186043539076,-2.13883695868785,-0.0430606979371217,-1.45518612289829,9.86967226059E-5,6.528365818E-6,4.7287954401E-6,390977.537626632,3.104E-12,939.736633300781,4.09118544735927,-6.77401333066193,-3.63544132467636
4920.0,4239782.45363512,4249360.26002312,3120578.71077659,-3367274.21499624,4967805.65358196,3123011.4814116,-3022.7713825432,-5105.80517789431,4863.34454389181,4.3344408559488,-6.39468555706063,-4.02001966407798,6758662.11722979,1.38209143139601,0.316883827056979,-0.872630779195978,0.0268419130274116,-2.13289438499073,-0.0430298791345292,-1.45566934503705,9.86959249393E-5,6.5125403023E-6,4.7559479076E-6,391843.5949326,3.0595E-12,940.698364257812,4.3344408559488,-6.39468555706063,-4.02001966407798
4980.0,3914057.59873305,4342642.38711371,3404773.64029333,-3540701.48676998,4650187.92029939,3407353.60913413,-2755.90517152194,-5477.36374285303,4611.06603918626,4.55767427604698,-5.98583132250082,-4.38602574991811,6758662.11722977,1.38646670080883,0.325026686626314,-0.804334456481279,0.0254532930327834,-2.1269518811873,-0.0429943091976743,-1.45615243661042,9.8695114147E-5,6.4968245784E-6,4.7830925942E-6,392715.417482367,3.0195E-12,941.989990234375,4.55767427604698,-5.98583132250082,-4.38602574991811
5040.0,3571018.14534454,4418817.41708778,3673196.90517686,-3697727.44657808,4311029.49095716,3675912.12123738,-2476.27146613953,-5823.55186502079,4337.42656198839,4.7598610418822,-5.54932769406832,-4.73177949214515,6758662.11722976,1.39084197022164,0.332922581921954,-0.73604032965104,0.0243638625516075,-2.12100945181495,-0.0429539925388426,-1.45663536343109,9.86942902842E-5,6.4812186315E-6,4.8102295347E-6,393576.906397862,2.9856E-12,943.658325195312,4.7598610418822,-5.54932769406832,-4.73177949214515
5100.0,3212095.77422097,4477678.93880162,3924604.8952079,-3837624.50090302,3951901.17772055,3927442.7808493,-2185.16143113929,-6142.77005142781,4043.68937919579,4.94007189515118,-5.08717722014707,-5.05569257672882,6758662.11722975,1.39521723963445,0.340637055560562,-0.667748251638488,0.0235124009057034,-2.11506710139624,-0.0429089337752153,-1.45711809138448,9.86934534059E-5,6.4657224468E-6,4.8373587638E-6,394411.737835225,2.9591E-12,945.747497558593,4.94007189515118,-5.08717722014707,-5.05569257672882
5160.0,2838793.75770924,4519087.27606978,4157832.538815,-3959744.13964476,3574466.08639721,4160779.94781251,-1883.91902024147,-6433.54250684368,3731.21012611019,5.09747711591648,-4.60149909551073,-5.35627551184181,6758662.11722974,1.39959250904726,0.348218133652386,-0.599457965235792,0.0228557374099529,-2.10912483443784,-0.0428591377280073,-1.45760058642987,9.86926035666E-5,6.4503360097E-6,4.8644803163E-6,395203.666247901,2.9415E-12,948.302368164062,5.09747711591648,-4.60149909551073,-5.35627551184181
5220.0,2452680.68482555,4542969.53056973,4371798.6606374,-4063519.92199771,3180471.99013575,4374841.93886384,-1573.93489026385,-6694.5238550341,3401.43067591927,5.23135023801626,-4.09451983058595,-5.63214426346591,6758662.11722974,1.40396777846008,0.355702213745708,-0.531169145668892,0.0223629499731667,-2.10318265542941,-0.0428046094216248,-1.45808281460159,9.86917408203E-5,6.4350593055E-6,4.8915942269E-6,395936.826849471,2.9341E-12,951.368103027343,5.23135023801626,-4.09451983058595,-5.63214426346591
5280.0,2055383.88873447,4549319.38101574,4565510.95984519,-4148470.0907431,2771743.31692651,4568636.0082966,-1256.64010515268,-6924.50528614445,3055.87262400248,5.34107133428295,-3.56856345886652,-5.88202645479721,6758662.11722972,1.40834304787288,0.363117799719923,-0.462881428865592,0.0220117341746053,-2.09724056884262,-0.0427453540827974,-1.4585647420101,9.86908652207E-5,6.4198923197E-6,4.9187005306E-6,396596.031779748,2.9383E-12,954.992248535156,5.34107133428295,-3.56856345886652,-5.88202645479721
5340.0,1648582.60313125,4538196.64189754,4738070.58691704,-4214199.80313419,2350172.78614719,4741262.92679517,-933.499656148964,-7122.42010355547,2696.13041397555,5.42612985797278,-3.0260413179328,-6.10476710488411,6758662.11722973,1.4127183172857,0.370487964461208,-0.394594431302358,0.021786066221381,-2.09129857913,-0.0426813771397047,-1.45904633484315,9.8689976821E-5,6.404835038E-6,4.945799262E-6,397167.05467914,2.9556E-12,959.22314453125,5.42612985797278,-3.0260413179328,-6.10476710488411
5400.0,1234000.87524516,4509726.58580663,4888676.29823266,-4260402.96814883,1917712.73093072,4891921.13778969,-606.005825097017,-7287.34864572798,2323.8641338292,5.48612702794748,-2.46944144102157,-6.29933388302862,6758662.11722973,1.41709358669851,0.377832035985213,-0.326307764751495,0.0216746695818355,-2.08535669072395,-0.042612684221124,-1.45952755936688,9.86890756741E-5,6.3898874459E-6,4.972890456E-6,397636.898661258,2.9874E-12,964.109558105468,5.48612702794748,-2.46944144102157,-6.29933388302862
5460.0,813400.26431232,4464099.03407701,5016628.16957908,-4286863.68152608,1476366.14453401,5019910.47242194,-275.671418614609,-7418.52256081583,1940.79201189197,5.5207777463307,-1.9013175975957,-6.46482185662914,6758662.1172297,1.42146885611132,0.38516679832834,-0.258021047895112,0.0216700010642706,-2.07941490803569,-0.0425392811555353,-1.46000838192696,9.86881618325E-5,6.3750495291E-6,4.9999741476E-6,397994.04303223,3.0351E-12,969.695678710937,5.5207777463307,-1.9013175975957,-6.46482185662914
5520.0,388572.355401563,4401567.22114841,5121330.85149171,-4293457.25168644,1028177.49014966,5124635.40603641,55.9770985163864,-7515.32841417854,1548.68264365011,5.52991203859761,-1.32427802288245,-6.60045771135441,6758662.11722973,1.42584412552413,0.39250738577831,-0.189733916031327,0.0217675870614162,-2.07347323545419,-0.0424611739702515,-1.46048876894961,9.86872353482E-5,6.3603212735E-6,5.0270503715E-6,398228.664525366,3.1004E-12,976.016357421875,5.52991203859761,-1.32427802288245,-6.60045771135441
5580.0,-38668.8805867108,4322446.43871618,5202296.35124898,-4280150.81135388,575223.314721736,5205607.84100971,387.406541815798,-7577.31061136859,1149.34698168588,5.51347600735737,-0.74097387787784,-6.70560342382885,6758662.1172297,1.43021939493695,0.399867984947891,-0.121446029685763,0.0219656077477543,-2.06753167734517,-0.0423783688905277,-1.46096868694278,9.86862962727E-5,6.3457026649E-6,5.0541191627E-6,398332.829291556,3.1845E-12,983.088562011718,5.51347600735737,-0.74097387787784,-6.70560342382885
5640.0,-466494.849094271,4227112.46636447,5259146.32830891,-4247003.51144833,119602.708296877,5262449.40270252,717.083988020976,-7604.17362170528,744.630122144108,5.47153229246231,-0.15408748284485,-6.77975936839206,6758662.11722966,1.43459466434975,0.40726242225244,-0.0531570827158842,0.0222646680946537,-2.06159023805008,-0.0422908723386721,-1.46144810249714,9.86853446574E-5,6.3311936893E-6,5.0811805561E-6,398300.652399888,3.2886E-12,990.9013671875,5.47153229246231,-0.15408748284485,-6.77975936839206
5700.0,-893070.183874688,4115999.79598738,5291613.89201103,-4194166.29559398,-336572.348743475,5294893.23735456,1043.48376864755,-7595.78349017283,336.402922198336,5.40426003153836,0.433679631145325,-6.8225668409854,6758662.11722968,1.43896993376255,0.414704693345619,0.0151331896155477,0.0226677213428259,-2.05564892188506,-0.0421986909331557,-1.46192698228721,9.8684380553E-5,6.3167943328E-6,5.1082345865E-6,398128.422150081,3.4136E-12,999.409851074218,5.40426003153836,0.433679631145325,-6.8225668409854
5760.0,-1316560.65577194,3989599.65788607,5299544.89246392,-4121881.2553868,-791186.707568893,5302785.30284123,1365.09444608174,-7552.16862809996,-73.4465160421865,5.31195431658264,1.01961880658277,-6.8338099848282,6758662.11722964,1.44334520317537,0.42220948013071,0.0834250021537313,0.0231801296599054,-2.04970773313996,-0.0421018314877039,-1.46240529307237,9.86834040099E-5,6.3025045815E-6,5.1352812889E-6,397814.687072047,3.5598E-12,1008.53063964843,5.31195431658264,1.01961880658277,-6.8338099848282
5820.0,-1735141.10483061,3848457.85698819,5282898.69769017,-4030480.56837837,-1242131.79841442,5286085.14536378,1680.4257418787,-7473.51987588394,-483.021458875433,5.19502514392409,1.60102643229635,-6.81341710428772,6758662.11722961,1.44772047258818,0.429792697150351,0.151718510474778,0.0238098622061817,-2.04376667607734,-0.0420003010104007,-1.46288300169793,9.86824150782E-5,6.2883244215E-6,5.1623206983E-6,397360.304082191,3.7273E-12,1018.14721679687,5.19502514392409,1.60102643229635,-6.81341710428772
5880.0,-2147003.361894,3693172.4281688,5241748.45230099,-3920385.02255638,-1687315.35991639,5244866.15734626,1988.01538683103,-7360.18983391481,-890.425214529768,5.0539958565996,2.17521615574218,-6.76146135523255,6758662.11722959,1.45209574200099,0.437472111314061,0.22001380004224,0.0245678456689953,-2.03782575493145,-0.0418941067027778,-1.46336007509616,9.86814138074E-5,6.2742538392E-6,5.1893528496E-6,396768.446874191,3.9154E-12,1028.11889648437,5.0539958565996,2.17521615574218,-6.76146135523255
5940.0,-2550364.12561062,3524391.1201589,5176280.81521546,-3792102.13292903,-2124671.10632027,5179315.31405717,2286.43586237048,-7212.69146082895,-1293.76982915562,4.88950108005823,2.7395310845959,-6.67816080219447,6758662.11722958,1.4564710114138,0.445268087246359,0.288310873140479,0.0254684991369146,-2.03188497390728,-0.041783255958904,-1.46383648028729,9.86804002467E-5,6.260292821E-6,5.2163777777E-6,396044.574242167,4.1232E-12,1038.296875,4.88950108005823,2.7395310845959,-6.67816080219447
6000.0,-2943472.76066716,3342808.71800722,5086795.17621677,-3646223.85764391,-2552168.28865044,5089732.38875211,2574.30100297858,-7031.69594127052,-1691.18476705843,4.70228415407751,3.29135592624168,-6.56387783485931,6758662.11722955,1.46084628082662,0.45320452657358,0.356609632532982,0.026530506999596,-2.02594433717958,-0.041667756364466,-1.46431218438056,9.86793744448E-5,6.2464413534E-6,5.2433955177E-6,395196.358659387,4.3498E-12,1048.53771972656,4.70228415407751,3.29135592624168,-6.56387783485931
6060.0,-3324618.9831014,3149164.21451408,4973702.35344208,-3483423.92288503,-2967821.10615534,4976528.64843966,2850.27242951736,-6818.02982845595,-2080.8255365666,4.49319406585146,3.8281290126875,-6.41911793876339,6758662.11722958,1.46522155023942,0.46131009653681,0.424909860324341,0.0277779146267841,-2.0200038488919,-0.041547615695853,-1.46478715457521,9.86783364503E-5,6.2326994228E-6,5.2704061045E-6,394233.576063965,4.5938E-12,1058.71362304687,4.49319406585146,3.8281290126875,-6.41911793876339
6120.0,-3692140.39872903,2944237.84147913,4837522.77622539,-3304454.76758653,-3369697.9247543,4840225.03469676,3113.06578375338,-6572.67147001291,-2460.88222269586,4.26318189138983,4.34735415753886,-6.2445278175927,6758662.11722959,1.46959681965224,0.469619887548614,0.493211189756191,0.0292416786164515,-2.0140635131556,-0.0414228419192328,-1.46526135816144,9.8677286311E-5,6.2190670159E-6,5.2974095731E-6,393167.958428417,4.854E-12,1068.71887207031,4.26318189138983,4.34735415753886,-6.2445278175927
6180.0,-4044429.86104491,2728847.97199903,4678884.16004466,-3110144.12077161,-3755930.25981728,4681449.83629329,3361.45673484447,-6296.74672878952,-2829.58788769462,4.01329675464249,4.84661229095986,-6.04089286716278,6758662.11722961,1.47397208906505,0.478177711704718,0.561513066455589,0.0309618777917071,-2.00812333404894,-0.0412934431896151,-1.46573476252144,9.86762240744E-5,6.2055441195E-6,5.3244059586E-6,392013.011308144,5.1289E-12,1078.46813964843,4.01329675464249,4.84661229095986,-6.04089286716278
6240.0,-4379942.61543406,2503847.90541446,4498518.6826564,-2901391.22605985,-4124721.48140795,4500935.86271867,3594.28672919421,-5991.52401358921,-3185.22680064407,3.74468131612507,5.32357281807312,-5.80913400399599,6758662.11722961,1.47834735847786,0.487039374806139,0.629814693645535,0.0329909131072405,-2.00218331561615,-0.0411594278499355,-1.46620733513034,9.86751497879E-5,6.1921307204E-6,5.351395296E-6,390783.799167214,5.4169E-12,1087.89575195312,3.74468131612507,5.32357281807312,-5.80913400399599
6300.0,-4697203.19715852,2270122.5468363,4297259.6728218,-2679162.72957994,-4474355.20111625,4299517.13002576,3810.46845585797,-5658.40863806761,-3526.1424575508,3.45856680525754,5.77600464602549,-5.55030385439659,6758662.1172296,1.48272262789067,0.496277460444816,0.698114952400738,0.0353982316697849,-1.99624346186645,-0.041020804430107,-1.46667904355715,9.86740634981E-5,6.1788268054E-6,5.3783776203E-6,389496.701862042,5.7161E-12,1096.95056152343,3.45856680525754,5.77600464602549,-5.55030385439659
6360.0,-4994812.05136965,2028584.99347722,4076037.82532889,-2444488.24916624,-4803203.30079962,4078125.07270879,4008.99100061206,-5298.93652931393,-3850.74535381625,3.15626761312319,6.20178682500562,-5.26558231304512,6758662.11722958,1.48709789730349,0.505988528306679,0.766412281986891,0.0382774744469381,-1.99030377677318,-0.0408775816460915,-1.46714985546573,9.86729652513E-5,6.1656323616E-6,5.4053529666E-6,388169.146213872,6.0243E-12,1105.59167480468,3.15626761312319,6.20178682500562,-5.26558231304512
6420.0,-5271451.84433457,1780173.04027768,3835876.95828211,-2198455.64429943,-5109733.56494127,3837784.29760063,4188.92466287579,-4914.76731091284,-4157.52047160576,2.83917546489344,6.59891874886871,-4.95627148337269,6758662.11722956,1.49147316671629,0.516304295660682,0.834704494234376,0.04175761462366,-1.98436426427287,-0.0407297683989543,-1.46761973861572,9.86718550936E-5,6.152547376E-6,5.4323213698E-6,386819.317109807,6.339E-12,1113.78637695312,2.83917546489344,6.59891874886871,-4.95627148337269
6480.0,-5525893.43616265,1525845.61753911,3577889.33085461,-1942206.00776415,-5392516.87991956,3579607.89799938,4349.42541090773,-4507.67678852404,-4445.03444547492,2.50875319372378,6.96552986172744,-4.62379001531508,6758662.11722956,1.4958484361291,0.527409649813839,0.902988474623196,0.0460209328033887,-1.97842492826434,-0.0405773737739186,-1.46808866086349,9.86707330704E-5,6.1395718357E-6,5.4592828652E-6,385465.853027027,6.6572E-12,1121.50646972656,2.50875319372378,6.96552986172744,-4.62379001531508
6540.0,-5757001.48656931,1266579.17346275,3303270.54186537,-1676928.40143006,-5650233.9652604,3304792.34840274,4489.73895208257,-4079.54886920502,-4711.94237064939,2.16652814048643,7.2998888179302,-4.26966685946334,6758662.11722955,1.50022370554192,0.539572923844371,0.971259679724967,0.0513332601032176,-1.9724857726078,-0.0404204070394174,-1.468556590163,9.8669599227E-5,6.1267057281E-6,5.4862374876E-6,384127.531262798,6.9754E-12,1128.72729492187,2.16652814048643,7.2998888179302,-4.26966685946334
6600.0,-5963739.66661965,1003364.01464037,3013294.03164221,-1403854.35990948,-5881681.60391224,3014612.0023283,4609.20439659335,-3632.36694881624,-4956.99421959896,1.81408520624124,7.60041204428529,-3.89553446009432,6758662.11722955,1.50459897495472,0.553199426386003,1.03951124799619,0.058097478895001,-1.96654680112399,-0.0402588776461475,-1.46902349456676,9.8668453608E-5,6.1139490405E-6,5.5131852724E-6,382822.948461051,7.2896E-12,1135.42553710937,1.81408520624124,7.60041204428529,-3.89553446009432
6660.0,-6145175.45095185,737200.617645724,2709305.21164988,-1124252.1870936,-6085778.34073428,2710413.21771725,4707.25749461268,-3168.20480486359,-5179.04083400056,1.45305958683248,7.86567165522013,-3.50312141305499,6758662.11722954,1.50897424436754,0.568932100154453,1.10773232582121,0.0669541550447447,-1.9606080175933,-0.0400927952261115,-1.46948934222671,9.86672962579E-5,6.1013017603E-6,5.5401262544E-6,381570.202240099,7.5957E-12,1141.57983398437,1.45305958683248,7.86567165522013,-3.50312141305499
6720.0,-6300484.46668409,469095.92493692,2392715.24828643,-839421.071713421,-6261569.62071754,2393608.13634416,4783.43342878255,-2689.21703502632,-5377.03946084752,1.08512922140741,8.09440267379569,-3.094244617953,6758662.11722955,1.51334951378035,0.587855929538332,1.17590466279794,0.0789859212710167,-1.95466942575489,-0.0399221695916588,-1.46995410139507,9.86661272204E-5,6.0887638751E-6,5.5670604688E-6,380386.579834727,7.8891E-12,1147.16979980468,1.08512922140741,8.09440267379569,-3.094244617953
6780.0,-6428954.37705451,200059.63829785,2064994.52907032,-550685.049100422,-6408232.34095652,2065668.14547516,4837.36914587983,-2197.62908436678,-5550.05880333323,0.712006988955907,8.28550951413657,-2.67080095754278,6758662.11722957,1.51772478319316,0.611956230865655,1.24399496040976,0.096175744634127,-1.94873102930588,-0.0397470107345323,-1.47041774042524,9.86649465393E-5,6.0763353724E-6,5.5939879507E-6,379288.259656788,8.1651E-12,1152.17541503906,0.712006988955907,8.28550951413657,-2.67080095754278
6840.0,-6529988.27982606,-68899.4769841648,1727665.84114018,-259386.837228506,-6525078.79304703,1728117.05171771,4868.80521361631,-1695.72690679482,-5697.28355921176,0.33543268913821,8.43807168388547,-2.23475854055235,6758662.1172296,1.52210005260597,0.645292181201123,1.3119352060843,0.122580433486272,-1.94279283190045,-0.039567328824906,-1.47088022777267,9.86637542576E-5,6.0640162399E-6,5.6209087353E-6,378290.031544574,8.4189E-12,1156.57739257812,0.33543268913821,8.43807168388547,-2.23475854055235
6900.0,-6603107.60259772,-336777.264083564,1382297.29355987,33118.4241051847,-6611559.97539282,1382523.99857613,4877.58719076914,-1185.84630874215,-5818.0184216105,-0.0428351543261685,8.55134866874121,-1.78814754743631,6758662.11722964,1.52647532201879,0.697627442911481,1.37956141112173,0.167961240646649,-1.93685483714907,-0.039383134210413,-1.47134153199568,9.8662550418E-5,6.0518064655E-6,5.6478228575E-6,377405.041206921,8.6458E-12,1160.3564453125,-0.0428351543261685,8.55134866874121,-1.78814754743631
6960.0,-6647954.47939307,-602577.809745951,1030495.01634893,325469.501464847,-6667268.25784681,1030496.16065524,4863.66650118936,-670.362025164343,-5911.69151973274,-0.421027627622688,8.62478396498383,-1.33305072162599,6758662.11722968,1.53085059143159,0.799505603442225,1.44635514591652,0.262859281804523,-1.93091704861765,-0.0391944374151897,-1.47180162175631,9.86613350628E-5,6.0397060371E-6,5.6747303527E-6,376644.563972282,8.8415E-12,1163.49499511718,-0.421027627622688,8.62478396498383,-1.33305072162599
7020.0,-6664293.59523596,-865317.029717498,673895.670433368,616305.433336212,-6691939.38417897,673671.248730111,4827.10080469041,-151.676579909921,-5977.85727952976,-0.797373856478763,8.65800823010752,-0.871593551741011,6758662.11722969,1.53522586084441,1.10756082874654,1.5095212059839,0.563906167167236,-1.92497946982671,-0.0390012491388964,-1.47226046582115,9.86601082341E-5,6.0277149425E-6,5.7016312558E-6,376017.812429447,9.0021E-12,1165.97741699218,-0.797373856478763,8.65800823010752,-0.871593551741011
7080.0,-6652013.48785981,-1124026.19189154,314158.803823369,904271.902728577,-6685453.80103599,313709.861011354,4768.05386036102,367.791015847132,-6016.19868723155,-1.17010948844436,8.6508415262535,-0.405934192890793,6758662.1172297,1.53960113025722,2.58470741456426,1.53366459340468,2.03401353012849,-1.91904210425064,-0.0388035802557522,-1.47271803306213,9.86588699733E-5,6.01583317E-6,5.728525602E-6,375531.781903478,9.1244E-12,1167.7900390625,-1.17010948844436,8.6508415262535,-0.405934192890793
