time,gePosition_m_X,gePosition_m_Y,gePosition_m_Z,eiPosition_m_X,eiPosition_m_Y,eiPosition_m_Z,eiVelocity_m_s_X,eiVelocity_m_s_Y,eiVelocity_m_s_Z,eiAccel_m_s2_X,eiAccel_m_s2_Y,eiAccel_m_s2_Z,semiMajorAxis_m,gast_rad,eulerAngle_rad_Roll,eulerAngle_rad_Pitch,eulerAngle_rad_Yaw,eulerAngleWrtEi_rad_Roll,eulerAngleWrtEi_rad_Pitch,eulerAngleWrtEi_rad_Yaw,bodyAngularRateWrtEi_rad_s_Roll,bodyAngularRateWrtEi_rad_s_Pitch,bodyAngularRateWrtEi_rad_s_Yaw,altitudeMsl_m,airDensity_kg_m3,ambientTemperature_dgK,eiGravitation_m_s2_X,eiGravitation_m_s2_Y,eiGravitation_m_s2_Z
0.0,-1436381.48862739,4185811.47756286,5163944.85376219,-4315967.73999999,960356.199999999,5167269.52999999,129.091036999934,-7491.51385500013,1452.51565399991,5.46941408349184,-1.21701227670638,-6.54822705894005,6759053.07578977,1.02331933954551,0.0,-0.202458193231342,-1.0E-16,-2.47159390556422,-0.0371889647578316,-1.42899313520438,0.0,-0.0011222300308759,0.0,434991.318347183,2.193E-13,680.286743164062,5.46941408349184,-1.21701227670638,-6.54822705894005
60.0,-1794950.05296065,3943125.78856612,5239239.79605635,-4298383.75497048,509016.725547931,5242568.01441598,456.873453273712,-7547.42173400805,1056.41305957735,5.45257924198935,-0.645697124724756,-6.65029442684516,6759053.07578975,1.02769460895833,-2.2750061794E-6,-0.202436783828032,-9.84487685196E-5,-2.47206607824363,0.0155466178887672,-1.38711810684692,-6.889681762E-7,-0.0011222532661293,-3.2320060674E-6,433095.695597609,2.097E-13,675.233276367187,5.45257924198935,-0.645697124724756,-6.65029442684516
120.0,-2147547.18523093,3685626.96521056,5290617.76797841,-4261177.84165865,55353.9685751973,5293934.33527935,782.910113090132,-7568.91571402689,655.073376703439,5.41122605044222,-0.0702934371387039,-6.72271293263918,6759053.07578976,1.03206987837114,-2.42825708918E-5,-0.202369870585316,-3.917225418881E-4,-2.47036918236636,0.0681368922645227,-1.34502342270417,-1.5312796172E-6,-0.0011222708984525,-6.4730960665E-6,430907.148544603,2.336E-13,681.212768554687,5.41122605044222,-0.0702934371387039,-6.72271293263918
180.0,-2492684.26106042,3414408.64931455,5317818.15938755,-4204498.84971832,-398561.363029105,5321107.91929482,1105.73160265976,-7555.82484024798,250.289448678895,5.34542737930091,0.506714568945595,-6.76503834979502,6759053.07578977,1.03644514778395,-8.88788480464E-5,-0.202253579343404,-8.755368756219E-4,-2.46648040124619,0.120488900731505,-1.30247694504749,-2.5267489489E-6,-0.0011222824822178,-9.7225565903E-6,428431.767841657,2.631E-13,687.71142578125,5.34542737930091,0.506714568945595,-6.76503834979502
240.0,-2828892.49737323,3130615.38183372,5320688.59130997,-4128583.6023506,-850652.794750099,5323936.49262932,1423.87589009511,-7508.12814381691,-156.122774234479,5.25535668534844,1.08281296502147,-6.77694529983119,6759053.07578977,1.04082041719676,-2.189462580697E-4,-0.202084270209752,-0.0015440559121022,-2.46035043731537,0.172506195541919,-1.25924234324566,-3.6751558662E-6,-0.0011222875139329,-1.29796679603E-5,425678.487876936,2.992E-13,694.664428710937,5.25535668534844,1.08281296502147,-6.77694529983119
300.0,-3154729.04319163,2835438.15525896,5299186.08634122,-4033756.27141946,-1298847.13301984,5302377.25117308,1735.89440574255,-7425.95617001209,-562.331476724362,5.14128947640577,1.65546667848249,-6.75823092102598,6759053.07578975,1.04519568660958,-4.372873205504E-4,-0.201858572963917,-0.0023899189106174,-2.45190316744339,0.224086882820293,-1.21507577828388,-4.9762446327E-6,-0.0011222854328043,-1.62437036877E-5,422659.101192719,3.428E-13,701.982238769531,5.14128947640577,1.65546667848249,-6.75823092102598
360.0,-3468783.07647878,2530109.78695854,5253377.79833675,-3920427.3852626,-1741083.58875551,5256497.58980595,2040.35820270599,-7309.59197714171,-966.496434167882,5.0036045124876,2.2221285704879,-6.70881831891691,6759053.07578975,1.04957095602238,-7.665166166431E-4,-0.201573419623714,-0.0034042743633546,-2.44103502602688,0.275121545439179,-1.16972271525887,-6.4297235175E-6,-0.0011222756213739,-1.95139299424E-5,419388.234300673,3.954E-13,709.558715820312,5.0036045124876,2.2221285704879,-6.70881831891691
420.0,-3769681.88461013,2215900.12426178,5183441.28898943,-3789092.46488669,-2175322.94417954,5186475.37826282,2335.8641804251,-7159.47157516559,-1366.77666753674,4.84278469880814,2.78024903500315,-6.62875974533587,6759053.07578977,1.0539462254352,-0.0012289512389045,-0.201226073388769,-0.0045768215602475,-2.427614234676,0.325490996803045,-1.1229149289347,-8.0352641744E-6,-0.001122257406226,-2.27896050307E-5,415883.284005347,4.581E-13,717.282104492187,4.84278469880814,2.78024903500315,-6.62875974533587
480.0,-4056096.90457647,1894111.0930593,5089664.33987088,-3640330.28534663,-2599556.72836462,5092598.77217131,2621.04135141866,-6976.18377266992,-1761.33827945778,4.65941762361247,3.32728612084415,-6.51823944782055,6759053.07578979,1.05832149484801,-0.0018465001495317,-0.200814153233667,-0.0058958594130871,-2.41148005705154,0.375063823826,-1.07436783250934,-9.7925009626E-6,-0.0011222300587692,-2.60699788847E-5,412164.313847469,5.325E-13,725.045166015625,4.65941762361247,3.32728612084415,-6.51823944782055
540.0,-4326749.69756451,1566071.60277223,4972444.28970022,-3474800.76038683,-3011816.36506654,4975265.54902238,2894.55712842803,-6760.46940100285,-2148.36244979975,4.45419569213639,3.86071616874283,-6.37757612704766,6759053.07578975,1.06269676426082,-0.0026405529322274,-0.200335653496436,-0.00734834229939,-2.39244234606589,0.423693688943502,-1.02377835404097,-1.17010302132E-5,-0.0011221927960906,-2.93542925643E-5,408253.910812623,6.201E-13,732.752563476562,4.45419569213639,3.86071616874283,-6.37757612704766
600.0,-4580417.83115437,1233132.32171001,4832286.88801513,-3293242.44987753,-3410182.25455717,4834981.96024698,3155.12360624465,-6513.21988517543,-2526.05356531135,4.22791580717378,4.37804494470851,-6.20722493659356,6759053.07578976,1.06707203367362,-0.0036318684862499,-0.199788957897621,-0.0089199426403727,-2.37028177813782,0.471216381785377,-0.97082371791721,-1.37604094424E-5,-0.0011221447818862,-3.26417777731E-5,404177.003021075,7.227E-13,740.324340820312,4.22791580717378,4.37804494470851,-6.20722493659356
660.0,-4815940.64104647,896660.338080296,4669804.658067,-3096469.69121065,-3792792.74938626,4672361.09221991,3401.50380953292,-6235.47513259881,-2892.64745381795,3.98147854685288,4.87681923940823,-6.00777895699354,6759053.07578976,1.07144730308643,-0.0048404642712047,-0.199172847529861,-0.0105951198857503,-2.34475134534414,0.517446646872312,-0.915161669930259,-1.5970156515E-5,-0.0011220851274667,-3.59316563923E-5,399960.639716737,8.419E-13,747.696350097656,3.98147854685288,4.87681923940823,-6.00777895699354
720.0,-5032224.84301553,558033.723222628,4485714.7636538,-2885369.35762982,-4157852.98232742,4488120.73090508,3632.51787502517,-5928.42071290886,-3246.41968936133,3.71588679137416,5.3546388910838,-5.77997007487537,6759053.07578977,1.07582257249925,-0.0062855067658781,-0.198486502475759,-0.0123571955422549,-2.31557990732136,0.562174872220014,-0.85643292002409,-1.83297487604E-5,-0.0011220128928399,-3.92231400306E-5,395633.735506254,9.796E-13,754.81787109375,3.71588679137416,5.3546388910838,-5.77997007487537
780.0,-5228249.96471964,218636.014987865,4280836.37674414,-2660897.24845206,-4503643.50324199,4283080.72699816,3847.04913363254,-5593.3843050563,-3585.69393050877,3.43224375272007,5.80916917685298,-5.52466919802597,6759053.07578974,1.08019784191205,-0.007985203851562,-0.197729496841167,-0.0141884338529385,-2.28247888538458,0.605163814937689,-0.794266861327282,-2.08386220449E-5,-0.0011219270878713,-4.25154295964E-5,391226.781452781,1.1376E-12,761.648376464843,3.43224375272007,5.80916917685298,-5.52466919802597
840.0,-5403073.56610134,-120149.359440599,4056087.54513499,-2424074.11828713,-4828528.68027276,4058159.86081253,4044.05005535286,-5231.83139153668,-3908.8502499464,3.13175036476531,6.23815350431988,-5.24288573872319,6759053.07578974,1.08457311132487,-0.0099566998683321,-0.19690178712923,-0.0160701277106809,-2.24515348060585,0.646145674519911,-0.728291926759179,-2.34961698023E-5,-0.0011218266735233,-4.58077148897E-5,386771.526296642,1.3174E-12,768.155639648437,3.13175036476531,6.23815350431988,-5.24288573872319
900.0,-5555836.21643855,-456944.700614714,3812481.5620167,-2175981.35466126,-5130964.8197019,3814372.20878815,4222.54801743492,-4845.36018410733,-4214.33340949302,2.81570199583594,6.63942632249608,-4.93576630063446,6759053.07578974,1.08894838073768,-0.012215974119732,-0.196003694025171,-0.0179826893721434,-2.20332003622369,0.684820010513562,-0.658152186030309,-2.63017420273E-5,-0.0011217105631744,-4.9099174219E-5,382300.631741324,1.5205E-12,774.312377929687,2.81570199583594,6.63942632249608,-4.93576630063446
960.0,-5685766.19566932,-790383.671759208,3551122.8421833,-1917756.31588993,-5409507.95802195,3552823.0163684,4381.65085415029,-4435.69577058027,-4500.66103091707,2.48548445159959,7.01092615837821,-4.60459250912232,6759053.07578975,1.09332365015049,-0.0147777436162028,-0.195035877809893,-0.0199057455266692,-2.15673118556019,0.720853236005455,-0.583531809127806,-2.92546442357E-5,-0.0011215776240189,-5.23889740428E-5,377847.306394059,1.7476E-12,780.094970703125,2.48548445159959,7.01092615837821,-4.60459250912232
1020.0,-5792183.88745712,-1119116.92826509,3273202.31270563,-1650587.34359684,-5662821.2793199,3274704.0850722,4520.55214480202,-4004.68347826536,-4766.43160950607,2.14256924320599,7.35070867343735,-4.25077793095599,6759053.07578976,1.0976989195633,-0.0176553708494589,-0.193999307768782,-0.0218182362680008,-2.10520997012265,0.75388067514489,-0.504188567954452,-3.23541363932E-5,-0.0011214266785479,-5.56762686388E-5,373444.923565332,1.9992E-12,785.482604980468,2.14256924320599,7.35070867343735,-4.25077793095599
1080.0,-5874505.8316123,-1441817.71721154,2979992.32915882,-1375708.46691859,-5889682.11100619,2981288.68486423,4638.53619533495,-3554.28145632447,-5010.33231432357,1.78850810379331,7.65695962306263,-3.87586403721865,6759053.07578976,1.10207418897612,-0.0208607773783134,-0.192895226107623,-0.023698517513881,-2.04869282986093,0.783512381766033,-0.419996266825948,-3.55994318197E-5,-0.001121256506113,-5.89601998013E-5,369126.628690648,2.2748E-12,790.455688476562,1.78850810379331,7.65695962306263,-3.87586403721865
1140.0,-5932248.40396631,-1757187.42128327,2672841.13193517,-1094393.81813835,-6088988.45127267,2673926.0063678,4734.98266817236,-3086.55248662182,-5231.14651659026,1.42492674575693,7.9280075919861,-3.48151517260016,6759053.07578974,1.10644945838892,-0.0244043639813916,-0.19172510702655,-0.0255244664182845,-1.98727892943154,0.809343946923127,-0.330993555863374,-3.89896960712E-5,-0.0011210658445726,-6.22398965699E-5,364924.942617451,2.573E-12,794.996459960937,1.42492674575693,7.9280075919861,-3.48151517260016
1200.0,-5965031.09263161,-2063961.0204902,2353166.86074485,-807951.78222117,-6259764.98247261,2354035.17103884,4809.3708147511,-2603.65504053768,-5427.76098573778,1.05351786143355,8.16233637022407,-3.06951250520707,6759053.07578974,1.11082472780174,-0.0282949380938999,-0.190490611732492,-0.0272735893219893,-1.92127965189565,0.830973189444975,-0.237432950097949,-4.25240458042E-5,-0.0011208533920225,-6.55144749904E-5,360871.367376528,2.8911E-12,799.087890625,1.05351786143355,8.16233637022407,-3.06951250520707
1260.0,-5972579.34078809,-2360912.44430451,2022451.14907149,-517718.905444607,-6401168.52591212,2023098.82108572,4861.28326571473,-2107.83360754959,-5599.1726914962,0.676033380940568,8.3585968274163,-2.64174694339377,6759053.07578975,1.11519999721455,-0.03253964919517,-0.18919354028705,-0.0289231317876543,-1.85125793778184,0.848022739806402,-0.139819724599666,-4.62015476286E-5,-0.0011206178086096,-6.87830379101E-5,356996.001307613,3.2253E-12,802.71484375,0.676033380940568,8.3585968274163,-2.64174694339377
1320.0,-5954726.92773199,-2646859.78623667,1682232.3240617,-225053.590988746,-6512492.89534939,1682656.31463411,4890.40933489854,-1601.40833005966,-5744.4951499699,0.294276012649872,8.5156181389253,-2.20021101976292,6759053.07578975,1.11957526662736,-0.0371439327523378,-0.187835781287236,-0.0304501902643074,-1.77804420032107,0.860167042473534,-0.0389274096258781,-5.00212169517E-5,-0.0011203577184307,-7.20446748079E-5,353327.170512208,3.5706E-12,805.862670898437,0.294276012649872,8.5156181389253,-2.20021101976292
1380.0,-5911417.86190767,-2920670.35250865,1334098.24103969,68670.388071431,-6593173.10883248,1334296.5553503,4896.54779513273,-1086.76398782076,-5862.96425210164,-0.0899098960439799,8.63241821494401,-1.74698975719487,6759053.07578976,1.12395053604017,-0.0421114632544907,-0.186419260458033,-0.0318318249218413,-1.70271633160932,0.867160476900343,0.0642226056146748,-5.39820168201E-5,-0.0011200717115162,-7.52984616636E-5,349891.083544612,3.9202E-12,808.517700195312,-0.0899098960439799,8.63241821494401,-1.74698975719487
1440.0,-5842707.76201869,-3181265.51636918,979678.785495996,362070.525485063,-6642788.9213752,979650.489396018,4879.60908652041,-566.338384237353,-5953.94351427937,-0.474648127619721,8.70821318437822,-1.28425054729495,6759053.07578975,1.12832580545299,-0.0474441167931585,-0.184945889295863,-0.0330451731876334,-1.62653780796554,0.868861794102009,0.168423357959417,-5.8082856764E-5,-0.0011197583458982,-7.85434608645E-5,346711.516012048,4.2665E-12,810.66845703125,-0.474648127619721,8.70821318437822,-1.28425054729495
1500.0,-5748764.70507542,-3427625.34975377,620638.078947721,653762.333106508,-6661067.64437289,620383.306138327,4839.61692122072,-42.6101956259154,-6016.9286931429,-0.858040930629458,8.7424257885967,-0.814232087701491,6759053.07578976,1.13270107486579,-0.053141943560776,-0.183417514938485,-0.0340675635042306,-1.55085947040964,0.865249751236869,0.272380913371907,-6.23225916494E-5,-0.0011194161497629,-8.17787211537E-5,343809.531330672,4.601E-12,812.305358886718,-0.858040930629458,8.7424257885967,-0.814232087701491
1560.0,-5629869.52336302,-3658793.00444601,258666.428449614,942366.169550518,-6647886.22158205,258186.382421725,4776.70925286992,481.913646959112,-6051.55170992152,-1.23817984887063,8.73469254639493,-0.33923244095219,6759053.07578974,1.1370763442786,-0.0592031505508855,-0.181835872448124,-0.0348766288087835,-1.47700288106431,0.856426257264283,0.374831392248168,-6.67000205427E-5,-0.0011190436236879,-8.50032776202E-5,341203.24327534,4.9143E-12,813.421752929687,-1.23817984887063,8.73469254639493,-0.33923244095219
1620.0,-5486415.53578602,-3873878.81565195,-104527.937309148,1226514.10726217,-6603272.53590886,-105230.98663338,4691.13858357769,1004.71096567008,-6057.58383388097,-1.6131569578655,8.68486956074333,0.138403706297038,6759053.07578974,1.14145161369142,-0.0656240946546346,-0.180202540679326,-0.0354504192119443,-1.40615005221496,0.842606241150006,0.474651624952395,-7.12138855959E-5,-0.0011186392429631,-8.82161517327E-5,338907.625176887,5.1971E-12,814.013671875,-1.6131569578655,8.68486956074333,0.138403706297038
1680.0,-5318907.70283338,-4072064.10196761,-467227.299514566,1504856.79757912,-6527405.92613761,-468150.024467164,4583.27158689284,1523.25764850278,-6034.93807965507,-1.98107641258756,8.59303685005654,0.616298489342089,6759053.07578971,1.14582688310422,-0.0723992862593334,-0.178518902860937,-0.0357675133267059,-1.33926191530031,0.824096689024277,0.570941074910615,-7.58628709544E-5,-0.0011182014599939,-9.14163514178E-5,336934.369677485,5.4404E-12,814.079711914062,-1.98107641258756,8.59303685005654,0.616298489342089
1740.0,-5127961.19846999,-4252604.63710667,-827713.000002454,1776070.29224583,-6420616.89803707,-828851.029178777,4453.58803117798,2035.04117494639,-5983.67077934528,-2.34006620120455,8.45950110171639,1.09205490778312,6759053.07578971,1.15020215251704,-0.0795214033684854,-0.176786112952504,-0.035807127667779,-1.27703754443154,0.801269526247008,0.66306301919234,-8.06456016971E-5,-0.0011177287067876,-9.46028711854E-5,335291.801877309,5.6364E-12,813.62158203125,-2.34006620120455,8.45950110171639,1.09205490778312
1800.0,-4914299.39655301,-4414833.77045378,-1184274.06081493,2038862.77910036,-6283386.01995753,-1185621.99837088,4302.67899438522,2537.5742573486,-5903.98229721834,-2.68828999193664,8.28479676321313,1.56327134180493,6759053.07578974,1.15457742192984,-0.0869813161804151,-0.175005068740128,-0.0355492235107551,-1.21991346562423,0.774533512118537,0.750645659900569,-8.55606428118E-5,-0.0011172193975191,-9.77746923004E-5,333984.847524749,5.7783E-12,812.643432617187,-2.68828999193664,8.28479676321313,1.56327134180493
1860.0,-4678751.27384593,-4558165.17550896,-1535215.82035343,2291981.18932057,-6116341.99901003,-1536767.27052198,4131.24436818579,3028.40849620822,-5796.21686253404,-3.02395895420346,8.06968540625756,2.02755640834877,6759053.07578974,1.15895269134266,-0.0947681219856199,-0.173176392516831,-0.034974610569983,-1.16809304626976,0.744309269513849,0.833553176361052,-9.06064982134E-5,-0.0011166719311766,-1.009307830035E-4,333015.056656231,5.8618E-12,811.152648925781,-3.02395895420346,8.06968540625756,2.02755640834877
1920.0,-4422248.23629444,-4682095.20758264,-1878868.53272237,2534217.63371055,-5920258.9401296,-1880616.12944746,3940.08965666534,3505.14794437962,-5660.86150437821,-3.34534343126686,7.81515332120982,2.48254401346343,6759053.07578974,1.16332796075546,-0.102869190172456,-0.17130042004968,-0.0340650468268213,-1.12159245945939,0.711009786108076,0.911840228048157,-9.57816098115E-5,-0.0011160846942841,-1.04070098782E-4,332380.681819496,5.8842E-12,809.158569335937,-3.34534343126686,7.81515332120982,2.48254401346343
1980.0,-4145820.37988572,-4786204.85465363,-2213595.87615339,2764415.62604313,-5696052.7966883,-2215531.31770622,3730.12208223059,3965.4624733144,-5498.54408123171,-3.65078433973371,7.52240732274083,2.92590844975395,6759053.07578974,1.16770323016828,-0.111270217067082,-0.16937719837306,-0.0328033338185516,-1.08029113015645,0.675027009088123,0.985702005833671,-1.010843566311E-4,-0.0011154560636993,-1.0719158269E-4,332076.808759336,5.8457E-12,806.674194335937,-3.65078433973371,7.52240732274083,2.92590844975395
2040.0,-3850592.20205967,-4870161.26810221,-2537803.31623867,2981476.05245768,-5444777.0277561,-2539917.40464891,3502.34601885066,4407.10083405632,-5310.03040722926,-3.93870417168056,7.19286877230347,3.35537938303019,6759053.07578974,1.17207849958109,-0.119955290277158,-0.167406492767832,-0.0311734066850494,-1.04397840465045,0.63672396973979,1.05542809470913,-1.065130539961E-4,-0.0011147844094836,-1.102941657206E-4,332095.536249174,5.7485E-12,803.714721679687,-3.93870417168056,7.19286877230347,3.35537938303019
2100.0,-3537777.78422289,-4933718.86302897,-2849946.2701005,3184362.84734188,-5167617.48351955,-2852228.95520334,3257.85778014113,4827.90330679555,-5096.22048649195,-4.20761747785808,6.82816584821416,3.76875657018304,6759053.07578973,1.1764537689939,-0.128906962159324,-0.165387803093322,-0.0291604182682081,-1.01239222235207,0.596431295828008,1.12136437344418,-1.120659527786E-4,-0.0011140680978425,-1.1337676723E-4,332426.200653684,5.5969E-12,800.298950195312,-4.20761747785808,6.82816584821416,3.76875657018304
2160.0,-3208675.47035564,-4976719.98104165,-3148538.01859032,3372108.33799309,-4865886.54666889,-3150978.44645977,2997.83979695335,5225.81383539419,-4858.14387638676,-4.4561407154227,6.4301241193643,4.16392415109812,6759053.07578973,1.18082903840671,-0.138106331987486,-0.163320389437449,-0.0267508165700324,-0.98524863083598,0.554446854213127,1.18388411461636,-1.177412387224E-4,-0.0011133054941318,-1.164382954131E-4,333055.639842116,5.3973E-12,796.448364257812,-4.4561407154227,6.4301241193643,4.16392415109812
2220.0,-2864662.07094026,-4999095.11168756,-3432157.31514138,3543818.22264014,-4541016.56366419,-3434743.88065134,2723.55422591881,5598.89154739982,-4596.95420990149,-4.68300135086086,6.0007555032205,4.53886436109809,6759053.07578973,1.18520430781953,-0.147533136361529,-0.161203306844334,-0.0239324149014183,-0.962262811519427,0.511037414113799,1.24336762160394,-1.235370318447E-4,-0.001112494965928,-1.194776478336E-4,333968.490267013,5.1571E-12,792.189208984375,-4.68300135086086,6.0007555032205,4.53886436109809
2280.0,-2507186.62541316,-5000862.67208415,-3699455.64198124,3698676.14908531,-4194552.60560046,-3702176.04520908,2436.3360366892,5945.32156561514,-4313.92291635232,-4.88704611808615,5.54224571226041,4.89167051694562,6759053.07578971,1.18957957723233,-0.157165847363186,-0.159035448673201,-0.0206944540962367,-0.943163104125334,0.466441471373082,1.30018891773362,-1.294513859247E-4,-0.0011116348861572,-1.224937120052E-4,335147.510398958,4.8847E-12,787.550537109375,-4.88704611808615,5.54224571226041,4.89167051694562
2340.0,-2137763.75998782,-4982128.3477102,-3949164.06702099,3835947.86426367,-3828144.6038267,-3952005.3731831,2137.58563128617,6263.42502420391,-4010.43218819384,-5.06724834291478,5.05694031477734,5.22055913872448,6759053.07578972,1.19395484664514,-0.166981777936117,-0.156815597942075,-0.0170276562253182,-0.927699694594285,0.420872627947632,1.35470782521745,-1.354822880829E-4,-0.0011107236362792,-1.254853660272E-4,336573.923277916,4.5888E-12,782.566162109375,-5.06724834291478,5.05694031477734,5.22055913872448
2400.0,-1757966.68096522,-4943084.00071351,-4180099.65784221,3954984.90837478,-3443538.91045621,-4183048.36042904,1828.7610539233,6551.66821046918,-3687.96724961932,-5.22271425801525,4.54732955556596,5.52388108175047,6759053.07578971,1.19833011605796,-0.176957193939586,-0.154542485819616,-0.012924269322281,-0.915649473306142,0.374523133522858,1.40726592770462,-1.416276584571E-4,-0.0011097596095221,-1.284514792726E-4,338227.770710106,4.278E-12,777.274475097656,-5.22271425801525,4.54732955556596,5.52388108175047
2460.0,-1369419.8464943,-4884006.15541833,-4391171.41276057,4055227.83087124,-3042569.33836516,-4394213.49951841,1511.36985379533,6808.67076269228,-3348.10798977727,-5.35268824669535,4.01603209892251,5.80013156678521,6759053.07578969,1.20270538547076,-0.187067432298058,-0.152214856253037,-0.0083781027271923,-0.906818284620993,0.327567355665328,1.45818519371333,-1.478853499822E-4,-0.001108741214163,-1.313909131295E-4,340088.271603448,3.9604E-12,771.717895507812,-5.35268824669535,4.01603209892251,5.80013156678521
2520.0,-973791.362125552,-4805254.07393314,-4581385.67290258,4136208.90944043,-2627147.73915138,-4584506.69429282,1186.96066657263,7033.21286459969,-2992.5200296601,-5.45655696920526,3.46577787028112,6.04795901290583,6759053.07578971,1.20708065488357,-0.197287024641555,-0.149831535563668,-0.0033845527636127,-0.901041488989155,0.280165055636408,1.50776833445623,-1.542531482782E-4,-0.001107666876848,-1.343025217936E-4,342134.177084333,3.6431E-12,765.943481445312,-5.45655696920526,3.46577787028112,6.04795901290583
2580.0,-572785.147390205,-4707267.43781716,-4749850.98353471,4197554.35713386,-2199254.18076757,-4753036.12328721,857.114582640414,7224.24138793838,-2622.94529693677,-5.53385234124695,2.89939018337046,6.26617259504508,6759053.07578971,1.21145592429638,-0.207589825802793,-0.147391505708424,0.0020593814131038,-0.898183496685689,0.232464419108285,1.55630022675876,-1.607287716516E-4,-0.0011065350459481,-1.371851531139E-4,344344.115359002,3.3324E-12,760.002014160156,-5.53385234124695,2.89939018337046,6.26617259504508
2640.0,-168132.922015255,-4590563.65462177,-4895782.37746618,4238986.0069256,-1760926.78911294,-4899016.52483246,523.436371451533,7380.87494608243,-2241.1921871203,-5.5842533507161,2.31976734681452,6.45374846704215,6759053.07578971,1.2158311937092,-0.217949146506335,-0.144893979798389,0.007955091825711,-0.898136723121595,0.184604835154839,1.6040499338501,-1.673098712156E-4,-0.001105344194942,-1.40037649488E-4,346696.919754038,3.0332E-12,753.947021484375,-5.5842533507161,2.31976734681452,6.45374846704215
2700.0,238413.938762628,-4455734.81074204,-5018505.05814207,4260322.46715906,-1314251.31974,-5021772.88144671,187.545631710111,7502.40783334967,-1849.12539242679,-5.60758671499277,1.72986394751714,6.6098346105922,6759053.07578969,1.220206463122,-0.228337889552159,-0.142338478387712,0.0143023654334255,-0.90082025757763,0.136719441870115,1.65127300521759,-1.739940311343E-4,-0.001104092825823,-1.428588488078E-4,349171.933970323,2.7495E-12,747.83251953125,-5.60758671499277,1.72986394751714,6.6098346105922
2760.0,645092.629992341,-4303444.29436096,-5117457.46498068,4261479.74551001,-861350.526997514,-5120743.48606468,-148.932063514987,7588.31283655945,-1448.65548146473,-5.60382639697572,1.13267200796233,6.73375429029911,6759053.07578966,1.22458173253482,-0.238728688761377,-0.139724904998958,0.0210993973875429,-0.906178421081528,0.0889374693507654,1.69821383964599,-1.807787689944E-4,-0.00110277947252,-1.456475854543E-4,351749.289288815,2.4838E-12,741.712280273437,-5.60382639697572,1.13267200796233,6.73375429029911
2820.0,1050137.17430771,-4134423.1143158,-5192193.70851849,4242471.34319843,-404373.398384914,-5195482.37766711,-484.373959197761,7638.24291709551,-1041.72831349047,-5.57309201317996,0.531202210827989,6.82500811467225,6759053.07578965,1.22895700194763,-0.249094049915679,-0.137053619336031,0.0283428133932519,-0.914179304528725,0.0413864150504765,1.74510796248683,-1.876615363093E-4,-0.0011014027043279,-1.484026913385E-4,354410.149250619,2.2379E-12,735.635131835937,-5.57309201317996,0.531202210827989,6.82500811467225
2880.0,1451786.66180926,-3949465.94244184,-5242385.36793532,4203407.82516579,54515.6783461305,-5245661.13888489,-817.168783161687,7652.03177314592,-630.31437039992,-5.51564618127321,-0.0715346227623043,6.88327472193412,6759053.07578966,1.23333227136044,-0.25940649288608,-0.134325506653126,0.0360277006537538,-0.924813315474601,-0.0058059144838993,1.79218410750839,-1.946397191594E-4,-0.0010999611293387,-1.511229969888E-4,357136.918174073,2.0124E-12,729.644165039062,-5.51564618127321,-0.0715346227623043,6.88327472193412
2940.0,1848293.42476411,-3749426.9083372,-5267822.64847502,4144495.87574829,513147.748717743,-5271070.05309805,-1145.72522139457,7629.69330268165,-216.398087948535,-5.43189086714146,-0.672545625166258,6.90841012752043,6759053.07578968,1.23770754077325,-0.269638694111165,-0.131542041797318,0.0441476467505817,-0.938091713457396,-0.0525094661373047,1.83966601193692,-2.017106389715E-4,-0.0010984533978663,-1.538073326819E-4,359913.410745542,1.8072E-12,723.773315429687,-5.43189086714146,-0.672545625166258,6.90841012752043
3000.0,2237931.10095399,-3535215.17653563,-5268414.90108683,4066036.8529756,969360.060597487,-5271618.62336241,-1468.48014592886,7571.4199979331,198.032735028625,-5.32236280271605,-1.26887338101399,6.90044578680007,6759053.07578968,1.24208281018606,-0.279763628552764,-0.128705346521955,0.0526947857077616,-0.954045073197032,-0.0985900852373265,1.88777383533709,-2.088715534407E-4,-0.001096878205857,-1.564545296155E-4,362724.980808334,1.6218E-12,718.047546386718,-5.32236280271605,-1.26887338101399,6.90044578680007
3060.0,2619002.54149188,-3307790.33676931,-5244190.51123047,3968424.85796645,1421006.70586446,-5247335.46011757,-1783.90654190952,7477.58031147736,610.997374294604,-5.18772805519016,-1.85761268474765,6.85958544151327,6759053.07578967,1.24645807959887,-0.289754710228704,-0.12581823877596,0.0616598504001671,-0.972721578178041,-0.143907731710162,1.93672510228441,-2.161196575975E-4,-0.0010952342982777,-1.590634211204E-4,365558.60835697,1.4549E-12,712.482421875,-5.18772805519016,-1.85761268474765,6.85958544151327
3120.0,2989847.52127323,-3068157.63835485,-5195296.16816058,3852144.33894553,1865969.07438205,-5198367.54900445,-2090.52108554464,7348.71504243148,1020.53239419536,-5.02877583577402,-2.43592642588327,6.7862008314728,6759053.07578967,1.25083334901168,-0.299585930400511,-0.122884272807489,0.0710322304020975,-0.994185011183544,-0.188314769717385,1.98673504810698,-2.234520850215E-4,-0.001093520472473,-1.616328439097E-4,368402.944606744,1.3054E-12,707.087158203125,-5.02877583577402,-2.43592642588327,6.7862008314728
3180.0,3348850.21287342,-2817363.09975235,-5121995.53008529,3717767.25214196,2302166.06312412,-5124978.91420274,-2386.89133009986,7185.53279855912,1424.70157259275,-4.84641164171985,-3.00106048948302,6.68082636400943,6759053.07578965,1.2552086184245,-0.309231992479601,-0.119907769076008,0.0808000343327631,-1.01851227223705,-0.231654350732505,2.03801621906535,-2.30865909204E-4,-0.0010917355814827,-1.641616393629E-4,371248.315837387,1.1718E-12,701.866027832031,-4.84641164171985,-3.00106048948302,6.68082636400943
3240.0,3694446.38759849,-2556488.52404704,-5024667.30434158,3565949.8042289,2727563.98684092,-5027548.69644754,-2671.64246284034,6988.90459626841,1821.60547720802,-4.64164982897193,-3.55035757879038,6.5441528423477,6759053.07578963,1.2595838878373,-0.31866844271076,-0.116893833140716,0.0909501557429323,-1.04579021918348,-0.273758932432582,2.09077714683095,-2.383581450604E-4,-0.0010898785373119,-1.666486548409E-4,374086.687493129,1.0526E-12,696.821411132812,-4.64164982897193,-3.55035757879038,6.5441528423477
3300.0,4025130.3104887,-2286646.45050234,-4903802.76511372,3397428.80301295,3140186.14052508,-4906568.66827102,-2943.46360172565,6759.85766546456,2209.39064011344,-4.41560571450042,-4.08126988692181,6.3770203605128,6759053.07578962,1.26395915725012,-0.327871795697169,-0.113848362881377,0.101468341601883,-1.07611159568661,-0.314449003726281,2.14521988762272,-2.459257505924E-4,-0.001087948314143,-1.690927450301E-4,376911.590750251,9.464E-13,691.955810546875,-4.41560571450042,-4.08126988692181,6.3770203605128
3360.0,4339461.29930704,-2008975.07145908,-4760002.7342196,3213017.6447752,3538121.96807562,-4762640.21201367,-3201.11360661129,6499.56853000726,2586.25828370071,-4.16948730724017,-4.59137056447477,6.18041047649832,6759053.07578963,1.26833442666293,-0.336819653848241,-0.11077804360564,0.112339262485665,-1.10956979344413,-0.35353211994715,2.20153619770453,-2.535656287011E-4,-0.0010859439514829,-1.714927733119E-4,379718.014428964,8.519E-13,687.272644042968,-4.16948730724017,-4.59137056447477,6.18041047649832
3420.0,4636069.92086537,-1724633.14273673,-4593974.05308551,3013601.9680035,3919535.7958866,-4596470.78874766,-3443.42638559865,6209.35543712124,2950.47255822676,-3.9045867646994,-5.07836394947782,5.95543777732584,6759053.07578962,1.27270969607574,-0.345490819860172,-0.107690330800624,0.12354658363494,-1.14625220249101,-0.390802390829583,2.25990212243322,-2.612746291485E-4,-0.0010838645572344,-1.738476131537E-4,382502.265722437,7.679E-13,682.777465820312,-3.9045867646994,-5.07836394947782,5.95543777732584
3480.0,4913663.80139828,-1434794.91435467,-4406525.57621874,2800135.00424401,4282675.094537,-4408869.92844421,-3669.31568290337,5890.67021055477,3300.36825785896,-3.62227166888284,-5.54009454489134,5.7033409494142,6759053.07578962,1.27708496548855,-0.35386540137984,-0.104593420491542,0.135073036141045,-1.18623195360618,-0.426040604509408,2.32047082416931,-2.690495506686E-4,-0.0010817093106834,-1.761561495194E-4,385261.803735331,6.932E-13,678.477294921875,-3.62227166888284,-5.54009454489134,5.7033409494142
3540.0,5171033.03104024,-1140645.10687142,-4198563.71826808,2573632.65745198,4625878.236262,-4200744.77349794,-3877.77934009365,5545.08960263177,3634.35798889125,-3.32397621037107,-5.9745547465315,5.42547346549914,6759053.07578963,1.28146023490136,-0.36192490705479,-0.101496207372636,0.146900487628748,-1.22955797273693,-0.459015207594693,2.38336358808909,-2.768871432243E-4,-0.0010794774653943,-1.784172802937E-4,387995.050262823,6.268E-13,674.380310058593,-3.32397621037107,-5.9745547465315,5.42547346549914
3600.0,5407055.14574871,-843373.956970235,-3971087.58814333,2335168.34355428,4947581.72037926,-3973095.20910337,-4067.90302770601,5174.30621967558,3950.93877036654,-3.01119236341308,-6.37989134054989,5.12329399539373,6759053.07578961,1.28583550431417,-0.369652333235424,-0.0984082310718204,0.159010011929604,-1.27624347268556,-0.489484384465451,2.44865914811334,-2.847841104083E-4,-0.0010771683520013,-1.806299177178E-4,390701.18259349,5.679E-13,670.495727539062,-3.01119236341308,-6.37989134054989,5.12329399539373
3660.0,5620699.67320811,-544172.354127881,-3725183.74466082,2085867.62197053,5246326.84326929,-3727008.61497411,-4238.86344901318,4780.11909368719,4248.69805362058,-2.68546112793421,-6.75441080423297,4.798356642371,6759053.0757896,1.29021077372699,-0.377032240668818,-0.0953396110970239,0.171381957375922,-1.32625331852729,-0.517199474089325,2.51638178435513,-2.927371119858E-4,-0.0010747813808909,-1.827929898323E-4,393379.91338157,5.155E-13,666.832885742187,-2.68546112793421,-6.75441080423297,4.798356642371
3720.0,5811032.23230645,-244227.088333409,-3462020.60881165,1826902.65060112,5520765.79381284,-3463654.27352524,-4389.93102204512,4364.42397073982,4526.31915317006,-2.34836390665511,-7.09658345671582,4.45230110011719,6759053.07578963,1.29458604313979,-0.384050820606145,-0.0923009711864321,0.183996013487167,-1.37949111585135,-0.541909912145139,2.58648905424009,-3.007427665733E-4,-0.0010723160447631,-1.849054419225E-4,396031.262802784,4.69E-13,663.400512695312,-2.34836390665511,-7.09658345671582,4.45230110011719
3780.0,5977218.1786724,55283.7731037909,-3182842.56803781,1559486.49530655,5769667.15932556,-3184277.46992791,-4520.47204981039,3929.20338341985,4782.58608683196,-2.00151407727274,-7.40504651712183,4.08684281728922,6759053.07578962,1.29896131255261,-0.39069594983613,-0.0893033539441274,0.196831275962647,-1.43578734174153,-0.563369772836195,2.65886048858938,-3.087976544523E-4,-0.0010697719210652,-1.869662379629E-4,398655.328280273,4.276E-13,660.206359863281,-2.00151407727274,-7.40504651712183,4.08684281728922
3840.0,6118525.79146784,353195.363565142,-2888963.80787717,1284867.32420277,5991920.83096071,-2890193.31942006,-4629.95039200656,3476.51657091443,5016.38782792474,-1.64654881108209,-7.67860613658147,3.70376324796124,6759053.07578961,1.30333658196542,-0.396957234253992,-0.086358126785297,0.209866310031577,-1.49489027024373,-0.581345798571871,2.73328901428619,-3.168983205089E-4,-0.0010671486742891,-1.889743620562E-4,401252.057042451,3.909E-13,657.257080078125,-1.64654881108209,-7.67860613658147,3.70376324796124
3900.0,6234328.99913103,648360.335801062,-2581761.90603231,1004322.51621267,6186542.30124243,-2582780.35695103,-4717.92865432964,3008.48930614059,5226.72197682039,-1.28512118071267,-7.91623847753897,3.30490025690465,6759053.07578959,1.30771185137822,-0.402826040678197,-0.0834768803396188,0.223079212338619,-1.55646168536116,-0.595626554011389,2.80947710511622,-3.250412772983E-4,-0.0010644460581235,-1.909288198621E-4,403821.026651402,3.582E-13,654.557006835937,-1.28512118071267,-7.91623847753897,3.30490025690465
3960.0,6324109.64404542,939653.009034793,-2262671.22336466,719152.712275823,6352676.34982066,-2263473.92368334,-4784.06891379315,2527.30368474658,5412.69786296415,-0.918892590998371,-8.11708991875693,2.89213873894551,6759053.07578958,1.31208712079104,-0.408295516734238,-0.0806713205665776,0.236447671655529,-1.62007924917451,-0.606032057494957,2.8870395357704,-3.332230082243E-4,-0.0010616639174543,-1.928286400119E-4,406361.238421926,3.291E-13,652.108642578125,-0.918892590998371,-8.11708991875693,2.89213873894551
4020.0,6387459.28815914,1225973.33410346,-1933176.12554783,430675.836457362,6489600.11668523,-1933759.38410707,-4828.13300025312,2035.18792600866,5573.53909173748,-0.54952555855599,-8.28047646754737,2.46740150180107,6759053.07578958,1.31646239020385,-0.413360598735209,-0.0779531559217147,0.249949028803368,-1.68524676662388,-0.612422990210256,2.96551398692586,-3.414399708289E-4,-0.0010588021902055,-1.946728755054E-4,408870.928339599,3.032E-13,649.912109375,-0.54952555855599,-8.28047646754737,2.46740150180107
4080.0,6424080.56339721,1506250.66802279,-1594804.0681702,140221.112944655,6596725.56492998,-1595165.20657672,-4849.98235562598,1534.4062307063,5708.58555321033,-0.178676857558428,-8.40588246209583,2.03264045201357,6759053.07578954,1.32083765961666,-0.418018007601612,-0.0753339809777209,0.263560336241534,-1.75141245885183,-0.614708442141577,3.04437961880278,-3.496886001853E-4,-0.0010558609090127,-1.964606050834E-4,411347.399687344,2.801E-13,647.965087890625,-0.178676857558428,-8.40588246209583,2.03264045201357
4140.0,6433788.07229377,1779447.35104636,-1249118.57698868,-150876.896396259,6673601.33771415,-1249255.93899227,-4849.57749310352,1027.24873608805,5817.29491191738,0.192008958424573,-8.49295864643134,1.58982811405156,6759053.07578957,1.32521292902947,-0.422266232977009,-0.072825157948718,0.277258417827472,-1.81799391680566,-0.612851196247074,3.12308228962665,-3.579653123843E-4,-0.001052840202725,-1.98190934574E-4,413786.881111799,2.596E-13,646.262268066406,0.192008958424573,-8.49295864643134,1.58982811405156
4200.0,6416508.84562928,2044562.08086469,-897712.153840248,-441284.210583796,6719914.01632639,-897625.110149281,-4826.97707904782,516.021603134656,5899.24359832035,0.560905655683096,-8.5415196987789,1.14094950349529,6759053.07578957,1.32958819844228,-0.426105505810612,-0.0704376975902653,0.291019929272534,-1.88440702937516,-0.606869808558152,-3.0821215898442,-3.662665081085E-4,-0.0010497402977262,-1.998629982067E-4,416184.41331176,2.413E-13,644.795654296875,0.560905655683096,-8.5415196987789,1.14094950349529
4260.0,6372282.36499958,2300633.0800404,-542199.137446787,-729673.282245149,6735488.78822656,-541888.086011047,-4782.336660224,3.03726657034981,5954.12732361188,0.926411044269104,-8.55154129086972,0.68799436659354,6759053.07578956,1.33396346785509,-0.429537759791941,-0.0681821409517405,0.304821419814955,-1.95009529710695,-0.596837175696627,-3.00539430812758,-3.745885762831E-4,-0.0010465615190729,-2.014759598902E-4,418533.766925394,2.25E-13,643.554565429687,0.926411044269104,-8.55154129086972,0.68799436659354
4320.0,6301260.15917741,2546741.05410476,-184208.547032963,-1014728.76389298,6720289.53562942,-183674.908838956,-4715.90705864212,-509.39512645678,5981.76114001011,1.28695233576112,-8.5231567514542,0.232949790487987,6759053.07578955,1.33833873726791,-0.432566582134804,-0.066068443442349,0.318639395600443,-2.01455585755473,-0.582875792741354,-2.93040248983042,-3.829278977959E-4,-0.0010433042914421,-2.030290144505E-4,420827.393540729,2.105E-13,642.524963378906,1.28695233576112,-8.5231567514542,0.232949790487987
4380.0,6203704.98387373,2782011.93892622,174623.064654193,-1295153.16846232,6674418.3566214,175376.854214725,-4628.03245557494,-1018.97906734387,5982.07906872942,1.64099114902366,-8.45665340192961,-0.222206818867347,6759053.07578956,1.34271400668071,-0.435197154317122,-0.0641058626376566,0.332450385206254,-2.07735929190236,-0.565150363898235,-2.85755590172271,-3.912808492751E-4,-0.0010399691398857,-2.045213888245E-4,423056.411073385,1.976E-13,641.696472167968,1.64099114902366,-8.45665340192961,-0.222206818867347
4440.0,6079989.5950783,3005619.43701583,532658.723656201,-1569672.40608131,6598114.53198351,533629.227769373,-4519.14818534276,-1523.43980886375,5955.13331743584,1.9870281822301,-8.3524686258351,-0.675514400540788,6759053.07578955,1.34708927609353,-0.437436183487764,-0.0623028512010224,0.346231007667861,-2.13816159603906,-0.54385872646118,-2.78718065047636,-3.99643806917E-4,-0.0010365566903874,-2.059523432044E-4,425210.624059556,1.862E-13,641.066772460937,1.9870281822301,-8.3524686258351,-0.675514400540788
4500.0,5930595.12657888,3216787.34334555,888268.088463853,-1837041.18025022,6491752.95185385,889450.886139447,-4389.77825825566,-2020.53324557241,5901.09310825535,2.323607572766,-8.21118572714795,-1.12503455929907,6759053.07578954,1.35146454550634,-0.439291825350093,-0.0606669562245424,0.359958043271841,-2.19670816136257,-0.519222134485302,-2.71951508196965,-4.08013150351E-4,-0.0010330676702188,-2.073211721315E-4,427278.578718544,1.761E-13,640.631774902343,2.323607572766,-8.21118572714795,-1.12503455929907
4560.0,5756109.08254715,3414791.66202734,1239834.42228014,-2096048.22772565,6355842.01712545,1241224.12975848,-4240.53263072575,-2508.05454058758,5820.24313635043,2.64932096919458,-8.03352962499792,-1.56885756298058,6759053.07578955,1.35583981491915,-0.440773599422268,-0.0592047262080794,0.373608507267891,-2.25283082372897,-0.491475840248717,-2.6547126295075,-4.163852665329E-4,-0.0010295029080929,-2.086272055323E-4,429247.651961989,1.672E-13,640.383911132812,2.64932096919458,-8.03352962499792,-1.56885756298058
4620.0,5557222.95625706,3598962.515841,1585761.46229972,-2345521.38744312,6191021.0310666,1587351.75850594,-4072.10423905355,-2983.84649016119,5712.98167776811,2.96281134125969,-7.82036242475584,-2.00510804030515,6759053.07578954,1.36021508433196,-0.44189229765464,-0.0579216267941887,0.387159726531363,-2.30643977009597,-0.460860675293249,-2.59284982031409,-4.247565536549E-4,-0.0010258633341131,-2.098698096963E-4,431104.172881469,1.595E-13,640.312927246093,2.96281134125969,-7.82036242475584,-2.00510804030515
4680.0,5334729.48609197,3768685.85110695,1924480.16549604,-2584332.48475387,5998057.09709797,1926263.82141672,-3885.26581179893,-3445.80761963049,5579.81836374419,3.26277655494769,-7.57267889758881,-2.43195040585539,6759053.07578956,1.36459035374478,-0.442659887452398,-0.0568219662622755,0.400589419079832,-2.3575123093058,-0.427616049953632,-2.53393743305737,-4.331234250608E-4,-0.0010221499795165,-2.110483881902E-4,432833.574645921,1.529E-13,640.404602050781,3.26277655494769,-7.57267889758881,-2.43195040585539
4740.0,5089519.56002443,3923404.94078281,2254455.31138823,-2811402.01809744,5777841.53899302,2256424.22323487,-3680.86647401269,-3891.90000602031,5421.37163697583,3.5479727399581,-7.29160189264484,-2.84759404108139,6759053.07578957,1.36896562315758,-0.443089410205092,-0.0559088316593297,0.413875776217499,-2.40608033133376,-0.391974528376244,-2.47793298158565,-4.414823131571E-4,-0.0010183639762117,-2.121623827072E-4,434420.574195231,1.473E-13,640.638977050781,3.5479727399581,-7.29160189264484,-2.84759404108139
4800.0,4822578.77973697,4062621.6889336,2574191.94313711,-3025703.63597917,5531385.86001287,2576337.16915064,-3459.82815497067,-4320.15682378194,5238.36590360254,3.81721747657778,-6.97837769815264,-3.25029826143437,6759053.07578962,1.37334089257039,-0.443194876461512,-0.0551840363084853,0.426997546954534,-2.45221787245688,-0.354157934795469,-2.42475310723502,-4.498296733054E-4,-0.0010145065561107,-2.13211273846E-4,435849.376636939,1.425E-13,640.994018554687,3.81721747657778,-6.97837769815264,-3.25029826143437
4860.0,4534983.69551806,4185897.7398868,2882241.62908913,-3226268.39277175,5259817.25767305,2884553.42983019,-3223.14180946005,-4728.68961089877,5031.62839281182,4.0693928279543,-6.63437136001452,-3.63837710015108,6759053.07578959,1.37771616198321,-0.442991158906808,-0.0546480792928033,0.439934124228536,-2.49602973209953,-0.314374818358592,-2.37428493409223,-4.581619876889E-4,-0.0010105790502574,-2.141945818199E-4,437103.900844335,1.387E-13,641.512817382812,4.0693928279543,-6.63437136001452,-3.63837710015108
4920.0,4227897.72303809,4292855.39544763,3177208.52754661,-3412188.77241769,4964373.71099511,3179676.40950721,-2971.8634611525,-5115.69525287892,4802.08573416284,4.30344824216327,-6.26106195903286,-4.01020393881854,6759053.07578959,1.38209143139601,-0.442493884297425,-0.0543001173622292,0.452665632346528,-2.53764165919177,-0.272819040898402,-2.32639586987824,-4.664757691375E-4,-0.0010065828877539,-2.151118670907E-4,438168.022421108,1.36E-13,642.24169921875,4.30344824216327,-6.26106195903286,-4.01020393881854
4980.0,3902566.75310183,4383178.34353062,3457755.2380944,-3582622.46957828,4646398.65724648,3460368.00045772,-2707.11007519727,-5479.46268200907,4550.76026094456,4.51840334630559,-5.86003784083999,-4.36421601368381,6759053.07578961,1.38646670080883,-0.441719325487035,-0.0541379495588485,0.465173014970981,-2.57719229460331,-0.229669238327225,-2.28094166680199,-4.74767564904E-4,-0.001002519594487,-2.159627309281E-4,439025.829940636,1.343E-13,643.218383789062,4.51840334630559,-5.86003784083999,-4.36421601368381
5040.0,3560314.46551062,4456612.20146784,3722608.42326065,-3736795.91816452,4307335.27534492,3725354.20762719,-2430.05526591106,-5818.37928868736,4278.76604620049,4.71335065219915,-5.43299178598427,-4.69891882477147,6759053.07578959,1.39084197022164,-0.44068429463309,-0.0541580147020144,0.477438122895207,-2.61482683223361,-0.185088923823571,-2.23777278119799,-4.830339603771E-4,-9.983907916588E-4,-2.167468158897E-4,439661.89018745,1.337E-13,644.477661132812,4.71335065219915,-5.43299178598427,-4.69891882477147
5100.0,3202537.35826792,4512964.87709481,3970564.18463971,-3874007.55750473,3948720.39332066,3973430.52752989,-2141.92484435931,-6130.9370407147,3987.30467650299,4.88745819009356,-4.98171610154401,-5.0128904722768,6759053.07578957,1.39521723963445,-0.439406038609051,-0.0543554017228125,0.4894438007936,-2.65069223102039,-0.13922703457507,-2.19673920166156,-4.912715827237E-4,-9.941981941255E-4,-2.174638062232E-4,440061.518020054,1.343E-13,646.052734375,4.88745819009356,-4.98171610154401,-5.0128904722768
5160.0,2830699.50353831,4552106.75050755,4200493.17786778,-3993630.82666337,3572178.03751382,4203467.06580298,-1843.99220974247,-6415.73830513888,3677.66076718595,5.03997208328436,-4.50809761017219,-5.30478594145677,6759053.07578958,1.39959250904726,-0.437902137561869,-0.0547238726890909,0.501173972091584,-2.68493375034043,-0.092218762740206,-2.15769397590112,-4.994771044457E-4,-9.899436085489E-4,-2.181134281873E-4,440211.046434729,1.362E-13,647.976928710937,5.03997208328436,-4.50809761017219,-5.30478594145677
5220.0,2446327.04204185,4573970.67913687,4411345.45102858,-4095116.87763987,3179412.64155506,4414413.3779845,-1537.57358784426,-6671.50136565301,3351.19722158432,5.17021907258388,-4.01411250768893,-5.57334135339225,6759053.07578959,1.40396777846008,-0.436190407451976,-0.0552558982205063,0.51261372107904,-2.71769256862789,-0.0441865488606556,-2.1204956800785,-5.076472468453E-4,-9.85628931366E-4,-2.186954502915E-4,440098.092433436,1.396E-13,650.284851074218,5.17021907258388,-4.01411250768893,-5.57334135339225
5280.0,2051002.4279467,4578551.82851291,4602154.99118991,-4177996.99835808,2772201.93365212,4605303.01820877,-1224.02311938677,-6897.06562669189,3009.35023591564,5.27760899537344,-3.50182105630611,-5.81737819459198,6759053.0757896,1.40834304787288,-0.434288807291896,-0.0559427048586164,0.52374937138885,-2.74910426027391,0.0047588512149098,-2.08501006032414,-5.157787833857E-4,-9.81256146583E-4,-2.192096834535E-4,439711.814379631,1.446E-13,653.011962890625,5.27760899537344,-3.50182105630611,-5.81737819459198
5340.0,1646358.4368188,4565907.33080797,4772043.96385012,-4241884.73652138,2352389.52129745,4775257.78059004,-904.72780098772,-7091.39649329431,2653.62405080535,5.36163721946827,-2.97336207735308,-6.03580753350768,6759053.07578963,1.4127183172857,-0.432215351667584,-0.0567743338334476,0.534568559977499,-2.7792979350865,0.0545172879866339,-2.05111104839778,-5.238685429379E-4,-9.768273234009E-4,-2.196559810751E-4,439043.156656565,1.515E-13,656.19482421875,5.36163721946827,-2.97336207735308,-6.03580753350768
5400.0,1234071.94981187,4536155.77295947,4920226.6301214,-4286477.7155732,1921877.19323473,4923491.61811416,-581.102281540894,-7253.58991355646,2285.58545013176,5.42188702733182,-2.43094720503658,-6.22763422668592,6759053.07578964,1.41709358669851,-0.429988028983231,-0.0577397105549454,0.545060305776281,-2.8083958787409,0.104998169722127,-2.01868132128605,-5.319134129067E-4,-9.72344613678E-4,-2.200342390352E-4,438085.077618856,1.606E-13,659.870361328125,5.42188702733182,-2.43094720503658,-6.22763422668592
5460.0,815857.528039505,4489476.51590011,5046012.92651648,-4311559.13418232,1482616.95938259,5049314.22389703,-254.583517253621,-7382.87656814747,1906.85800787287,5.4580319413398,-1.87685486137184,-6.39196111156154,6759053.07578961,1.42146885611132,-0.427624725721244,-0.0588267240573523,0.555215072226996,-2.83651356648304,0.156119469168519,-1.98761254332362,-5.399103422239E-4,-9.678102492401E-4,-2.203443956009E-4,436832.757042942,1.724E-13,664.072021484375,5.4580319413398,-1.87685486137184,-6.39196111156154
5520.0,393460.791964212,4426108.84617237,5148811.69225448,-4316998.94088645,1036602.85041807,5152134.25971851,73.3747107201812,-7478.62568894866,1519.11608399643,5.46983797588211,-1.3134239120198,-6.52799317686764,6759053.07578963,1.42584412552413,-0.425143156858399,-0.0600223155375342,0.565024822973049,-2.86375995325423,0.207806799766207,-1.95780540206257,-5.478563442029E-4,-9.632265390437E-4,-2.20586431258E-4,435283.779532029,1.872E-13,668.826538085937,5.46983797588211,-1.3134239120198,-6.52799317686764
5580.0,-31348.3783315499,4346350.96098904,5228133.52908433,-4302754.67579208,585862.499870474,5231462.21682285,401.307411112205,-7540.34848647619,1124.07857116317,5.45716579717455,-0.743046963408802,-6.63504169537648,6759053.07578965,1.43021939493695,-0.422560802430448,-0.0613125750545356,0.574483070043151,-2.89023797049653,0.259992567645793,-1.92916952686155,-5.55748499246E-4,-9.585958662027E-4,-2.207603684602E-4,433438.290611991,2.058E-13,674.147705078125,5.45716579717455,-0.743046963408802,-6.63504169537648
5640.0,-456782.804959727,4250558.78763304,5283593.27876124,-4268871.97156261,132448.532867575,5286912.89411417,727.744123604477,-7567.70116341658,723.502395121878,5.4199727668046,-0.168163263252588,-6.71252829727703,6759053.07578963,1.43459466434975,-0.419894850095566,-0.0626828453978338,0.583584913938233,-2.91604518333814,0.312615200323987,-1.90162336241511,-5.635839573971E-4,-9.53920684888E-4,-2.208662713004E-4,431299.122565135,2.289E-13,680.028625488281,5.4199727668046,-0.168163263252588,-6.71252829727703
5700.0,-881045.117801052,4139144.63797862,5314912.10352749,-4215484.7063466,-321570.212897286,5318207.47909165,1051.21477831349,-7560.48748941018,319.17577317037,5.35831484034126,0.40874883056391,-6.75998895603339,6759053.07578965,1.43896993376255,-0.417162143415492,-0.0641178320853488,0.592327075110439,-2.94127458244589,0.36561844951638,-1.87509405822376,-5.713599407345E-4,-9.492035171074E-4,-2.209042451037E-4,428871.887386856,2.574E-13,686.437866210937,5.35831484034126,0.40874883056391,-6.75998895603339
5760.0,-1302334.98409876,4012575.69887141,5321919.1552647,-4142814.80182093,-774117.606855857,5325175.2171852,1370.25566402537,-7518.66091023175,-87.0887630609216,5.27234828788248,0.985179843745906,-6.77707785215503,6759053.07578967,1.44334520317537,-0.414379135456104,-0.0656017184189637,0.600707916404648,-2.96601550378884,0.418950763303199,-1.84951742935138,-5.790737455965E-4,-9.444469493783E-4,-2.208744359454E-4,426165.034616254,2.922E-13,693.315185546875,5.27234828788248,0.985179843745906,-6.77707785215503
5820.0,-1718856.44080824,3871372.35913614,5304552.81942673,-4051171.66016629,-1223119.25712805,5307754.65559472,1683.41549340036,-7442.32616280526,-493.461571983718,5.16233119928711,1.55859766783169,-6.76357107405646,6759053.07578965,1.44772047258818,-0.411561847209475,-0.0671182845045814,0.608727456116172,-2.99035468848883,0.472564721590192,-1.82483804405515,-5.867227446353E-4,-9.396536293017E-4,-2.20777030095E-4,423189.872187683,3.344E-13,700.574951171875,5.16233119928711,1.55859766783169,-6.76357107405646
5880.0,-2128825.30682456,3716106.37409644,5262861.52044913,-3940951.23456839,-1666511.62341552,5265994.44832368,1989.26155101642,-7331.7403661247,-898.103322435385,5.0286247331408,2.12645655040482,-6.71937010921241,6759053.07578964,1.45209574200099,-0.408725830260059,-0.0686510291347188,0.616387371402383,-3.01437751595229,0.52641652806946,-1.80100950092248,-5.943043886951E-4,-9.348262620471E-4,-2.20612253389E-4,419960.548875677,3.853E-13,708.11328125,5.0286247331408,2.12645655040482,-6.71937010921241
5940.0,-2530476.65052259,3547398.86869655,5197004.07608746,-3812634.72876169,-2102251.17885739,5200053.70985457,2286.38590756678,-7187.31355720284,-1299.1726159448,4.87169406533367,2.68620660526969,-6.64450507325227,6759053.07578962,1.4564710114138,-0.405886133060604,-0.070183293433747,0.623690991869966,-3.03816946952235,0.580465551441403,-1.77799497391166,-6.018162085092E-4,-9.299676067615E-4,-2.203803705363E-4,416493.997364612,4.461E-13,715.81884765625,4.87169406533367,2.68620660526969,-6.64450507325227
6000.0,-2922072.28630769,3365918.18061628,5107249.58908127,-3666786.92221507,-2528323.58661037,5110201.90585888,2573.41168079913,-7009.60864070243,-1694.83379345929,4.69210899058682,3.23530384598427,-6.53913761962195,6759053.07578962,1.46084628082662,-0.403057270150037,-0.071698385178252,0.630643283243254,-3.06181792934396,0.63467390828266,-1.75576813169009,-6.092558162151E-4,-9.250804729097E-4,-2.200816843559E-4,412809.837467478,5.184E-13,723.582763671875,4.69210899058682,3.23530384598427,-6.53913761962195
6060.0,-3301908.27211165,3172377.54517305,4993976.86568999,-3504054.11880825,-2942752.85503451,4996818.27048508,2848.99932092638,-6799.34072098525,-2083.2649055354,4.49054412845749,3.77122073650252,-6.40356346811428,6759053.07578963,1.46522155023942,-0.400253193636683,-0.0731797027268155,0.6372508211023,-3.08541443894664,0.68900607941,-1.73431458415732,-6.166209066828E-4,-9.201677165593E-4,-2.197165349539E-4,408930.239546087,6.036E-13,731.307373046875,4.49054412845749,3.77122073650252,-6.40356346811428
6120.0,-3668322.37801409,2967532.62430831,4857673.35202011,-3325161.71827237,-3343610.43350728,4860390.74114176,3111.85289529693,-6557.37578600257,-2462.66582118493,4.26777868437756,4.29145724208532,-6.2382144870741,6759053.07578962,1.46959681965224,-0.397487266285722,-0.0746108575243634,0.643521754762158,-3.10905767181314,0.74342855062093,-1.71363408507965,-6.239092586564E-4,-9.152322366188E-4,-2.1928529884E-4,404879.748749239,7.034E-13,738.91015625,4.26777868437756,4.29145724208532,-6.2382144870741
6180.0,-4019701.49445067,2752178.88256212,4698933.58066854,-3130911.41126966,-3729024.20909116,4701514.40330004,3360.72634413959,-6284.72871379971,-2831.26644657536,4.02469571623555,4.79355235221481,-6.04366026156838,6759053.07578961,1.47397208906505,-0.394772235588825,-0.0759757941851684,0.649465761447407,-3.13285745209903,0.797909466882146,-1.69374384511445,-6.311187357065E-4,-9.102769710411E-4,-2.187883879882E-4,400685.071282587,8.196E-13,746.323852539062,4.02469571623555,4.79355235221481,-6.04366026156838
6240.0,-4354488.9468223,2527148.81364956,4518457.12205722,-2922178.00076736,-4097187.36258433,4520889.43969083,3594.42967625257,-5982.56057446385,-3187.33502067336,3.76228085798352,5.2750960351406,-5.82060907841415,6759053.07578961,1.47834735847786,-0.392120208255246,-0.077258907205451,0.655093990998185,3.12624491096817,0.852418285704742,-1.67468352036009,-6.382472869945E-4,-9.053048930024E-4,-2.182262488449E-4,396374.82455169,9.54E-13,753.495483398437,3.76228085798352,5.2750960351406,-5.82060907841415
6300.0,-4671191.68178432,2293309.02205758,4317046.03693151,-2699905.85431452,-4446367.04093401,4319318.5803714,3811.83507065142,-5652.17520314247,-3529.18645076265,3.48162045381533,5.73374157108029,-5.56990825881361,6759053.07578961,1.48272262789067,-0.389542624644807,-0.0784451534105681,0.660419001426124,3.10172719934186,0.906925409341528,-1.65652280638719,-6.452929478483E-4,-9.003190070656E-4,-2.175993612889E-4,391979.253670771,1.1083E-12,760.38330078125,3.48162045381533,5.73374157108029,-5.56990825881361
6360.0,-4968387.28910627,2051557.16498065,4095601.82884207,-2465104.99395186,-4774912.80163276,4097704.0524845,4011.88284749388,-5295.01502332443,-3855.19064664223,3.18389905968047,6.16721819820046,-5.29254377057539,6759053.07578961,1.48709789730349,-0.387050232761721,-0.0795201593028418,0.665454685719957,3.07658579423927,0.96140176413905,-1.63937322101219,-6.522538401495E-4,-8.953223453407E-4,-2.169082375458E-4,387529.917495673,1.2842E-12,766.953491210937,3.18389905968047,6.16721819820046,-5.29254377057539
6420.0,-5244730.82179262,1802818.76089782,3855121.89802022,-2218846.83276088,-5081264.78359565,3857044.0311253,4193.5872691322,-4912.65610391722,-4163.78080830361,2.87039627331223,6.57334399256273,-4.98963905461082,6759053.07578962,1.49147316671629,-0.384653061540648,-0.0804703225434925,0.670216190381172,3.05057516731946,1.0158182738956,-1.62340687739619,-6.591281725359E-4,-8.903179636496E-4,-2.161534210616E-4,383059.348006989,1.4832E-12,773.178100585937,2.87039627331223,6.57334399256273,-4.98963905461082
6480.0,-5498961.37618442,1548043.87215176,3596695.50088284,-1962259.56947399,-5363961.5581782,3598428.59555942,4356.04212997678,-4506.80243876561,-4453.46161808661,2.54248285957651,6.95003889049762,-4.6624530046615,6759053.07578964,1.4958484361291,-0.382360393279058,-0.0812829068758165,0.67471982624852,3.02336177520458,1.07014513162347,-1.60888743126542,-6.659142404197E-4,-8.853089377072E-4,-2.153354853396E-4,378600.687524054,1.7062E-12,779.03271484375,2.54248285957651,6.95003889049762,-4.6624530046615
6540.0,-5729908.39305939,1288203.6700105,3321499.22244721,-1696523.25510244,-5621647.61348552,3323035.19808135,4498.42609206232,-4079.27944311946,-4722.81728481956,2.20161614478239,7.2953377496613,-4.31237704509643,6759053.0757896,1.50022370554192,-0.38018073519891,-0.0819461298758542,0.67898297224587,2.99447040227832,1.12435068578902,-1.59622331065262,-6.726104258247E-4,-8.802983593266E-4,-2.144550327439E-4,374187.308853067,1.9536E-12,784.496215820312,2.20161614478239,7.2953377496613,-4.31237704509643
6600.0,-5936497.64035182,1024286.89186336,3030791.97217897,-1422864.54816799,-5853080.42498759,3032123.65604771,4620.00772186086,-3632.02666812891,-4970.51938435675,1.84933466159948,7.60740333364538,-3.94093125913118,6759053.0757896,1.50459897495472,-0.378121790251642,-0.0824492430008525,0.683023972759035,2.96318727016803,1.17839956111434,-1.58606421350057,-6.792151970466E-4,-8.752893326581E-4,-2.135126932748E-4,369852.424042872,2.2252E-12,789.548522949218,1.84933466159948,7.60740333364538,-3.94093125913118
6660.0,-6117756.8380619,757296.201400703,2725909.5172098,-1142551.17781939,-6057137.06573329,2727030.68103522,4720.15018305246,-3167.08974166739,-5195.33443833354,1.48725203533117,7.8845390947693,-3.5497595289524,6759053.0757896,1.50897424436754,-0.376190427409184,-0.0827826034942434,0.686862029412296,2.9283728991369,1.2322491629637,-1.57948788469153,-6.857271081388E-4,-8.702849704701E-4,-2.125091233183E-4,365628.687916095,2.5196E-12,794.171630859375,1.48725203533117,7.8845390947693,-3.5497595289524
6720.0,-6272820.88624905,488244.463840308,2408258.57041358,-856886.136843001,-6232820.31018605,2409163.96262731,4798.3155397073,-2686.61155157586,-5396.13117096117,1.117050112392,8.12520162091054,-3.14062365991654,6759053.07578959,1.51334951378035,-0.374392651805899,-0.0829377377972892,0.690517088072781,2.88806895314668,1.28584246303597,-1.57839293779328,-6.921447982305E-4,-8.652883904813E-4,-2.114450043761E-4,361547.802939814,2.8346E-12,798.348754882812,1.117050112392,8.12520162091054,-3.14062365991654
6780.0,-6400936.65773254,218150.949470324,2079310.45448089,-567201.629301217,-6379264.18691428,2079995.82798703,4854.06862470932,-2192.82269569018,-5571.88738237099,0.740471342795848,8.32801260524121,-2.71539647313212,6759053.07578958,1.51772478319316,-0.372733575208165,-0.0829073962113411,0.69400972195847,2.83857732365706,1.33909118501571,-1.58641946379102,-6.984669906797E-4,-8.603027117505E-4,-2.103210417789E-4,357640.132272535,3.1665E-12,802.063781738281,0.740471342795848,8.32801260524121,-2.71539647313212
6840.0,-6501467.31828241,-51962.5200458937,1740594.36683968,-274852.800215027,-6495738.93708977,1741056.50208364,4887.08042930565,-1688.03123163919,-5721.69637647345,0.359310440103646,8.49177019283836,-2.27605386417593,6759053.0757896,1.52210005260597,-0.371217387385997,-0.0826855986492764,0.69736101176212,2.77196133735893,1.39182996592576,-1.61144753924114,-7.046924920674E-4,-8.553310511325E-4,-2.091379633866E-4,353934.327954112,3.5103E-12,805.302307128906,0.359310440103646,8.49177019283836,-2.27605386417593
