time,gePosition_m_X,gePosition_m_Y,gePosition_m_Z,eiPosition_m_X,eiPosition_m_Y,eiPosition_m_Z,eiVelocity_m_s_X,eiVelocity_m_s_Y,eiVelocity_m_s_Z,eiAccel_m_s2_X,eiAccel_m_s2_Y,eiAccel_m_s2_Z,semiMajorAxis_m,gast_rad,eulerAngle_rad_Roll,eulerAngle_rad_Pitch,eulerAngle_rad_Yaw,eulerAngleWrtEi_rad_Roll,eulerAngleWrtEi_rad_Pitch,eulerAngleWrtEi_rad_Yaw,bodyAngularRateWrtEi_rad_s_Roll,bodyAngularRateWrtEi_rad_s_Pitch,bodyAngularRateWrtEi_rad_s_Yaw,altitudeMsl_m,airDensity_kg_m3,ambientTemperature_dgK,eiGravitation_m_s2_X,eiGravitation_m_s2_Y,eiGravitation_m_s2_Z
0.0,-1436381.4663574744,4185811.709981752,5163944.671561651,-4315967.74,960356.1999999998,5167269.529999999,129.09103699999832,-7491.513854999997,1452.5156539999987,5.454580568876505,-1.213876056449473,-6.549173850691243,6759053.075789562,1.0233194459853856,5.666859310090004E-17,-0.20245819323134254,-4.604323189448128E-17,-2.471593905564226,-0.03718896475784017,-1.428993135204368,4.658681209898652E-20,-0.0011222300308759384,4.0657581468206416E-20,434989.54081172694,1.6159166507157113E-12,978.0522572877376,5.454580592443033,-1.2138769058678107,-6.549173678777671
60.0,-1794959.9946975901,3943151.6855719336,5239238.395326599,-4298410.858298127,509021.506692984,5242566.810260668,455.9639452389449,-7547.277213204988,1056.3809661131033,5.43713961691547,-0.6440451217384805,-6.650437181386853,6758732.883568262,1.027694715234372,-3.1609327157897264E-6,-0.20243700540477372,-9.151245548741149E-5,-2.472045194408246,0.015605902028426027,-1.3871941836888853,4.658681209898652E-20,-0.0011222300308759384,4.0657581468206416E-20,433110.3627839239,1.7263631923200767E-12,985.1057249698054,5.437139679282803,-0.6440460366963481,-6.650437047772133
120.0,-2147590.3648433844,3685729.2386940806,5290614.553238408,-4261287.550057401,55369.433441473026,5293931.373623647,781.0627491603767,-7568.720448476813,655.0536205428524,5.395449598817956,-0.07027430958334867,-6.722182635806367,6758511.996332217,1.0320699844833425,-1.2698888875279914E-5,-0.20237108187709277,-1.8261592426151312E-4,-2.4702868220479717,0.06837346634951039,-1.3453262663514858,4.658681209898652E-20,-0.0011222300308759384,4.0657581468206416E-20,430971.61926857353,1.857350408312899E-12,992.8757390156047,5.395449705693021,-0.07027529758413964,-6.722182546634826
180.0,-2492788.9456184055,3414636.363958804,5317814.9511615895,-4204747.875096108,-398535.17418676,5321105.063995218,1102.934472605478,-7555.679931110397,250.31797935884043,5.329591474903316,0.5050054670419557,-6.7639853079436225,6758393.390519391,1.0364452537322815,-2.865348665913787E-5,-0.20225702736066362,-2.724561848434425E-4,-2.4662973075153496,0.12102070149999372,-1.3031548243083342,4.658681209898652E-20,-0.0011222300308759384,4.0657581468206416E-20,428579.637767277,2.0112028700892894E-12,1001.3137002102578,5.329591633259126,0.505004398107644,-6.763985271029025
240.0,-2829091.7688926263,3131015.015114859,5320689.088183418,-4129028.8703412088,-850622.0473417317,5323937.486040738,1420.1337904684078,-7508.138813908927,-156.0194028458891,5.2397397734245255,1.0793334052185979,-6.775531161722456,6758378.3397921445,1.0408205229812044,-5.1006091226559075E-5,-0.20209165387130967,-3.601842217332021E-4,-2.460027840101518,0.17345209177142892,-1.2604406632143343,4.658681209898652E-20,-0.0011222300308759384,4.0657581468206416E-20,425943.2147904557,2.1902315075277347E-12,1010.3346305209607,5.239739991613946,1.0793322473908182,-6.775531186782455
300.0,-3155060.474966438,2836052.74561928,5299195.28581934,-4034453.9207434733,-1298824.3506888973,5302387.1342382375,1731.228722085498,-7426.228623989872,-562.1365779326111,5.126165182977299,1.6502257858482443,-6.7566219263886325,6758466.60835959,1.0451957922300796,-7.96790858137881E-5,-0.20187199728416855,-4.449609737472467E-4,-2.451401532058155,0.22556763079897746,-1.21693635378477,4.658681209898652E-20,-0.0011222300308759384,4.0657581468206416E-20,423073.6404834907,2.3966687298848777E-12,1019.82156273995,5.1261654708100775,1.650224531498696,-6.756622025247854
360.0,-3469288.277558814,2530978.181450972,5253401.400801744,-3921431.7841610806,-1741087.6212682053,5256522.105249009,2034.8064673775339,-7310.230391916514,-966.2032922961446,4.989236663418186,2.2151843891271796,-6.707179755522383,6758656.620323286,1.049571061478955,-1.1453546324920541E-4,-0.20159533238021768,-5.259628811763196E-4,-2.440312300130583,0.2772606847082967,-1.1723826141699925,4.658681209898652E-20,-0.0011222300308759384,4.0657581468206416E-20,419984.6862143144,2.632641342333837E-12,1029.6361750150622,4.989237032195115,2.2151830314166547,-6.707179942269154
420.0,-3770405.9261403307,2217056.3333922,5183485.104817947,-3790455.2626914494,-2175378.759216453,5186520.376963992,2329.479348350869,-7160.575240089227,-1366.3883361724684,4.829422817460199,2.7717060323401608,-6.627251215542401,6758945.566908023,1.0539463307277828,-1.553788177027772E-4,-0.20125918653362926,-6.023883578136183E-4,-2.4266234488935607,0.3284156602672077,-1.1265047086281983,4.658681209898652E-20,-0.0011222300308759384,4.0657581468206416E-20,416692.5516886217,2.9001813032730125E-12,1039.6328196188374,4.829423279964536,2.7717045657043133,-6.627251506632521
480.0,-4057087.640896911,1895583.7593408613,5089733.716922229,-3642099.5155381593,-2599695.0361652346,5092669.639945715,2613.8908081821996,-6977.844377184645,-1760.8671051793958,4.647292440812213,3.3172927430462797,-6.517010347588232,6759329.430737235,1.0583215999766105,-2.019538181362033E-4,-0.20086135229906824,-6.734650848825175E-4,-2.410166082393471,0.37890541913182324,-1.079008951413574,4.658681209898652E-20,-0.0011222300308759384,4.0657581468206416E-20,413215.7698152116,3.2012549471417646E-12,1049.6719320662048,4.64729301126089,3.317291163692344,-6.517010761895149
540.0,-4328056.994648639,1567883.5898784837,4972543.57760947,-3477020.0114005534,-3012073.0848444737,4975366.670250346,2886.7214208198693,-6762.768475936745,-2147.8293165637137,4.443514353479702,3.8494620643519144,-6.3767607779746855,6759802.928119222,1.0626968692254064,-2.5394723164191E-4,-0.20039989919572093,-7.384577984409519E-4,-2.390737553668885,0.4285883837546494,-1.0295794903450843,4.658681209898652E-20,-0.0011222300308759384,4.0657581468206416E-20,409575.0695248495,3.537781558377523E-12,1059.629596193019,4.443515047433978,3.8494603707646866,-6.37676133678523
600.0,-4582092.7163281655,1235300.4317950138,4832418.956893961,-3295950.12092024,-3410597.832904125,4835116.235972435,3146.69487473493,-6516.226438353187,-2525.4868278998433,4.218856754768935,4.3657571255792025,-6.206937069734353,6760359.391958887,1.0670721384741706,-3.1098953832853264E-4,-0.19987318493567413,-7.966760611106554E-4,-2.3681002878841557,0.47730529221938167,-0.9778756738827268,4.658681209898652E-20,-0.0011222300308759384,4.0657581468206416E-20,405793.19874156266,3.911616045862348E-12,1069.4020400591148,4.218857588997631,4.365755319045789,-6.206937796682793
660.0,-4818034.391552661,899195.1643948898,4669970.491426843,-3099698.351414801,-3793411.3447361887,4672529.532546153,3392.5839111182513,-6239.243567429171,-2892.081522260814,3.9741863981934293,4.863756358936502,-6.008105648132781,6760990.634727564,1.0714474077229348,-3.726571373205593E-4,-0.19927986622709357,-8.474814188168378E-4,-2.3419815006359914,0.5248755839273315,-0.9235304947795272,4.658681209898652E-20,-0.0011222300308759384,4.0657581468206416E-20,401894.71140712284,4.324482688190404E-12,1078.9057316628991,3.9741873904751066,4.863754444100614,-6.008106569056855
720.0,-5034788.036599624,560939.642485465,4485913.147209848,-2889145.2267943346,-4158721.5362668363,4488322.1433616495,3623.2162136187185,-5932.98916304654,-3245.8932451796027,3.7104678330869088,5.341083026362143,-5.780965655907679,6761686.83931624,1.075822676973096,-4.3847510565078236E-4,-0.19861890911400734,-8.902933587421472E-4,-2.3120745961866445,0.5710934443673489,-0.8661508699167281,4.658681209898652E-20,-0.0011222300308759384,4.0657581468206416E-20,397905.7236272862,4.777859354299493E-12,1088.0747076033413,3.7104690019329873,5.341081011810399,-5.780966798602199
780.0,-5231331.521984432,221911.31851995256,4281063.704748489,-2665239.815357919,-4504810.728300749,4283311.522540409,3837.480257715065,-5598.773542402335,-3585.247797607261,3.4287628202247054,5.7954149556077645,-5.526349992882628,6762436.52382001,1.0801979462217968,-5.079204270852293E-4,-0.19788959864322753,-9.245936148225634E-4,-2.2780433838384093,0.615723617559181,-0.8053208725177817,4.658681209898652E-20,-0.0011222300308759384,4.0657581468206416E-20,393853.6445260944,5.272819488648738E-12,1096.856790467807,3.428764184504758,5.795412854476327,-5.526351386721799
840.0,-5406719.820325074,-116512.20453087802,4056337.762882965,-2428995.9075989174,-4830044.003210683,4058413.9961082423,4034.331128662639,-5238.044457177813,-3908.5249988303976,3.130229838250493,6.2244950002073285,-5.245226598758456,6763226.6148701925,1.0845732154704657,-5.804255864262973E-4,-0.19709154749690075,-9.499285902696556E-4,-2.2395306890722204,0.6584972253796945,-0.740609474167974,4.658681209898652E-20,-0.0011222300308759384,4.0657581468206416E-20,389766.8872820654,5.809842348206706E-12,1105.209866223834,3.1302314167036953,6.224492830781127,-5.245228274158078
900.0,-5560090.050285642,-452958.6782398592,3812746.256732291,-2181487.845877536,-5132877.327171393,3814641.2770013814,4212.796306180576,-4852.382849168057,-4214.166829828977,2.816123410037838,6.626142698437692,-4.938699803250561,6764042.645667403,1.0889484847191346,-6.553824120441728E-4,-0.19622470314445992,-9.659099504368447E-4,-2.196173409612028,0.6991080320292795,-0.6715848301085134,4.658681209898652E-20,-0.0011222300308759384,4.0657581468206416E-20,385674.5652370478,6.388602690840696E-12,1113.0988266210834,2.8161252206604286,6.626140484699161,-4.938701790945743
960.0,-5690666.284370632,-786066.758611765,3551391.4850072456,-1923846.0085087924,-5411865.395877901,3553096.489161691,4371.981393441242,-4443.497862518472,-4500.685650485392,2.4877928461284267,6.998267420823992,-4.608011360220802,6764869.073508077,1.0933237539677718,-7.321460589253009E-4,-0.19528935305380443,-9.722137271722938E-4,-2.1476264376971796,0.7372098731360949,-0.5978375145808231,4.658681209898652E-20,-0.0011222300308759384,4.0657581468206416E-20,381606.1771604357,7.007751488231348E-12,1120.4933547091662,2.4877949054355457,6.998265192895113,-4.608013690343589
1020.0,-5797764.08405143,-1114491.5847337153,3273462.643120681,-1657251.9529231987,-5665669.156413781,3274969.6971513173,4511.075742044791,-4013.2210214713164,-4766.672456810947,2.1466799625084243,7.338883014676008,-4.254540658383489,6765689.69196375,1.0976990232163775,-8.100390551199253E-4,-0.1942861275693897,-9.685785175704299E-4,-2.0935978557393606,0.7724163273709495,-0.5190151007713463,4.658681209898652E-20,-0.0011222300308759384,4.0657581468206416E-20,377591.2849916747,7.664700362930032E-12,1127.3664871822223,2.1466822846796925,7.338880809087743,-4.254543359337776
1080.0,-5880794.721927853,-1436910.3657266793,2980230.861490175,-1382933.2262322335,-5893062.952637727,2981532.940686278,4629.35789946915,-3563.499491142057,-5010.805113013436,1.794315391941851,7.646123653457795,-3.879803591102015,6766488.099043324,1.1020742924649671,-8.88355373383242E-4,-0.1932160001900618,-9.548035093631054E-4,-2.033896939957247,0.8043040940336778,-0.4348696089350727,4.658681209898652E-20,-0.0011222300308759384,4.0657581468206416E-20,373659.1869174904,8.355424415303314E-12,1133.6937832742537,1.7943179878731377,7.646121513175605,-3.8798066882500435
1140.0,-5939269.048190217,-1752027.9505900475,2673043.7532185437,-1102157.8565491524,-6092941.237192894,2674134.778282704,4726.20078665611,-3096.3883641113075,-5231.856464713737,1.4323132528601223,7.918260356498175,-3.4854496686487852,6767248.17719631,1.1064495617135248,-9.663645445979026E-4,-0.19208028513649794,-9.307470848615705E-4,-1.9684941526999837,0.8324218222327848,-0.3453169937497679,4.658681209898652E-20,-0.0011222300308759384,4.0657581468206416E-20,369838.5886065191,9.074300376068237E-12,1139.4529077926209,1.4323161291584756,7.918258330632979,-3.485453182843894
1200.0,-5972800.958051054,-2058582.3507503823,2353319.4816088076,-816228.5442714245,-6264324.790869083,2354194.35048504,4801.076504745161,-2614.04195216216,-5428.702219691275,1.0623641263704315,8.153717517411408,-3.0732571340487387,6767954.544391667,1.110824830962067,-0.0010433158731440024,-0.19088063225579066,-8.963266419858377E-4,-1.8975879558911621,0.8563060762491734,-0.2505034948146101,4.658681209898652E-20,-0.0011222300308759384,4.0657581468206416E-20,366157.2758501592,9.813998737937879E-12,1144.6234492727476,1.0623672843440555,8.153715660553281,-3.073261080071703
1260.0,-5981110.418179798,-2355350.181220778,2022540.365088072,-526476.5785684577,-6406366.390012611,2023194.9802680663,4853.560672518724,-2118.704102617388,-5600.328474283021,0.6862264705078326,8.35108878735051,-2.6451260455278724,6768592.94613833,1.115200100210593,-0.0011184428512614252,-0.18961901943313914,-8.515200350709576E-4,-1.8216671353379268,0.875505392693743,-0.1508675324626657,4.658681209898652E-20,-0.0011222300308759384,4.0657581468206416E-20,362641.7926345817,1.0565448627634602E-11,1149.1868111588121,0.6862299052165388,8.351087158479153,-2.645130430506958
1320.0,-5964026.013245009,-2641151.9837121675,1682246.0443820509,-234255.50990509312,-6518355.864964914,1682677.3354762793,4883.336208029579,-1612.6975947718245,-5745.838766773181,0.3057167282876462,8.50915178094639,-2.2030694607062955,6769150.573020959,1.1195753694590873,-0.0011909678869856286,-0.18829774275458885,-7.963687211634381E-4,-1.741551137545755,0.8896117212821428,-0.04717964371912847,4.658681209898652E-20,-0.0011222300308759384,4.0657581468206416E-20,359317.12960520433,1.1317890601160903E-11,1153.125981628918,0.30572042772887625,8.50915044189818,-2.203074282620776
1380.0,-5921486.977927408,-2914857.3939632396,1334026.2435765387,59065.385882114395,-6599724.496693591,1334232.184962613,4890.196485243743,-1098.4126984816444,-5864.4605507356555,-0.07730156142923217,8.626881256582791,-1.7492029617692866,6769616.303190645,1.123950638707566,-0.0012601074528578752,-0.18691940467442258,-7.30982352994294E-4,-1.6583883691202068,0.8982960218289323,0.05945959770671923,4.658681209898652E-20,-0.0011222300308759384,4.0657581468206416E-20,356206.428734712,1.2059047228948755E-11,1156.425651199264,-0.0772976169132927,8.626880270086351,-1.7492082081582598
1440.0,-5853544.684619088,-3175390.115807613,979513.1626679773,352107.8128419918,-6650048.7042155,979492.7860572818,4874.0478147600115,-578.2949922526213,-5955.550996759918,-0.4609293625569915,8.703460604591765,-1.2857327851736904,6769980.880722549,1.1283259079560126,-0.0013250777326101254,-0.1854869004071421,-6.555442473540863E-4,-1.5735978370238188,0.9013421412667296,0.167678304848736,4.658681209898652E-20,-0.0011222300308759384,4.0657581468206416E-20,353330.7105512582,1.2775438139130487E-11,1159.0730971734224,-0.46092520056154185,8.703460031926678,-1.285738432187965
1500.0,-5760363.561987505,-3421732.6657123337,620373.5442367323,643491.2878091385,-6669052.981464816,620126.9460312637,4834.911212952081,-54.8325439948408,-6018.602045857639,-0.8432442336833436,8.738291603013428,-0.8149427799054259,6770237.046476842,1.1327011772044275,-0.0013851007935744182,-0.18400340269789547,-5.703169337215617E-4,-1.4887544881284087,0.8986716537957294,0.2759482912658581,4.658681209898652E-20,-0.0011222300308759384,4.0657581468206416E-20,350708.63037055364,1.3452811399280957E-11,1161.0587961944461,-0.8432398896430983,8.73829150139851,-0.8149487918240919
1560.0,-5642221.424401256,-3652930.8532915707,258300.46111466532,931840.057455799,-6656612.0484842975,257828.8044585303,4772.923434256864,469.45744168897005,-6053.244649287714,-1.2223127826536095,8.731002443691303,-0.33918035013414466,6770379.637524109,1.1370764464528427,-0.0014394112499979683,-0.18247234505575952,-4.7564689384429186E-4,-1.405438464485857,0.8903533889484055,0.3827361639045078,4.658681209898652E-20,-0.0011222300308759384,4.0657581468206416E-20,348356.26955656044,1.4076674265942398E-11,1162.3767293404378,-1.2223082993188408,8.731002863550861,-0.3391866794452029
1620.0,-5499509.19689583,-3868097.965284406,-104995.12440954661,1215790.0546776731,-6612752.188052354,-105689.6129457055,4688.337247058972,992.0424052999647,-6059.252137037903,-1.5962034176714797,8.681453998248251,0.1391585184659325,6770405.665496044,1.1414517157012258,-0.0014872633183761598,-0.1808974034855732,-3.7196765555587766E-4,-1.3250831126112976,0.876595054568748,0.4866556617840166,4.658681209898652E-20,-0.0011222300308759384,4.0657581468206416E-20,346286.9669556262,1.4632898128340227E-11,1163.024480542403,-1.5961988441424353,8.681454980537131,0.13915193035636847
1680.0,-5332730.0251203505,-4066418.622540401,-467792.97600146075,1493995.8484227678,-6537651.745223454,-468707.0151299688,4581.520936722293,1510.3885349585044,-6036.542662455505,-1.9629993495247626,8.589744218479947,0.6176450645610995,6770314.3759574415,1.1458269849495775,-0.001527938108656698,-0.17928247673527098,-2.598005915860648E-4,-1.248857112718567,0.8577192397597972,0.586585879596162,4.658681209898652E-20,-0.0011222300308759384,4.0657581468206416E-20,344511.1944540925,1.510836065539058E-11,1163.0031933436408,-1.9629947398658687,8.58974579226578,0.617638285973776
1740.0,-5142497.764797871,-4247152.281714154,-828372.3164784075,1765137.5401760396,-6431640.7739901,-829501.5842890027,4452.957022611481,2021.9750727178898,-5985.180676396429,-2.3208117736275127,8.456210496311394,1.0938342694291796,6770107.283007209,1.1502022541979289,-0.0015607509563032589,-0.17763166509858383,-1.3975306782794796E-4,-1.1776021910183951,0.8341299041581928,0.6817339182474753,4.658681209898652E-20,-0.0011222300308759384,4.0657581468206416E-20,343036.47924954473,1.549158001013997E-11,1162.3174443560395,-2.3208071851219025,8.456212676810585,1.0938273764485247
1800.0,-4929534.850870427,-4409636.355795225,-1185020.6194219831,2027927.559683001,-6295199.822632751,-1186359.7728156107,4303.240181845743,2524.3086962772113,-5905.377393507185,-2.6677931033644606,8.281429785785393,1.565281895174092,6769788.1684185,1.154577523446217,-0.0015850585828592425,-0.17594924786076216,-1.2513930255512521E-5,-1.1118280220767305,0.8062766880116068,0.7716403607034311,4.658681209898652E-20,-0.0011222300308759384,4.0657581468206416E-20,341867.37408610346,1.5773292439249634E-11,1160.9750882254552,-2.6677885945058373,8.281432573025826,1.5652749691708765
1860.0,-4694669.552672607,-4553288.930477534,-1536042.397987229,2281117.3123298823,-6128957.857365314,-1537585.09736654,4133.074382148547,3014.937836816218,-5797.4902272666595,-3.0021500639819503,8.066216333241261,2.0295617698562314,6769363.034056838,1.1589527926945367,-0.0016002658820738365,-0.17423965953827392,1.2115334152195606E-4,-1.0517504053459263,0.7746230677634026,0.8561414947168459,4.658681209898652E-20,-0.0011222300308759384,4.0657581468206416E-20,341005.4754759737,1.5946926433813118E-11,1158.9871235345595,-3.0021456923295657,8.066219711480631,2.0295548946405955
1920.0,-4438832.627980143,-4677611.056833832,-1879767.9288184408,2523503.6311123897,-5933689.332464195,-1881506.867915385,3943.2692390015277,3491.4667872707464,-5662.0211886602365,-3.322156414964916,7.811616963694254,2.484282990790431,6768839.999964137,1.163328061942793,-0.0016058321593912482,-0.17250746511914689,2.604192125564899E-4,-0.9973527367978705,0.7396217670936759,0.9353082676694179,4.658681209898652E-20,-0.0011222300308759384,4.0657581468206416E-20,340449.48886649817,1.6008934120911462E-11,1156.367620599731,-3.3221522350043795,7.811620901662302,2.484276249577684
1980.0,-4163053.395277598,-4782188.6047539795,-2214561.849277767,2753934.987464225,-5710310.423824535,-2216488.7899623974,3734.7356265715343,3951.569456082971,-5499.614263603438,-3.6261650640489247,7.518904000432952,2.927106708893451,6768229.146861798,1.1677033311910492,-0.0016012767025466482,-0.17075733454838454,4.0439763205991745E-4,-0.9484529480630111,0.7016982752092156,1.0093798078855842,4.658681209898652E-20,-0.0011222300308759384,4.0657581468206416E-20,340195.33878684114,1.5958952847595878E-11,1153.1337407394333,-3.626161125203916,7.51890845239604,2.9271001812849256
2040.0,-3868455.2496676715,-4866693.666015938,-2538831.567687063,2971317.417396982,-5459874.451376965,-2540937.379566792,3508.4805853034004,4393.002629720237,-5311.051803409306,-3.9126193676024967,7.189566010815744,3.355762199581664,6767542.308643702,1.1720786004407024,-0.0015861836182446613,-0.16899401671216585,5.521557294522819E-4,-0.9047641662901265,0.6612415958616468,1.0787032667242924,4.658681209898652E-20,-0.0011222300308759384,4.0657581468206416E-20,340236.32117066334,1.579978551936142E-11,1149.3058632555942,-3.912615712529739,7.189570918391523,3.355755958761916
2100.0,-3556250.653160392,-4930885.500443837,-2851035.428825497,3174620.122315065,-5183566.523598877,-2853310.133411106,3265.601579834988,4813.618621227592,-5097.2499780475655,-4.180063465688997,6.82529664157995,3.768062003257394,6766792.825405327,1.176453869688895,-0.0015602059253160105,-0.16722231315839367,7.027229486277598E-4,-0.8659435687353036,0.618600566253703,1.1436855158892063,4.658681209898652E-20,-0.0011222300308759384,4.0657581468206416E-20,340563.29422228516,1.5537205060784153E-11,1144.9078223033198,-4.180060128962642,6.8253019361673815,3.768056113587387
2160.0,-3227735.634707941,-4974611.022983736,-3149690.5802473235,3362880.7073291526,-4882697.4442292545,-3152123.3994315607,3007.2801683215266,5211.377198532195,-4859.253352398089,-4.427151554211135,6.42798181949305,4.161916002317913,6765995.2692359565,1.180829138937088,-0.0015230689461551736,-0.16544705176279573,8.550991022715144E-4,-0.8316283911062119,0.5740839904233815,1.2047577505096667,4.658681209898652E-20,-0.0011222300308759384,4.0657581468206416E-20,341164.903356085,1.517960408467674E-11,1139.9672420946983,-4.427148561466614,6.4279874251361635,4.161910517464727
2220.0,-2884283.838761177,-4997804.833985415,-3433380.4887915202,3535210.02370566,-4558696.927192816,-3435959.8973583775,2734.775148907801,5584.356701941438,-4598.2286516741015,-4.652656032512258,5.999685560202239,4.535344363090246,6765165.153148926,1.1852044081852489,-0.0014745730648267166,-0.1636730605225642,0.0010082610886846762,-0.8014605219080256,0.5279630998703915,1.2623515766642455,4.658681209898652E-20,-0.0011222300308759384,4.0657581468206416E-20,342027.83490747004,1.473752341836965E-11,1134.5159459012095,-4.6526534000785515,5.999691396679694,4.5353393247828455
2280.0,-2527340.1643141126,-5000488.798777146,-3700762.060730656,3690796.5861370773,-4213106.170762356,-3703475.8425886137,2449.415252352429,5930.764273390291,-4315.457785605802,-4.855474475116025,5.542634580023542,4.886489293274892,6764318.629214971,1.1895796774333782,-0.001414595935406529,-0.16190514163935268,0.0011611682887401015,-0.7751020651879247,0.48047523808041687,1.3168842134597762,4.658681209898652E-20,-0.0011222300308759384,4.0657581468206416E-20,343137.0925624443,1.4223101048680025E-11,1128.5904015103406,-4.855472210124323,5.54264056595202,4.886484730719492
2340.0,-2158414.0386682567,-4982771.186540945,-3950572.3232737277,3828910.5397513905,-3847569.8463084092,-3953407.6310846354,2152.5914530902046,6248.945130641427,-4012.3302042461796,-5.034635367646957,5.0592018765551305,5.213625550443937,6763472.177201695,1.1939549466814758,-0.001343094221102606,-0.16014804605729283,0.0013127669134893889,-0.752244307993298,0.4318280279871511,1.3687503877295812,4.658681209898652E-20,-0.0011222300308759384,4.0657581468206416E-20,344476.28989275923,1.3649485624344946E-11,1122.232151372535,-5.034633468567696,5.05920793231111,5.21362148037848
2400.0,-1779072.3721425424,-4944845.382136703,-4181634.629639027,3948907.156233925,-3463827.5606928365,-4184578.047495959,1845.7489749539109,6537.390829757573,-3690.334663078246,-5.1893025372017565,4.551889457187745,5.515169604855035,6762642.281948555,1.1983302159295892,-0.0012601049158257594,-0.15840644863823794,0.0014619937396096521,-0.7326121724846089,0.38220356820713147,1.418318857943312,4.658681209898652E-20,-0.0011222300308759384,4.0657581468206416E-20,346027.9521161104,1.3030256085421502E-11,1115.4881569716613,-5.189300994734359,4.551895507485108,5.515166032176035
2460.0,-1390932.241368057,-4886988.188128416,-4392864.354762157,4050229.843130126,-3063704.854413539,-4395901.963554784,1530.3790718170005,6794.746471404057,-3351.0504816518387,-5.318778217061183,4.023310450259864,5.7896873394742325,6761845.097900597,1.2027054851776549,-0.0011657462762892604,-0.15668492418019575,0.0016077797610764607,-0.7159657603502887,0.33176240803136536,1.4659319787053153,4.658681209898652E-20,-0.0011222300308759384,4.0657581468206416E-20,347773.82028931373,1.2378882238317376E-11,1108.4109614345796,-5.31877701528353,4.023316426264071,5.789684258334941
2520.0,-995653.3495408897,-4809557.737703064,-4583274.053960379,4132412.655301873,-2649103.7998068654,-4586391.499055393,1208.0106659270152,7019.816822867602,-2996.1383867234817,-5.422504728046426,3.476170908678492,6.035900187107181,6761096.103061985,1.207080754425705,-0.0010602183543533409,-0.15498792450041837,0.0017490542633656755,-0.7021001542334692,0.28064718572357594,1.5119071629553567,4.658681209898652E-20,-0.0011222300308759384,4.0657581468206416E-20,349695.1515816082,1.1708251701200534E-11,1101.0585420953093,-5.42250384572423,3.4761767495853664,6.035897582365216
2580.0,-594930.3118437966,-4712991.042253976,-4751978.062478774,4195082.302468519,-2221993.2647040174,-4755160.62333563,880.2019256663162,7211.571348166185,-2627.33103517618,-5.500064833011592,2.9132516727419553,6.252689668985636,6760409.75112639,1.211456023673723,-9.438030915459275E-4,-0.1533197567955252,0.001884749726815789,-0.6908442813416954,0.2289858978076191,1.5565394616316075,4.658681209898652E-20,-0.0011222300308759384,4.0657581468206416E-20,351773.0099864912,1.103027847026484E-11,1093.4936923401349,-5.50006424497027,2.913257326794988,6.252687517870757
2640.0,-190484.81310725518,-4597801.199842445,-4898196.519562581,4237959.651512175,-1784398.906723397,-4901429.180901347,548.5318584253209,7369.148161043247,-2246.423311229853,-5.5511809101222624,2.337390661434943,6.439100400059342,6759799.137565659,1.2158312929217412,-8.168639169073865E-4,-0.1516845634565759,0.002013807799695861,-0.6820593755682828,0.1768948151490494,1.6001047527347216,4.658681209898652E-20,-0.0011222300308759384,4.0657581468206416E-20,353988.54266981874,1.0355599334184487E-11,1085.7827582114937,-5.551180588593467,2.3373960863954792,6.439098673935765
2700.0,215942.31728672076,-4464574.292318149,-5021258.806184986,4260860.726455604,-1338392.9618589901,-5024526.330322894,214.5919830925955,7491.8569360506635,-1855.262485236159,-5.575713167410563,1.7514658908232683,6.59434173448348,6759275.700482709,1.2202065621697118,-6.798447806211153E-4,-0.15008630345101476,0.00213518639038156,-0.6756373840650823,0.12448108741901312,1.642863225539049,4.658681209898652E-20,-0.0011222300308759384,4.0657581468206416E-20,356323.2379641807,9.693358167717087E-12,1077.993593226828,-5.575713083279982,1.751471053941166,6.594340400593257
2760.0,622599.0709356013,-4313965.999441219,-5120606.390426831,4263697.212462559,-886083.8884500529,-5123893.3904027585,-120.02186804692847,7579.180827037941,-1455.7383083401755,-5.573657158056673,1.158379382868195,6.717788303753468,6758848.977866202,1.2245818314176822,-5.332685609326866E-4,-0.14852873530270233,0.0022478677390309976,-0.6714995346552755,0.07184508987452876,1.6850629784726325,4.658681209898652E-20,-0.0011222300308759384,4.0657581468206416E-20,358759.161665863,9.051075697064394E-12,1070.1927249796386,-5.573657281956901,1.1583842604265766,6.7177873268453
2820.0,1027730.2269327784,-4146697.9579739813,-5195795.078484278,4246476.472732383,-429605.9244603884,-5199086.091595061,-453.71758348934634,7630.777447246199,-1049.7731012044762,-5.545140836175781,0.5610419630337532,6.808979719803011,6758526.438486823,1.228957100665621,-3.777347990920513E-4,-0.14701540162186413,0.002350867177240515,-0.6695951950211226,0.019082571211794665,1.7269436371919207,4.658681209898652E-20,-0.0011222300308759384,4.0657581468206416E-20,361279.1686985364,8.434603125211397E-12,1062.4419687573152,-5.5451411393868835,0.561046539561051,6.808979063572327
2880.0,1429585.2824804608,-3963553.892669448,-5246496.672298219,4209301.088837162,28891.38715890276,-5249776.233676866,-784.91462063538,7646.478960541828,-639.3118798119524,-5.490421318295162,-0.037641199420763286,6.867619665470304,6758313.394544877,1.2333323699135281,-2.139167424132195E-4,-0.14554961508007516,0.002443242184291891,-0.6699010994764639,-0.03371333770906496,1.7687399555752512,4.658681209898652E-20,-0.0011222300308759384,4.0657581468206416E-20,363867.08739307773,7.848159521029366E-12,1054.7950297138982,-5.490421773435151,-0.03763693216512875,6.867619293760624
2940.0,1826426.3126246608,-3765375.5447786734,-5272500.03703811,4152367.9361443203,487253.65289992455,-5275752.752911009,-1112.0516524803197,7626.291321819639,-226.31255098484283,-5.4098814072902055,-0.6347845315148255,6.893574489049358,6758212.9923276445,1.2377076391614352,-4.2557704069868744E-5,-0.14413444570581638,0.0025241013124341336,-0.672420983679099,-0.08645019493101144,1.8106853961101195,4.658681209898652E-20,-0.0011222300308759384,4.0657581468206416E-20,366507.8737015015,7.294451201226698E-12,1047.2948646071789,-5.4098819887972445,-0.6347805756700198,6.89357436679112
3000.0,2216535.7252691225,-3553058.422542008,-5273711.58349695,4075966.8068540767,943332.0126743267,-5276922.203765042,-1433.593997558895,7570.392691239945,187.26379294686222,-5.304025827471918,-1.2275356832865076,6.886871293146969,6758226.265532559,1.2420829084093103,1.3553321821596826E-4,-0.14277270939954942,0.002592612579224691,-0.6771856436975451,-0.13903433958580858,1.8530157035551638,4.658681209898652E-20,-0.0011222300308759384,4.0657581468206416E-20,369187.7327640023,6.774863659984579E-12,1039.9725407327646,-5.304026511897809,-1.2275320360308482,6.886871387036315
3060.0,2598223.8781541917,-3327547.39743086,-5250155.172299338,3980478.594242592,1394993.4042478302,-5253308.662096921,-1748.0408123355564,7479.131037357227,599.4624469870005,-5.173477047413239,-1.8130889427036265,6.8476954048395795,6758352.227682956,1.246458177657154,3.1948599927426755E-4,-0.1414669576277118,0.0026480109996372017,-0.6842534168851083,-0.1913689467470913,1.8959724901330555,4.658681209898652E-20,-0.0011222300308759384,4.0657581468206416E-20,371894.205544478,6.289704443673469E-12,1032.8479467922598,-5.17347781356091,-1.8130855973219735,6.847695683782714
3120.0,2969836.524825454,-3089832.169762133,-5201971.449072997,3866373.053191348,1840130.6598557509,-5205053.058967751,-2053.932017141294,7353.0209426594365,1008.3444920597917,-5.0189705554084,-2.3886983843510476,6.7763870716505,6758587.97761356,1.2508334469049975,5.08375033295745E-4,-0.1402194683368342,0.002689605039543503,-0.6937110622685335,-0.2433519861205107,1.939806842710843,4.658681209898652E-20,-0.0011222300308759384,4.0657581468206416E-20,374616.21888244373,5.8384650706292215E-12,1025.9321177946845,-5.0189713843521595,-2.3886953311750054,6.776387507014754
3180.0,3329762.057261806,-2840942.6275739633,-5129416.622500229,3734206.1540357554,2276672.3877265463,-5132411.9570094785,-2349.8549199462786,7192.7396329992835,1411.9959689209652,-4.841349505551152,-2.9516905467527867,6.673437263319171,6758928.796176433,1.2552087161527934,7.012248730295023E-4,-0.13903223820546798,0.002716781893662668,-0.7056749917328229,-0.2948740250441486,1.9847829409303654,4.658681209898652E-20,-0.0011222300308759384,4.0657581468206416E-20,377344.09828683914,5.420068503835637E-12,1019.2304443216977,-4.841350380577012,-2.9516877739520124,6.673437829037592
3240.0,3676438.5142159634,-2581944.123009742,-5032860.700357031,3584617.049001661,2702592.5929653817,-5035755.784468559,-2634.4505001741986,6999.122267812623,1808.5367725976612,-4.641558752269195,-3.499476343856745,6.539482562575845,6759368.222291342,1.2595839854005895,8.970162630085142E-4,-0.13790697640260138,0.002729011610183232,-0.720292763286296,-0.3458158160639617,2.031181636021894,4.658681209898652E-20,-0.0011222300308759384,4.0657581468206416E-20,380069.54408612737,5.033077364932497E-12,1012.745893325452,-4.6415596587657015,-3.4994738380854624,6.539483235148608
3300.0,4008360.326629688,-2313932.6905077295,-4912785.201880848,3418324.6726674205,3115919.9950030535,-4915566.545281629,-2906.419319237152,6773.156545960505,2196.1292155964484,-4.420638403263082,-4.029561924767397,6.375299264626265,6759898.109714011,1.2639592546483536,0.0010946923740716738,-0.13684510002241004,0.0027258501832706727,-0.7377446853523599,-0.39604561115662457,2.079303876106844,4.658681209898652E-20,-0.0011222300308759384,4.0657581468206416E-20,382785.57297583873,4.67585218855888E-12,1006.4815764917021,-4.420639328584307,-4.0295596716849635,6.375300023053498
3360.0,4324084.774579037,-2038030.2305165501,-4769780.367620496,3236123.9995937706,3514747.0025697853,-4772435.026353256,-3164.5270350372152,6515.976696347823,2572.9862191586017,-4.179717105569334,-4.539558305723201,6.181796927162172,6760508.679006593,1.268334523896086,0.0012931651593374011,-0.1358477313188723,0.0027069418012238802,-0.7582452848773432,-0.44541615112965127,2.1294737648377815,4.658681209898652E-20,-0.0011222300308759384,4.0657581468206416E-20,385486.4283677097,4.346661706503448E-12,1000.4423698217672,-4.179718038883842,-4.539556290411891,6.181797752832899
3420.0,4622238.133665483,-1755379.6811239705,-4604541.889875325,3038881.983219626,3897238.311517298,-4607057.525160268,-3407.6095116980405,6228.85692786318,2937.379108628675,-3.9200053057338327,-5.027189778062781,5.960011675917388,6761188.588650274,1.2727097931452471,0.0014913217691849094,-0.13491569676821344,0.002672020471822141,-0.7820442474068606,-0.4937612940929427,2.1820408922704075,4.658681209898652E-20,-0.0011222300308759384,4.0657581468206416E-20,388167.4640255591,4.043754430231286E-12,994.6356092438797,-3.9200062378678924,-5.027187985363797,5.96001255247107
3480.0,4901521.492016267,-1467140.1979494367,-4417867.187722474,2827533.2002267516,4261639.095161073,-4420232.121699215,-3634.5775292597427,5913.204407070412,3287.645007098097,-3.6427886806464427,-5.490301289011626,5.711099548935293,6761925.05241386,1.2770850623929477,0.0016880309823784998,-0.13404952787033503,0.002620911248997269,-0.8094262268502738,-0.5408922778272944,2.237381363017668,4.658681209898652E-20,-0.0011222300308759384,4.0657581468206416E-20,390825.0061172045,3.765402655259966E-12,989.0710664672822,-3.6427896039264556,-5.490299703795669,5.711100462106739
3540.0,5160716.221431829,-1174482.360482248,-4210651.250518916,2603075.2239940735,4606282.760468234,-4212854.51868106,-3844.421106981406,5570.551815578775,3622.1938356766445,-3.3494218316023003,-5.926865135633022,5.4363300571936,6762704.0259054275,1.2814603316406326,0.001882149623725788,-0.1332494634800133,0.002553531239481188,-0.840708629415457,-0.5865936672686118,2.295896650203597,4.658681209898652E-20,-0.0011222300308759384,4.0657581468206416E-20,393456.19893669506,3.509928547191062E-12,983.7604568815875,-3.3494227396996794,-5.926863743017249,5.43633099464854
3600.0,5398689.087582585,-878583.4206508092,-3983882.073039523,2366563.7498552427,4929598.245875162,-3985913.473151052,-4036.213455513493,5202.549516667717,3939.5149347630972,-3.041322201492297,-6.334987357556059,5.137079978927279,6763510.474473549,1.2858356008883016,0.00207252895688981,-0.13251545337311563,0.002469890523865432,-0.8762360914514021,-0.6306191339218377,2.3580090159774167,4.658681209898652E-20,-0.0011222300308759384,4.0657581468206416E-20,396058.83921130287,3.275719337753365E-12,978.7167004563262,-3.041323089273162,-6.334986143075843,5.13708093009391
3660.0,5614396.984143479,-580622.6080429486,-3738635.7046211376,2119107.494107007,5230116.837625464,-3740485.8419200187,-4209.114567014584,4810.957339175942,4238.183316596912,-2.719964054407842,-6.712914142760427,4.814827237207815,6764328.719713831,1.2902108701359387,0.0022580210482603014,-0.13184716271067232,0.002370093041816017,-0.9163699115272735,-0.6726873660975076,2.4241517772131123,4.658681209898652E-20,-0.0011222300308759384,4.0657581468206416E-20,398631.2032335172,3.0612361644522902E-12,973.9530967655571,-2.7199649177894125,-6.712913092502274,4.814828193108426
3720.0,5806891.27504375,-281776.5053328629,-3476070.9344195575,1861862.8885114903,5506478.481523021,-3477731.2629300235,-4362.374440189142,4397.635972511733,4516.865546281082,-2.3868722857904108,-7.059038390682278,4.4711445857225405,6765142.846252645,1.29458613938356,0.002437485100619562,-0.13124397708737814,0.0022543374200992817,-0.9614702371105424,-0.7124786350961471,2.4947522326655,4.658681209898652E-20,-0.0011222300308759384,4.0657581468206416E-20,401171.8702581932,2.865019222258986E-12,969.4825160398311,-2.3868731216055985,-7.05903749138302,4.471145538808524
3780.0,5975321.727974442,16785.492312833478,-3197423.635593212,1596028.5926476598,5757437.566496268,-3198886.4953846694,-4495.335922947609,3964.5379644971845,4774.325230192117,-2.0436158318853472,-7.371906356710677,4.107692784264397,6765937.137878812,1.2989614086311496,0.0026097937549978203,-0.13070500792617387,0.0021229176477667363,-1.011868526296583,-0.7496328523296835,2.5702047858644868,4.658681209898652E-20,-0.0011222300308759384,4.0657581468206416E-20,403679.54490438086,2.6856906852882015E-12,965.3166617455325,-2.0436166377566822,-7.371905595827484,4.107693728257326
3840.0,6118940.021739107,313905.61922916427,-2904000.793044012,1322839.8478848622,5981868.156139367,-2905259.4432921526,-4607.437143375098,3513.6983247394596,5009.428072664402,-1.6918005200867976,-7.650224095593953,3.7262129968643207,6766696.505371365,1.3033366778787392,0.0027738393502116333,-0.13022909809881886,0.001976223448506869,-1.06782805043393,-0.7837503289759215,2.6508320416349607,4.658681209898652E-20,-0.0011222300308759384,4.0657581468206416E-20,406152.88086679985,2.5219561481694942E-12,961.465428597174,-1.6918012943104506,-7.650223461349321,3.7262139266051313
3900.0,6237102.810536476,608442.0669061518,-2597174.242104741,1043562.6987290453,6178768.645160801,-2598222.8898296016,-4698.213493729451,3047.224757664876,5221.146449439751,-1.3330613255218264,-7.892863287606537,3.328518277204988,6767406.869057926,1.307711947126297,0.002928540121957783,-0.12981482777827041,0.0018147401665028495,-1.1294915110986394,-0.814396819757678,2.736832960219874,4.658681209898652E-20,-0.0011222300308759384,4.0657581468206416E-20,408590.3081827623,2.372604955716255E-12,957.9363606485757,-1.333062066962124,-7.892862769012185,3.3285191885127468
3960.0,6329274.330153854,899273.1806650374,-2278374.148793298,759488.1093855737,6347265.819897434,-2279207.97316989,-4767.299134299243,2567.287575629687,5408.563443383314,-0.969054137971632,-8.098866007431534,2.9164841801678856,6768055.466965979,1.312087216373823,0.00307284631126675,-0.1294605206446169,0.001639047977553227,-1.1968178447601836,-0.8411146295543159,2.8282201515922627,4.658681209898652E-20,-0.0011222300308759384,4.0657581468206416E-20,410989.86659850355,2.2365096008799323E-12,954.7342036107904,-0.9690548459661217,-8.09886559429488,2.9164850697091094
4020.0,6395028.534306888,1185301.5084919645,-1949082.265345928,471926.0051115389,6486618.3058356885,-1949697.437505478,-4814.427993840329,2076.1093667503205,5570.876295484635,-0.6014472576259055,-8.267448085584041,2.4920387060004314,6768631.072530541,1.3164624856213492,0.0032057461424756903,-0.12916425064081008,0.0014498202605125218,-1.2695153354017101,-0.8634413095790334,2.9247534383934064,4.658681209898652E-20,-0.0011222300308759384,4.0657581468206416E-20,413349.0481394121,2.1126242857976175E-12,951.8605405478037,-0.6014479319007267,-8.267447768500595,2.492039571169422
4080.0,6434050.75359031,1465457.6858376402,-1610824.9971104045,182199.26888854365,6596219.3900876045,-1611218.6953735224,-4839.434258526281,1575.954508173725,5707.39924037287,-0.23191289740264634,-8.398000886976927,2.057151899302274,6769124.121138542,1.3208377548688435,0.003326271621843243,-0.12892384949764743,0.001247821014848181,-1.3469846107882495,-0.8809364400313974,3.02588327048368,4.658681209898652E-20,-0.0011222300308759384,4.0657581468206416E-20,415664.652618104,1.9999827086681202E-12,949.3134981764931,-0.23191353799773629,-8.39800065731166,2.0571527381125163
4140.0,6446138.874130889,1738704.1417896561,-1265166.3181099927,-108362.2760739189,6675599.212412997,-1265336.7386166311,-4842.252358073141,1069.118619814946,5817.565716404534,0.13788103982396868,-8.490091538983982,1.6138254603257438,6769526.758941932,1.325213024116306,0.003433504106453528,-0.12873691521660133,0.0010339012784137702,-1.4282905363548632,-0.8932150022245605,3.1307230116596725,4.658681209898652E-20,-0.0011222300308759384,4.0657581468206416E-20,417932.660331593,1.897695131245506E-12,947.0875104698362,0.13788043262049451,-8.490091388844274,1.6138262713120863
4200.0,6431204.037367927,2004038.614320952,-913700.5725613085,-398427.868462361,6724426.323897232,-913646.935285352,-4822.916471931279,557.9180459160912,5900.929960748143,0.5062787116355192,-8.54346182364075,1.1640826770491863,6769832.837307585,1.3295882933637686,0.0035265795924502496,-0.12860082162099676,8.08994581858875E-4,-1.5121822731259915,-0.8999831605438784,-3.0451159362149447,4.658681209898652E-20,-0.0011222300308759384,4.0657581468206416E-20,420148.12639669765,1.804944783701552E-12,945.173126031814,0.5062781373445878,-8.543461745843157,1.1640834591802551
4260.0,6389270.865931397,2260497.46493185,-558045.1985095146,-686671.7677358391,6742508.617178277,-557767.748667678,-4781.559587153947,44.6794351756175,5957.1680152472145,0.8716435245578104,-8.558026057872702,0.7099588734526688,6770037.880180854,1.3339635626111994,0.003604693679093187,-0.12851272898885605,5.741115536840466E-4,-1.5971719738144268,-0.9010698719712734,-2.93670384884992,4.658681209898652E-20,-0.0011222300308759384,4.0657581468206416E-20,422305.1009636008,1.7209836645253696E-12,943.556845008916,0.8716429825590546,-8.558026045905375,0.7099596260527705
4320.0,6320477.223041093,2507158.785510566,-199833.4079304553,-971779.1438696369,6729793.635747269,-199333.41281564353,-4718.412141517782,-468.27053012294147,5986.07817640235,1.2323647822660257,-8.533868298800158,0.2534924297486415,6770139.049050416,1.3383388318585985,0.003667106175621359,-0.12846959568103636,3.3033385818134563E-4,-1.681665056096015,-0.8964470430168959,-2.828773898353105,4.658681209898652E-20,-0.0011222300308759384,4.0657581468206416E-20,424396.57887414686,1.6451278484025784E-12,942.2209771052252,1.2323642718407268,-8.533868346782294,0.2534931524283247
4380.0,6225073.514282194,2743145.2923097135,159293.14437122503,-1252451.8740006748,6686368.272308093,160013.40308291715,-4633.800281493804,-978.6152238712054,5987.580922258205,1.5868638974139546,-8.471239134811336,-0.20328369388578638,6770135.1223195,1.3427141011059978,0.003713145332132406,-0.12846819060251585,7.880769192776878E-5,-1.764115671211135,-0.8862329656686865,-2.722825108398981,4.658681209898652E-20,-0.0011222300308759384,4.0657581468206416E-20,426414.4812927707,1.5767989703871364E-12,941.1494385861779,1.586863417767898,-8.47123923745376,-0.20328300127091514
4440.0,6103421.5413021,2967627.0033788085,517691.67252709717,-1527414.2235702532,6612457.867707115,518628.910928663,-4528.143757191839,-1484.0579644918214,5961.7183423293045,1.9336003030066338,-8.370552189869127,-0.6583500729790773,6770026.4949252885,1.347089370353365,0.003742211691541633,-0.12850510629816397,-1.7926291721882118E-4,-1.8431705215560032,-0.8706780890864685,-2.620163494749016,4.658681209898652E-20,-0.0011222300308759384,4.0657581468206416E-20,428349.67054568656,1.5155919269101104E-12,940.3381948049396,1.9335998532678171,-8.370552342449328,-0.6583494103311005
4500.0,5955992.917397203,3179823.6966427458,873725.5227876258,-1795418.3906488721,6508424.7230247175,874875.4712685412,-4401.953468674529,-1982.3316848786505,5908.653087541879,2.271077176484835,-8.232380325487076,-1.1097087249581228,6769815.192932965,1.3514646396007006,0.0037537815739494447,-0.12857677249073302,-4.4262278528114235E-4,-1.9177690958418172,-0.8501369484569624,-2.5218014744132558,4.658681209898652E-20,-0.0011222300308759384,4.0657581468206416E-20,430191.99806441576,1.4611515559150853E-12,939.7815170332595,2.2710767557363885,-8.23238052382825,-1.109708091987701
4560.0,5783367.055542529,3379007.1462699473,1225771.3596466328,-2055249.8928212745,6374766.038537751,1227128.7836946284,-4255.828673028674,-2471.2083625011965,5828.666849420901,2.5978470250620425,-8.057451418327897,-1.555390904346196,6769504.889205207,1.3558399088480522,0.003747410218191806,-0.12867946991634496,-7.099720424063867E-4,-1.9871855662819926,-0.8250331024568904,-2.4284156009713205,4.658681209898652E-20,-0.0011222300308759384,4.0657581468206416E-20,431930.3841050741,1.4131508543890516E-12,939.4693342564128,2.5978466323777876,-8.057451658773891,-1.5553903006281091
4620.0,5586228.7404795615,3564503.1353188944,1572226.2468586937,-2305732.7765348903,6212111.294803853,1573784.9720189187,-4090.4538611181256,-2948.508179396839,5722.158374447735,2.9125170987738476,-7.846643553070474,-1.9934647948640365,6769100.902071544,1.360215178095356,0.0037227346129808454,-0.12880934438271888,-9.799722906055396E-4,-2.0510169605348225,-0.7958242030497785,-2.340358007866869,4.658681209898652E-20,-0.0011222300308759384,4.0657581468206416E-20,433552.9269578326,1.3712912954893395E-12,939.387269161474,2.9125167332497752,-7.846643832457446,-1.993464219887803
4680.0,5365365.298078669,3735693.243175515,1911514.5956997867,-2545734.6294565178,6021219.093210636,1913267.5365585694,-3906.595317190026,-3412.1083729267457,5589.6410219415175,3.213754527420445,-7.600979507952614,-2.4220430121294467,6768610.15993256,1.3645904473426438,0.0036794760535873833,-0.12896242105263622,-0.0012512524241965796,-2.109134718164929,-0.7629723965717383,-2.257704444072794,4.658681209898652E-20,-0.0011222300308759384,4.0657581468206416E-20,435047.03873250727,1.3352984029315677E-12,939.5160420132786,3.2137541882035876,-7.60097982357712,-2.4220424653471535
4740.0,5121663.377165669,3892016.407194852,2242094.953523475,-2774171.3773864196,5802973.475849494,2244034.146568761,-3705.0973820046474,-3859.951733500516,5431.739881159306,3.5002910425142915,-7.321620507191814,-2.839289765395906,6768041.120294818,1.3689657165913447,0.003617442456689422,-0.12913461901532713,-0.001522414171329743,-2.1616196039030005,-0.7269225276843889,-2.1803189234989433,4.658681209898652E-20,-0.0011222300308759384,4.0657581468206416E-20,436399.60450367286,1.3048990210997778E-12,939.8281280285662,3.500290728833339,-7.3216208567702905,-2.839289246274476
4800.0,4856105.36097378,4032970.2593189273,2562466.60689453,-2990011.8487699465,5558379.7471776195,2564583.2470909986,-3486.8784483893123,-4290.054707530176,5249.188473133782,3.770927156626536,-7.009859335012337,-3.243427511975232,6767403.640163613,1.373340985838585,0.003536530458389274,-0.1293217662443113,-0.001792037486820022,-2.208695936693314,-0.688088294296269,-2.1079190221478163,4.658681209898652E-20,-0.0011222300308759384,4.0657581468206416E-20,437597.1615439513,1.2798628972587097E-12,940.293888497762,3.770926867807914,-7.009859716647678,-3.243427020026758
4860.0,4569765.42714701,4158112.239893554,2871175.9753956697,-3192282.091783534,5288559.822196292,2873460.4562999,-3252.9267243483773,-4700.515072820481,5042.825071804139,4.02453572581657,-6.667113008654764,-3.632742977557059,6766708.8035920365,1.3777162550858253,0.003436727307454593,-0.12951961503390974,-0.002058685975746235,-2.2506746269016698,-0.6468451100679354,-2.040132322827171,4.658681209898652E-20,-0.0011222300308759384,4.0657581468206416E-20,438626.0954419567,1.2605724452348388E-12,940.9695278814718,4.024535461178954,-6.667113420991002,-3.6327425121556436
4920.0,4263805.2760299705,4267060.492831096,3166822.774460007,-3380069.4311698074,4994747.127448647,3169264.7316900566,-3004.295801078521,-5089.519167310969,4813.588684393601,4.260064897585039,-6.294915259223594,-4.005592494154151,6765968.719227736,1.3820915243330338,0.003318112550136407,-0.12972385797360117,-0.002320912542108605,-2.287908774468102,-0.6035279206482173,-1.9765402458222783,4.658681209898652E-20,-0.0011222300308759384,4.0657581468206416E-20,439472.84996996936,1.247466231627487E-12,941.9158935737146,4.260064656487515,-6.294915701483245,-4.0055920545944375
4980.0,3939469.5473885676,4359494.547448521,3448065.9280080614,-3552526.2541848063,4678281.08183365,3450654.2858725227,-2742.1000607210253,-5455.348666825399,4562.514731071006,4.476540523468389,-5.8949090512878595,-4.360406700628006,6765196.303956034,1.3864667935802266,0.003180859489155411,-0.12993014446168205,-0.002577265446860778,-2.3207618103773924,-0.5584322841620808,-1.9167092731424884,4.658681209898652E-20,-0.0011222300308759384,4.0657581468206416E-20,440124.14752155636,1.2409504758045947E-12,943.1821481911026,4.476540305379391,-5.894909523269895,-4.360406286221897
5040.0,3598080.9451361164,4435155.793496428,3713629.2139392435,-3708873.5169327315,4340601.184121182,3716352.235022989,-2467.5099522641303,-5796.386919260657,4290.730458884475,4.673068165013307,-5.468839294723782,-4.695694723454643,6764405.0674174605,1.3908420628273876,0.003025236381096833,-0.13013409770268278,-0.0028262949147793218,-2.3495862844949564,-0.5118173564256316,-1.860211451859788,4.658681209898652E-20,-0.0011222300308759384,4.0657581468206416E-20,440567.2167461641,1.2414660783024838E-12,944.8129114536648,4.67306796956588,-5.468839796810499,-4.695694333606876
5100.0,3241035.08882099,4493847.756338911,3962306.627388358,-3848403.9638249394,3983240.733391267,3965151.964885576,-2181.7471557933513,-6111.1248486040595,3999.450116722641,4.848834830874955,-5.018545791364253,-5.010047986296805,6763608.906826523,1.3952173320745327,0.0028516073304778147,-0.13033133208214595,-0.0030665603644606542,-2.37471082650672,-0.46390980836002876,-1.8066366366813176,4.658681209898652E-20,-0.0011222300308759384,4.0657581468206416E-20,440790.0236719484,1.2495257173130556E-12,946.8509996124147,4.848834657918771,-5.018546324533749,-5.0100476205747
5160.0,2869795.10973709,4535436.179288822,4192967.4479997214,-3970485.053877643,3607820.207809881,4195922.200578929,-1886.0796478383575,-6398.166441437273,3689.9699095221367,5.00311054921516,-4.545956353803306,-5.302143775775861,6762821.91360401,1.399592601321678,0.0026604328288348067,-0.13051747079774634,-0.00329663825965408,-2.3964329382776426,-0.41490804255330865,-1.7555987983597992,4.658681209898652E-20,-0.0011222300308759384,4.0657581468206416E-20,440781.5022220885,1.2657456770287526E-12,949.3391410749417,5.003110398869682,-4.545956919648588,-5.302143433979107
5220.0,2485886.008915435,4559848.91984867,4404560.998368202,-4074561.5881755785,3216040.3265517773,4407611.767348584,-1581.8166761060695,-6656.233822668563,3363.6627440650796,5.135249816669253,-4.053079971557307,-5.570748626338516,6762058.185139962,1.4039678705687753,0.0024522698870715507,-0.130688163639096,-0.00351513050276056,-2.4150156964757974,-0.36498633371242606,-1.7067383017420825,4.658681209898652E-20,-0.0011222300308759384,4.0657581468206416E-20,440531.7797074138,1.2908771321728842E-12,952.3211711543079,5.135249689381501,-4.053080572313085,-5.570748308573584
5280.0,2090888.7941054928,4567075.666304227,4596121.0814728355,-4160158.0332929776,2809674.819509606,4599254.030086263,-1270.3036515090432,-6884.171919508943,3021.9727774170833,5.244692896725887,-3.5419999035355505,-5.8147215039565605,6761331.628991654,1.4083431398158728,0.002227771714460822,-0.13083910485536182,-0.0037206732270899556,-2.4306869171708305,-0.31429869608224187,-1.6597215817989592,4.658681209898652E-20,-0.0011222300308759384,4.0657581468206416E-20,440032.3927501485,1.3258379082861032E-12,955.8426806926773,5.2446927933362435,-3.542000542112765,-5.814721210720511
5340.0,1686434.4130964992,4557167.480986049,4766770.085674505,-4226880.536022219,2390562.9296724475,4769971.000182977,-952.916968612134,-7080.952707248036,2666.4097825023573,5.330966893020584,-3.014866645693522,-6.03301669909227,6760655.744949384,1.4127184090629386,0.001987686903222438,-0.13096605111286538,-0.00391194579547162,-2.4436397514284307,-0.2629823957937972,-1.6142392257575313,4.658681209898652E-20,-0.0011222300308759384,4.0657581468206416E-20,439276.48925926443,1.3717436666779288E-12,959.9508346391569,5.330966814840112,-3.0148673257196617,-6.033016431371243
5400.0,1274197.501118435,4530236.17664293,4915722.746901324,-4274418.625569305,1960601.673471976,4918977.099335692,-631.0587705032397,-7245.679030575424,2298.543351732358,5.393686517350363,-2.4738908352873255,-6.2246863137046775,6760043.373655887,1.4170936783099726,0.0017328580917240466,-0.13106483960667062,-0.004087679793735248,-2.4540340087705137,-0.21116109555377027,-1.5700031384100477,4.658681209898652E-20,-0.0011222300308759384,4.0657581468206416E-20,438259.0125664949,1.4299353333065328E-12,964.6928929984454,5.393686466252916,-2.47389156114741,-6.224686073092823
5460.0,855889.9601981461,4486453.532738416,5042289.559097545,-4302546.600464683,1521737.8845870423,5045582.571380186,-306.1516778459899,-7377.588001412069,1919.9969657902811,5.432554515403094,-1.9213362674071681,-6.388882261782448,6759506.408531225,1.4214689475570224,0.0014642200881563733,-0.13113140643466792,-0.004246667805524009,-2.4619977454556436,-0.15894765831782084,-1.5267432242044991,4.658681209898652E-20,-0.0011222300308759384,4.0657581468206416E-20,436976.8646138646,1.501997199194975E-12,970.1128848406988,5.43255449393461,-1.9213370442755524,-6.388882050626941
5520.0,433254.38788846205,4426050.3588647535,5145879.825733187,-4311124.5986418035,1075960.0662727256,5149196.534945152,20.366498238692568,-7476.053987188257,1532.4419569871668,5.447361795824148,-1.3595132697358554,-6.524857795033486,6759055.479013743,1.4258442168040246,0.001182797449538915,-0.13116180534320435,-0.004387771780231079,-2.4676288220360627,-0.10644665693396521,-1.4842038488275404,4.658681209898652E-20,-0.0011222300308759384,4.0657581468206416E-20,435429.04603105877,1.5897580870596974E-12,976.246028351923,5.447361807329522,-1.35951410358324,-6.524857616609762
5580.0,8057.371529497635,4349315.412590937,5226004.346841452,-4300099.350177107,625290.075991974,5229329.671393376,347.0480454872714,-7540.591218439242,1137.59139220441,5.437987406002682,-0.7907726719822114,-6.631968691582966,6758699.625034974,1.430219486051027,8.897015197066696E-4,-0.13115222691258077,-0.004509930840819814,-2.4709962473196057,-0.053756645964594486,-1.4421402272575161,4.658681209898652E-20,-0.0011222300308759384,4.0657581468206416E-20,433616.7718938247,1.6952677992447815E-12,983.1110128885571,5.437987454767108,-0.7907735695367252,-6.631968550300777
5640.0,-417917.33778996894,4256594.178613422,5282277.737227172,-4269504.61270932,171774.6640186755,5285596.543692307,672.4406392153198,-7570.856056150785,737.1938883701995,5.404398578370302,-0.21750050402256693,-6.709674367917442,6758445.992191146,1.4345947552979816,5.861269369022223E-4,-0.13109901816168934,-0.004612168422497868,-2.4721411995291023,-9.722550879028907E-4,-1.4003148094474709,4.658681209898652E-20,-0.0011222300308759384,4.0657581468206416E-20,431543.5627227916,1.820744738104305E-12,990.7012192921288,5.404398669767329,-0.2175014726613373,-6.709674269552363
5700.0,-842875.7597375305,4148287.5148682864,5314420.371741129,-4219461.289294243,-282523.1148883002,5317717.542108034,995.0926423540824,-7566.648962243496,333.02735517255866,5.3466511031833255,0.35788662283114236,-6.7575392512020285,6758299.581629073,1.4389700245449362,2.7334762548989074E-4,-0.13099870243559072,-0.0046935986754668485,-2.471077662771196,0.051813836194886755,-1.3584936871782474,4.658681209898652E-20,-0.0011222300308759384,4.0657581468206416E-20,429215.31071348884,1.9684991752021337E-12,998.9771009448414,5.346651243817262,0.35788557527957326,-6.75753920313973
5760.0,-1265020.7179685733,4024850.169277968,5322259.952579871,-4150177.2272858093,-735532.6000339916,5325520.451680531,1313.5584433645213,-7527.91620745381,-73.10736092481815,5.264890248351752,0.9329457115262576,-6.775234747977422,6758263.086528238,1.443345293791875,-4.728771260133602E-5,-0.13084799931160382,-0.0047534321026187504,-2.4677926476141483,0.10450898345709932,-1.3164430180165996,4.658681209898652E-20,-0.0011222300308759384,4.0657581468206416E-20,426640.3211963873,2.1408479519405554E-12,1007.8626150736925,5.264890446179652,0.9329445770763375,-6.775234759451831
5820.0,-1682558.9634761487,3886789.1682521575,5305732.691452904,-4061946.6948960754,-1185184.318318179,5308941.634318824,1626.4038690239788,-7454.751329251294,-479.3929751555496,5.159352343161618,1.505211603356506,-6.7625420536900345,6758336.837971125,1.447720563038782,-3.7436058805573335E-4,-0.13064384415558614,-0.004790980430511757,-2.462245986126408,0.15701866332095402,-1.2739254496204302,4.658681209898652E-20,-0.0011222300308759384,4.0657581468206416E-20,423829.32892042917,2.3400440330410002E-12,1017.2479945432765,5.159352607581621,1.5052103742473575,-6.762542135994734
5880.0,-2093708.379046386,3734662.0753452466,5264884.096483266,-3955149.52974289,-1629418.8573708073,5268026.815377133,1932.2117116869108,-7347.396321501485,-884.0024591205726,5.030366990429942,2.072201792686267,-6.71935587876035,6758518.868336092,1.4520958322856732,-7.063881813104748E-4,-0.13038340689342467,-0.0048056607337243,-2.4543697103219726,0.20924450198826042,-1.2306965274122534,4.658681209898652E-20,-0.0011222300308759384,4.0657581468206416E-20,420795.48804790486,2.5682410202447133E-12,1026.9990941717035,5.0303673323283,2.0722004618262826,-6.719356045416789
5940.0,-2496705.253538468,3569075.1161010955,5199869.350476361,-3830249.9514827803,-2066195.800791112,5202931.461339983,2229.5874034991616,-7206.242503462527,-1285.1059837167452,4.878359706566679,2.631422385627875,-6.645688957939464,6758805.08285395,1.4564711015325642,-0.0010418292503186998,-0.13006410956362438,-0.004796998845296304,-2.4440670442983072,0.2610821872671011,-1.1865010808457017,4.658681209898652E-20,-0.0011222300308759384,4.0657581468206416E-20,417554.33394709625,2.8274970597354414E-12,1036.9709576576481,4.878360138322252,2.631420947073519,-6.645689224813608
6000.0,-2889811.6106648957,3390681.1635781084,5110953.264429774,-3687795.029125779,-2493502.7039126293,5113920.732480899,2517.164853702973,-7031.8309860040135,-1680.878148268282,4.703854653671648,3.1803756193187778,-6.541677012044477,6759189.513227515,1.4608463707794237,-0.001379090473081393,-0.12968364227867643,-0.004764632099215826,-2.43121107058118,0.3124192043814793,-1.141069610473814,4.658681209898652E-20,-0.0011222300308759384,4.0657581468206416E-20,414123.7142036946,3.1198025153561593E-12,1047.0216871756602,4.703855189120172,3.180374068767359,-6.541677397410421
6060.0,-3271322.571623519,3200177.578691454,4998509.788573605,-3528412.7933202586,-2909364.0829700003,5001368.992775597,2793.6124425514245,-6824.852634662615,-2069.505509483296,4.507477059082547,3.7165691217108736,-6.407583696497496,6759664.6148941135,1.4652216400262512,-0.0017165332093126177,-0.12923997734190554,-0.004708311463293063,-2.4156431777421714,0.36313233611652485,-1.0941147447858857,4.658681209898652E-20,-0.0011222300308759384,4.0657581468206416E-20,410523.6859931665,3.447103242661274E-12,1057.0230695522368,4.507477713441262,3.7165674570024683,-6.407584221047741
6120.0,-3639573.7251241347,2998303.900428758,4863021.063284845,-3352809.985013884,-3311850.3843626385,4865758.85940524,3057.639141173719,-6586.147426697213,-2449.1943943253286,4.289954935992997,4.237526812319314,-6.243805036231638,6760221.564444279,1.4695969092745076,-0.0020524806647809176,-0.12873138141936144,-0.004627903139611225,-2.39717146884231,0.4130848708881216,-1.0453279103719386,4.658681209898652E-20,-0.0011222300308759384,4.0657581468206416E-20,406776.3772218423,3.811292340954004E-12,1066.8662483135065,4.28995572574027,4.237525033955871,-6.243805723028462
