time,gePosition_m_X,gePosition_m_Y,gePosition_m_Z,eiPosition_m_X,eiPosition_m_Y,eiPosition_m_Z,eiVelocity_m_s_X,eiVelocity_m_s_Y,eiVelocity_m_s_Z,eiAccel_m_s2_X,eiAccel_m_s2_Y,eiAccel_m_s2_Z,semiMajorAxis_m,gast_rad,eulerAngle_rad_Roll,eulerAngle_rad_Pitch,eulerAngle_rad_Yaw,eulerAngleWrtEi_rad_Roll,eulerAngleWrtEi_rad_Pitch,eulerAngleWrtEi_rad_Yaw,bodyAngularRateWrtEi_rad_s_Roll,bodyAngularRateWrtEi_rad_s_Pitch,bodyAngularRateWrtEi_rad_s_Yaw,altitudeMsl_m,airDensity_kg_m3,ambientTemperature_dgK,eiGravitation_m_s2_X,eiGravitation_m_s2_Y,eiGravitation_m_s2_Z
0.0,-1436381.46529,4185811.71036,5163944.67155,-4315967.74,960356.2,5167269.53,129.091037,-7491.513855,1452.515654,5.45458056881,-1.21387605541,-6.54917385093,6759053.07579,1.02334780893,3.400115586061947E-16,-0.2024581932313422,-1.522968439585956E-16,-2.4715939055627265,-0.03718896475792745,-1.428993135204757,0.0,-0.0011222300308754611,0.0,434989.540812,1.61790350067E-12,978.31253865,5.4545805924,-1.21387690587,-6.54917367881
60.0,-1794959.9937,3943151.68561,5239238.39564,-4298410.8583,509021.506697,5242566.81026,455.963945234,-7547.27721311,1056.38096609,5.43713961679,-0.644045120443,-6.6504371816,6758732.8834,1.02772307802,-3.1609325478789874E-6,-0.20243700540546186,-9.151245611926448E-5,-2.4720451944049366,0.015605902028365605,-1.3871941836894333,0.0,-0.0011222300308754611,0.0,433110.362785,1.7288136767E-12,985.412396272,5.43713967924,-0.6440460367,-6.6504370478
120.0,-2147590.36391,3685729.23838,5290614.55383,-4261287.55006,55369.4334544,5293931.37362,781.062749144,-7568.72044829,655.053620511,5.3954495986,-0.0702743080037,-6.72218263597,6758511.99599,1.03209834711,-1.2698888726766846E-5,-0.20237108187964378,-1.8261592549781016E-4,-2.470286822045643,0.06837346634939342,-1.3453262663509098,0.0,-0.0011222300308754611,0.0,430971.619271,1.86034557669E-12,993.232103822,5.39544970565,-0.0702752975978,-6.72218254666
180.0,-2492788.94476,3414636.3633,5317814.95198,-4204747.8751,-398535.174159,5321105.06399,1102.93447257,-7555.67993081,250.31797932,5.32959147458,0.505005468934,-6.76398530803,6758393.38998,1.0364736162,-2.8653486621386234E-5,-0.20225702736541015,-2.72456186641734E-4,-2.466297307513463,0.12102070149978093,-1.303154824308686,0.0,-0.0011222300308754611,0.0,428579.637768,2.0148223812E-12,1001.72133753,5.32959163322,0.505004398076,-6.76398527105
240.0,-2829091.76811,3131015.01411,5320689.08918,-4129028.87035,-850622.047292,5323937.48603,1420.13379041,-7508.13881347,-156.019402886,5.23973977297,1.07933340744,-6.7755311617,6758378.33901,1.04084888529,-5.100609134295348E-5,-0.20209165387925598,-3.6018422402103723E-4,-2.4600278400927786,0.1734520917711023,-1.2604406632134308,0.0,-0.0011222300308754611,0.0,425943.214787,2.19454843194E-12,1010.79306908,5.23973999159,1.07933224733,-6.77553118681
300.0,-3155060.47426,2836052.74428,5299195.28693,-4034453.92075,-1298824.35061,5302387.13423,1731.22872199,-7426.2286234,-562.136577966,5.12616518237,1.65022578841,-6.75662192623,6758466.60729,1.04522415437,-7.967908603804948E-5,-0.2018719972953513,-4.4496097642896844E-4,-2.4514015320610127,0.22556763079816464,-1.216936353784656,0.0,-0.0011222300308754611,0.0,423073.640473,2.40174402621E-12,1020.32814226,5.12616547081,1.6502245314,-6.75662202529
360.0,-3469288.27693,2530978.17981,5253401.40197,-3921431.78418,-1741087.62115,5256522.10524,2034.80646724,-7310.23039115,-966.203292313,4.98923666263,2.21518439202,-6.70717975518,6758656.61893,1.04959942346,-1.1453546364076623E-4,-0.20159533239726085,-5.259628841635566E-4,-2.4403123001245675,0.2772606847084223,-1.1723826141690332,0.0,-0.0011222300308754611,0.0,419984.686191,2.63851862989E-12,1030.18611532,4.98923703223,2.21518303128,-6.70717994235
420.0,-3770405.92558,2217056.33146,5183485.10599,-3790455.26272,-2175378.75904,5186520.37695,2329.47934815,-7160.57523913,-1366.38833616,4.82942281649,2.77170603555,-6.627251215,6758945.56513,1.05397469255,-1.5537881832338598E-4,-0.2012591865578347,-6.023883610016922E-4,-2.4266234488921494,0.32841566026697583,-1.1265047086280184,0.0,-0.0011222300308754611,0.0,416692.551647,2.90688239521E-12,1040.21946831,4.82942328006,2.77170456553,-6.62725150676
480.0,-4057087.6404,1895583.75716,5089733.71803,-3642099.51558,-2599695.03593,5092669.63994,2613.89080792,-6977.84437601,-1760.86710512,4.64729243964,3.31729274655,-6.51701034682,6759329.42854,1.05834996164,-2.0195381890664345E-4,-0.2008613523335042,-6.734650882547031E-4,-2.410166082398258,0.37890541913027004,-1.0790089514129753,0.0,-0.0011222300308754611,0.0,413215.769747,3.20877631035E-12,1050.28712652,4.64729301143,3.31729116348,-6.5170107621
540.0,-4328056.99421,1567883.58748,4972543.57859,-3477020.01146,-3012073.08453,4975366.67025,2886.72142047,-6762.76847454,-2147.82931645,4.44351435211,3.8494620681,-6.37676077698,6759802.92544,1.06272523073,-2.539472325475174E-4,-0.20039989924001822,-7.384578017380714E-4,-2.390737553674849,0.4285883837533455,-1.0295794903432756,0.0,-0.0011222300308754611,0.0,409575.069419,3.54609160595E-12,1060.2640688,4.4435150477,3.84946037053,-6.3767613371
600.0,-4582092.71595,1235300.42923,4832418.95769,-3295950.121,-3410597.8325,4835116.23598,3146.69487429,-6516.22643671,-2525.48682771,4.21885675322,4.36575712952,-6.20693706851,6760359.38876,1.06710049981,-3.109895391986339E-4,-0.19987318499236395,-7.966760639110883E-4,-2.368100287875824,0.47730529221887513,-0.9778756738811295,0.0,-0.0011222300308754611,0.0,405793.198587,3.920653075E-12,1070.04581325,4.21885758938,4.36575531881,-6.20693779714
660.0,-4818034.39121,899195.161718,4669970.49197,-3099698.35153,-3793411.34423,4672529.53257,3392.58391057,-6239.24356554,-2892.08152199,3.97418639649,4.86375636302,-6.0081056467,6760990.63097,1.0714757689,-3.7265713829628196E-4,-0.19927986629788247,-8.474814207128985E-4,-2.3419815006332434,0.5248755839273189,-0.9235304947778583,0.0,-0.0011222300308754611,0.0,401894.71119,4.33415335945E-12,1079.54847556,3.97418739099,4.8637544439,-6.00810656968
720.0,-5034788.03629,560939.639741,4485913.14745,-2889145.22694,-4158721.53564,4488322.1434,3623.21621296,-5932.98916089,-3245.89324481,3.71046783126,5.34108303053,-5.78096565431,6761686.83497,1.07585103799,-4.3847510665011064E-4,-0.19861890920083566,-8.902933595214092E-4,-2.3120745961882356,0.5710934443666792,-0.8661508699147504,0.0,-0.0011222300308754611,0.0,397905.723331,4.788037785E-12,1088.70605512,3.7104690026,5.34108101169,-5.78096679944
780.0,-5231331.52169,221911.315776,4281063.70463,-2665239.81555,-4504810.72753,4283311.52261,3837.48025694,-5598.77353999,-3585.24779713,3.42876281834,5.79541495982,-5.52634999117,6762436.51885,1.08022630708,-5.079204279357997E-4,-0.1978895987462941,-9.245936142592171E-4,-2.278043383844667,0.6157236175579897,-0.8053208725167013,0.0,-0.0011222300308754611,0.0,393853.644132,5.28334720598E-12,1097.46661636,3.42876418534,5.79541285449,-5.5263513878
840.0,-5406719.82003,-116512.20721,4056337.76234,-2428995.90784,-4830044.00229,4058413.99621,4034.33112776,-5238.0444545,-3908.52499824,3.13022983636,6.22449500442,-5.24522659702,6763226.60927,1.08460157617,-5.804255870191395E-4,-0.19709154761777145,-9.499285882073168E-4,-2.2395306890746065,0.6584972253791455,-0.7406094741657385,0.0,-0.0011222300308754611,0.0,389766.886769,5.82052927848E-12,1105.7885293,3.13023141772,6.224492831,-5.2452282755
900.0,-5560090.04998,-452958.680786,3812746.25572,-2181487.84618,-5132877.32608,3814641.27714,4212.79630516,-4852.38284623,-4214.16682913,2.81612340823,6.62614270264,-4.93869980158,6764042.63943,1.08897684525,-6.553824123158333E-4,-0.19622470328260258,-9.659099468079258E-4,-2.196173409618573,0.6991080320279793,-0.6715848301062751,0.0,-0.0011222300308754611,0.0,385674.564581,6.39923044221E-12,1113.63742962,2.81612522186,6.62614048522,-4.93870179258
960.0,-5690666.28403,-786066.760955,3551391.48347,-1923846.00887,-5411865.39461,3553096.48934,4371.98139231,-4443.49785933,-4500.68564968,2.48779284447,6.99826742502,-4.60801135873,6764869.06664,1.09335211434,-7.321460590552193E-4,-0.19528935321047794,-9.722137218428309E-4,-2.1476264377012977,0.7372098731348192,-0.5978375145795667,0.0,-0.0011222300308754611,0.0,381606.176336,7.01807743276E-12,1120.98392327,2.48779490681,6.99826519381,-4.60801369229
1020.0,-5797764.08366,-1114491.5868,3273462.64101,-1657251.95336,-5665669.15494,3274969.69738,4511.07574082,-4013.22101802,-4766.67245592,2.14667996109,7.3388830189,-4.25454065719,6765689.6845,1.09772738343,-8.100390550110729E-4,-0.1942861277427648,-9.685785104927097E-4,-2.093597855730558,0.7724163273700638,-0.5190151007703818,0.0,-0.0011222300308754611,0.0,377591.283971,7.67446449501E-12,1127.8021667,2.14668228622,7.33888081051,-4.25454336159
1080.0,-5880794.72147,-1436910.36745,2980230.85877,-1382933.22674,-5893062.95095,2981532.94097,4629.35789816,-3563.49948743,-5010.80511206,1.79431539083,7.6461236578,-3.87980359033,6766488.09102,1.10210265252,-8.883553729080209E-4,-0.19321600038048672,-9.54803500582603E-4,-2.0338969399550955,0.8043040940332757,-0.4348696089353474,0.0,-0.0011222300308754611,0.0,373659.185671,8.36435804151E-12,1134.06899555,1.79431798954,7.64612151522,-3.87980669079
1140.0,-5939269.04763,-1752027.95189,2673043.74984,-1102157.85714,-6092941.23528,2674134.77863,4726.20078529,-3096.38836013,-5231.85646372,1.43231325211,7.91826036106,-3.48544966841,6767248.16867,1.10647792161,-9.663645436354994E-4,-0.19208028534086255,-9.307470745942754E-4,-1.968494152701902,0.8324218222322988,-0.3453169937496435,0.0,-0.0011222300308754611,0.0,369838.587102,9.08213655534E-12,1139.76347086,1.4323161309,7.91825833344,-3.48545318564
1200.0,-5972800.95737,-2058582.35155,2353319.47753,-816228.544948,-6264324.78871,2354194.35089,4801.07650334,-2614.0419479,-5428.7022187,1.06236412603,8.15371752234,-3.07325713443,6767954.53544,1.11085319069,-0.0010433158715093666,-0.1908806324714168,-8.963266305413291E-4,-1.8975879558838207,0.8563060762494299,-0.2505034948136596,0.0,-0.0011222300308754611,0.0,366157.274056,9.82048395162E-12,1144.86665291,1.06236728609,8.15371566426,-3.07326108306
1260.0,-5981110.41734,-2355350.18145,2022540.36028,-526476.57933,-6406366.38758,2023194.98073,4853.5606711,-2118.70409804,-5600.32847333,0.686226470571,8.35108879283,-2.6451260466,6768592.93685,1.11522845978,-0.0011184428488413907,-0.18961901965605235,-8.515200227280289E-4,-1.8216671353457778,0.8755053926938258,-0.15086753246242685,0.0,-0.0011222300308754611,0.0,362641.790517,1.05703548674E-11,1149.36143978,0.686229906875,8.3510871632,-2.64513043361
1320.0,-5964026.01221,-2641151.9833,1682246.03881,-234255.510752,-6518355.86225,1682677.336,4883.33620663,-1612.69758985,-5745.83876591,0.305716728726,8.50915178718,-2.20306946247,6769150.5635,1.11960372887,-0.0011909678837429792,-0.18829774297837465,-7.963687082341142E-4,-1.7415511375461163,0.8896117212815267,-0.04717964371900692,0.0,-0.0011222300308754611,0.0,359317.127132,1.13210270473E-11,1153.232285,0.305720429192,8.50915044776,-2.20307428572
1380.0,-5921486.97667,-2914857.39284,1334026.23722,59065.3849523,-6599724.49367,1334232.18553,4890.19648388,-1098.41269316,-5864.46055,-0.0773015606912,8.62688126377,-1.7492029642,6769616.29355,1.12397899796,-0.0012601074487592033,-0.18691940489185,-7.309823398866063E-4,-1.658388369120703,0.8982960218291156,0.05945959770688049,0.0,-0.0011222300308754611,0.0,356206.425872,1.20602725692E-11,1156.46532847,-0.0772976157744,8.62688027718,-1.74920821112
1440.0,-5853544.68309,-3175390.1139,979513.155496,352107.811832,-6650048.70086,979492.786667,4874.04781345,-578.294986467,-5955.55099619,-0.460929361639,8.70346061295,-1.28573278816,6769980.87108,1.12835426705,-0.0013250777276372495,-0.18548690061147347,-6.555442344618761E-4,-1.5735978370241681,0.9013421412672873,0.16767830484890037,0.0,-0.0011222300308754611,0.0,353330.707269,1.27746708685E-11,1159.04922834,-0.460925199893,8.70346004032,-1.28573843484
1500.0,-5760363.56013,-3421732.66296,620373.536232,643491.286722,-6669052.97775,620126.94667,4834.91121171,-54.8325376698,-6018.60204549,-0.843244232749,8.73829161271,-0.814942783298,6770237.03695,1.13272953613,-0.0013851007877060063,-0.18400340288053516,-5.703169213316825E-4,-1.4887544881298564,0.898671653796826,0.2759482912661997,0.0,-0.0011222300308754611,0.0,350708.626639,1.34500362545E-11,1160.97569913,-0.843239889605,8.73829151112,-0.814948793976
1560.0,-5642221.42217,-3652930.84962,258300.452264,931840.056295,-6656612.04437,257828.805114,4772.92343307,469.457448639,-6053.24464914,-1.22231278191,8.73100245487,-0.339180353705,6770379.62825,1.13710480522,-0.001439411243291823,-0.18247234520498734,-4.756468823341068E-4,-1.40543846448609,0.8903533889481704,0.38273616390528237,0.0,-0.0011222300308754611,0.0,348356.265349,1.40719441672E-11,1162.2397583,-1.22230830008,8.73100287459,-0.339186680889
1620.0,-5499509.19423,-3868097.96063,-104995.134113,1215790.05345,-6612752.1835,-105689.612288,4688.33724592,992.042412969,-6059.25213712,-1.59620341735,8.68145401099,0.139158514999,6770405.65658,1.14148007431,-0.0014872633109013402,-0.18089740359031925,-3.71967645367907E-4,-1.3250831126115463,0.8765950545699809,0.48665566178453706,0.0,-0.0011222300308754611,0.0,346286.962249,1.4626331283E-11,1162.83977967,-1.59619884587,8.68145499284,0.139151929846
1680.0,-5332730.02195,-4066418.61683,-467792.986556,1493995.84712,-6537651.74019,-468707.014483,4581.52093559,1510.38854344,-6036.54266275,-1.96299934988,8.58974423279,0.617645061527,6770314.36751,1.1458553434,-0.0015279381005229365,-0.1792824767826846,-2.598005831773561E-4,-1.2488571127191321,0.8577192397614389,0.5865858795973985,0.0,-0.0011222300308754611,0.0,344511.189229,1.5100132925E-11,1162.77741949,-1.96299474273,8.58974580572,0.617638286631
1740.0,-5142497.76106,-4247152.27489,-828372.327873,1765137.53881,-6431640.76842,-829501.583664,4452.95702145,2021.97508211,-5985.18067687,-2.32081177493,8.45621051212,1.09383426719,6770107.27513,1.15023061249,-0.0015607509476152906,-0.17763166507536848,-1.3975306155528794E-4,-1.1776021910181746,0.8341299041596535,0.6817339182492723,0.0,-0.0011222300308754611,0.0,343036.473493,1.54819131198E-11,1162.05747416,-2.32080718929,8.45621269126,1.09382737851
1800.0,-4929534.84649,-4409636.34779,-1185020.63164,2027927.55824,-6295199.81647,-1186359.77222,4303.24018058,2524.30870667,-5905.3773941,-2.66779310587,8.28142980293,1.56528189411,6769788.16119,1.15460588158,-0.001585058573744751,-0.17594924775215204,-1.2513926409645735E-5,-1.1118280220754253,0.8062766880124569,0.7716403607058901,0.0,-0.0011222300308754611,0.0,341867.367788,1.57624390513E-11,1160.68772496,-2.66778860011,8.28143258825,1.56527497287
1860.0,-4694669.54757,-4553288.92123,-1536042.41099,2281117.31081,-6128957.85055,-1537585.09681,4133.07438071,3014.93784828,-5797.49022791,-3.00215006793,8.06621635146,2.02956177033,6769363.02755,1.15898115066,-0.0016002658726000018,-0.17423965932954172,1.2115334273486989E-4,-1.0517504053442654,0.7746230677648103,0.8561414947203864,0.0,-0.0011222300308754611,0.0,341005.468634,1.59351534395E-11,1158.67881838,-3.00214569951,8.0662197272,2.02955490019
1920.0,-4438832.62208,-4677611.04627,-1879767.94256,2523503.6295,-5933689.32493,-1881506.86739,3943.26923729,3491.46679986,-5662.02118924,-3.32215642056,7.81161698265,2.48428299315,6768839.99423,1.16335641975,-0.0016058321496575847,-0.1725074647952595,2.6041921078834627E-4,-0.997352736797172,0.739621767094102,0.9353082676720366,0.0,-0.0011222300308754611,0.0,340449.481483,1.59965056913E-11,1156.04422241,-3.32215224384,7.81162091756,2.48427625717
1980.0,-4163053.38849,-4782188.59282,-2214561.8637,2753934.98573,-5710310.4155,-2216488.78947,3734.73562449,3951.56946984,-5499.61426401,-3.62616507144,7.5189040197,2.92710671344,6768229.14193,1.16773168884,-0.0016012766927597445,-0.1707573340943218,4.04397627300097E-4,-0.9484529480621173,0.7016982752110066,1.009379807887856,0.0,-0.0011222300308754611,0.0,340195.330871,1.59461147919E-11,1152.80028634,-3.62616113577,7.51890846808,2.92710019109
2040.0,-3868455.24192,-4866693.65264,-2538831.58271,2971317.41553,-5459874.44219,-2540937.37909,3508.48058274,4393.00264465,-5311.0518035,-3.91261937689,7.18956602992,3.35576220656,6767542.30454,1.17210695793,-0.0015861836084898543,-0.16899401611263817,5.521557217748738E-4,-0.9047641662884363,0.6612415958622121,1.0787032667264445,0.0,-0.0011222300308754611,0.0,340236.312737,1.57867523301E-11,1148.96641838,-3.91261572483,7.18957093345,3.35575597089
2100.0,-3556250.64438,-4930885.48557,-2851035.44436,3174620.12027,-5183566.51348,-2853310.13292,3265.60157667,4813.61863731,-5097.24997767,-4.1800634769,6.82529666001,3.76806201282,6766792.82213,1.17648222702,-0.0015602059160027461,-0.1672223123986356,7.027229382280547E-4,-0.8659435687347867,0.6186005662547494,1.1436855158910602,0.0,-0.0011222300308754611,0.0,340563.285293,1.5524150701E-11,1144.56538067,-4.18006014298,6.82530195015,3.7680561281
2160.0,-3227735.62482,-4974611.00654,-3149690.59619,3362880.70508,-4882697.43312,-3152123.3989,3007.28016444,5211.37721572,-4859.25335139,-4.42715156732,6.4279818367,4.16191601456,6765995.26679,1.1808574961,-0.001523068937604291,-0.16544705082833489,8.550990895291566E-4,-0.8316283911054979,0.5740839904235816,1.20475775051178,0.0,-0.0011222300308754611,0.0,341164.893959,1.51666571377E-11,1139.6236871,-4.42714857712,6.42798743756,4.16191053438
2220.0,-2884283.82771,-4997804.81592,-3433380.50501,3535210.0212,-4558696.91502,-3435959.89675,2734.7751442,5584.35672014,-4598.22864988,-4.65265604741,5.99968557565,4.535344378,6765165.15153,1.18523276519,-0.0014745730569597913,-0.16367305939975518,0.001008261073673142,-0.8014605219065922,0.5279630998718329,1.26235157666518,0.0,-0.0011222300308754611,0.0,342027.825076,1.47247667305E-11,1134.17207626,-4.65265341725,5.99969140708,4.53533934405
2280.0,-2527340.15204,-5000488.77904,-3700762.07709,3690796.58332,-4213106.15747,-3703475.84184,2449.41524672,5930.76429248,-4315.45778286,-4.85547449163,5.54263459319,4.88648931076,6764318.6284,1.18960803428,-0.0014145959284399612,-0.16190514031547304,0.0011611682719773315,-0.7751020651871899,0.48047523808126674,1.3168842134606455,0.0,-0.0011222300308754611,0.0,343137.082337,1.42105755156E-11,1128.24601873,-4.85547222864,5.54264057385,4.88648475222
2340.0,-2158414.02514,-4982771.16508,-3950572.33962,3828910.53656,-3847569.83185,-3953407.63014,2152.59144643,6248.94515047,-4012.3302004,-5.03463538557,5.05920188695,5.21362557033,6763472.17718,1.19398330337,-0.00134309421505347,-0.1601480445203628,0.001312766895260164,-0.7522443079923347,0.4318280279885307,1.368750387731326,0.0,-0.0011222300308754611,0.0,344476.279318,1.36371973533E-11,1121.88620345,-5.0346334882,5.05920793725,5.21362150393
2400.0,-1779072.35732,-4944845.35891,-4181634.6458,3948907.15261,-3463827.54503,-4184578.04628,1845.74896719,6537.39085015,-3690.334658,-5.18930255625,4.55188946436,5.51516962691,6762642.28271,1.19835857246,-0.0012601049107624916,-0.15840644687777874,0.0014619937202926738,-0.7326121724849861,0.3822035682087175,1.4183188579438926,0.0,-0.0011222300308754611,0.0,346027.941242,1.30181858654E-11,1115.13892918,-5.18930101522,4.55189550905,5.51516605754
2460.0,-1390932.22523,-4886988.16311,-4392864.37056,4050229.83901,-3063704.83751,-4395901.96199,1530.3790629,6794.74649215,-3351.05047521,-5.31877823693,4.02331045382,5.78968736338,6761845.09943,1.20273384154,-0.0011657462721970527,-0.15668492218663674,0.0016077797409941252,-0.7159657603494773,0.33176240803320906,1.4659319787074752,0.0,-0.0011222300308754611,0.0,347773.809171,1.23669960865E-11,1108.05630179,-5.31877703631,4.02331642409,5.7896842852
2520.0,-995653.332091,-4809557.71087,-4583274.0692,4132412.65061,-2649103.78166,-4586391.49706,1208.0106558,7019.81684375,-2996.13837881,-5.42250474839,3.4761709083,6.0359002125,6761096.10534,1.20710911063,-0.0010602183511357912,-0.15498792226559022,0.0017490542428717335,-0.7021001542341334,0.2806471857255818,1.5119071629564047,0.0,-0.0011222300308754611,0.0,349695.140279,1.16965112479E-11,1100.69610638,-5.42250386696,3.47617674335,6.03589761037
2580.0,-594930.293092,-4712991.01359,-4751978.07696,4195082.29713,-2221993.24531,-4755160.62082,880.20191432,7211.57136893,-2627.33102572,-5.50006485346,2.91325166817,6.25268969546,6760409.75415,1.21148437972,-9.438030891429422E-4,-0.1533197543126928,0.0018847497062038064,-0.6908442813412137,0.22898589780952944,1.5565394616323676,0.0,-0.0011222300308754611,0.0,351772.998564,1.10186500824E-11,1093.12119142,-5.50006426604,2.91325731626,6.25268754661
2640.0,-190484.793082,-4597801.16935,-4898196.53308,4237959.64546,-1784398.88609,-4901429.17777,548.531845861,7369.14818143,-2246.42330018,-5.55118093028,2.33739065247,6.43910042716,6759799.14132,1.21585964881,-8.168639153205607E-4,-0.15168456072031647,0.002013807779273772,-0.6820593755684409,0.1768948151510148,1.6001047527360528,0.0,-0.0011222300308754611,0.0,353988.531196,1.03440611412E-11,1085.39818989,-5.55118060911,2.33739607139,6.43909870296
2700.0,215942.33854,-4464574.26002,-5021258.81852,4260860.71961,-1338392.94002,-5024526.32648,214.591969339,7491.8569558,-1855.26247256,-5.57571318687,1.75146587735,6.59434176173,6759275.70497,1.2202349179,-6.798447798376851E-4,-0.1500863004577243,0.002135186370403893,-0.6756373840652798,0.12448108742026098,1.6428632255401556,0.0,-0.0011222300308754611,0.0,356323.226509,9.68190450631E-12,1077.59544179,-5.57571310284,1.75147103437,6.59434042941
2760.0,622599.093355,-4313965.96536,-5120606.40137,4263697.20476,-886083.865457,-5123893.38575,-120.021882937,7579.18084587,-1455.73829404,-5.57365717641,1.15837936486,6.71778833063,6758848.98307,1.22461018698,-5.332685609875262E-4,-0.14852873204992173,0.0022478677197784293,-0.6714995346544718,0.07184508987560068,1.6850629784739284,0.0,-0.0011222300308754611,0.0,358759.150305,9.03971888562E-12,1069.78011537,-5.57365730015,1.15838423629,6.71778735495
2820.0,1027730.25044,-4146697.92215,-5195795.08782,4246476.4641,-429605.900373,-5199086.08604,-453.717599438,7630.77746489,-1049.77308532,-5.545140853,0.561041940529,6.80897974578,6758526.4444,1.22898545607,-3.7773480006600397E-4,-0.14701539810915212,0.0023508671590417086,-0.6695951950202569,0.019082571212952176,1.7269436371942117,0.0,-0.0011222300308754611,0.0,361279.157509,8.4233728529E-12,1062.01476772,-5.54514115581,0.561046510963,6.80897909042
2880.0,1429585.30698,-3963553.85517,-5246496.67982,4209301.07922,28891.4122613,-5249776.22712,-784.914637539,7646.47897672,-639.311862416,-5.49042133319,-0.0376412262784,6.86761969001,6758313.40116,1.23336072516,-2.1391674409458852E-4,-0.14554961130838392,0.0024432421674101964,-0.6699010994769019,-0.03371333770769191,1.7687399555819074,0.0,-0.0011222300308754611,0.0,363867.076454,7.83710042034E-12,1054.35389342,-5.49042178769,-0.0376369650359,6.86761931882
2940.0,1826426.33801,-3765375.50567,-5272500.04254,4152367.92549,487253.678922,-5275752.74527,-1112.05167021,7626.29133628,-226.312532175,-5.40988141987,-0.634784562492,6.8935745116,6758212.99963,1.23773599425,-4.2557706301268597E-5,-0.14413444167810624,0.0025241012970768444,-0.6724209836782684,-0.08645019492961135,1.8106853961086613,0.0,-0.0011222300308754611,0.0,366507.863095,7.28361930668E-12,1046.84123859,-5.40988200051,-0.634780612521,6.89357438953
3000.0,2216535.75141,-3553058.38193,-5273711.58679,4075966.79511,943332.039506,-5276922.19496,-1433.59401597,7570.39270375,187.263813036,-5.30402583736,-1.22753571805,6.88687131319,6758226.2735,1.24211126334,1.3553321550511255E-4,-0.14277270512049148,0.0025926125655569895,-0.6771856436972087,-0.13903433958431627,1.8530157035520955,0.0,-0.0011222300308754611,0.0,369187.722573,6.76432241965E-12,1039.5086218,-5.30402652072,-1.22753207647,6.88687140693
3060.0,2598223.90492,-3327547.35542,-5250155.17319,3980478.58138,1394993.43176,-5253308.65205,-1748.04083125,7479.13104769,599.462468191,-5.17347705429,-1.81308898083,6.84769542185,6758352.2363,1.24648653242,3.1948599612333366E-4,-0.14146695310409876,0.0026480109878661805,-0.6842534168847179,-0.19136894674583227,1.8959724901412025,0.0,-0.0011222300308754611,0.0,371894.195853,6.27952078393E-12,1032.37661677,-5.17347781919,-1.81308564086,6.84769570034
3120.0,2969836.55207,-3089832.12648,-5201971.44739,3866373.03919,1840130.68792,-5205053.04762,-2053.93203638,7353.02095063,1008.34451418,-5.01897055897,-2.38869842532,6.77638708516,6758587.98685,1.25086180151,5.083750297096363E-4,-0.14021946357699178,0.00268960502980527,-0.6937110622681143,-0.24335198611821643,1.939806842712085,0.0,-0.0011222300308754611,0.0,374616.209775,5.82870580604E-12,1025.45685644,-5.01897138653,-2.38869537724,6.7763875198
3180.0,3329762.08482,-2840942.58317,-5129416.6181,3734206.13887,2276672.4162,-5132411.94431,-2349.85493929,7192.73963846,1411.99599174,-4.84134950558,-2.95169058995,6.67343727289,6758928.80601,1.2552370706,7.012248690730588E-4,-0.13903223321974587,0.0027167818860106122,-0.7056749917324735,-0.2948740250430202,1.9847829409325761,0.0,-0.0011222300308754611,0.0,377344.089849,5.41079721257E-12,1018.75522562,-4.8413503791,-2.95168782189,6.67343783764
3240.0,3676438.54192,-2581944.07765,-5032860.6931,3584617.03268,2702592.62168,-5035755.77039,-2634.45051941,6999.12227064,1808.53679587,-4.64155874858,-3.4994763886,6.53948256784,6759368.23268,1.25961233969,8.970162587449384E-4,-0.13790697120327783,0.002729011604830303,-0.7202927632859396,-0.34581581606156386,2.031181636030057,0.0,-0.0011222300308754611,0.0,380069.536402,5.02435175304E-12,1012.27506705,-4.6415596535,-3.49947388717,6.53948323925
3300.0,4008360.35432,-2313932.64436,-4912785.19165,3418324.6552,3115920.02381,-4915566.5298,-2906.41933814,6773.15654608,2196.12923905,-4.42063839575,-4.0295619703,6.37529926529,6759898.12062,1.26398760878,0.0010946923694367203,-0.13684509462358824,0.0027258501802971285,-0.7377446853524102,-0.3960456111556838,2.0793038761048335,0.0,-0.0011222300308754611,0.0,382785.566129,4.66772193042E-12,1006.01973611,-4.42063931946,-4.02955972113,6.3753000224
3360.0,4324084.80207,-2038030.18377,-4769780.35433,3236123.98101,3514747.0313,-4772435.00947,-3164.52705338,6515.97669374,2572.9862425,-4.17971709419,-4.53955835123,6.18179692299,6760508.6904,1.26836287786,0.0012931651541835186,-0.1358477257364619,0.002706941800287173,-0.7582452848779269,-0.44541615112807603,2.1294737648371034,0.0,-0.0011222300308754611,0.0,385486.422441,4.33916674551E-12,999.99420829,-4.1797180259,-4.53955633939,6.18179774724
3420.0,4622238.1608,-1755379.63399,-4604541.87346,3038881.96356,3897238.34001,-4607057.50688,-3407.60952925,6228.85692256,2937.37913158,-3.92000529053,-5.0271898227,5.96001166678,6761188.60049,1.27273814695,0.001491321763699716,-0.13491569101970222,0.0026720204730445066,-0.7820442474068974,-0.49376129409043906,2.1820408922694527,0.0,-0.0011222300308754611,0.0,388167.459099,4.03692373077E-12,994.20576521,-3.92000622109,-5.02718803303,5.96001254185
3480.0,4901521.51861,-1467140.15064,-4417867.16814,2827533.17954,4261639.12326,-4420232.10207,-3634.57754579,5913.20439914,3287.64502935,-3.64278866175,-5.4903013319,5.71109953479,6761925.06465,1.27711341604,0.0016880309765628832,-0.13404952197511022,0.002620911251965991,-0.8094262268499344,-0.5408922778251732,2.2373813630152255,0.0,-0.0011222300308754611,0.0,390825.002268,3.75925340358E-12,988.663964994,-3.64278958352,-5.49029974927,5.71110044647
3540.0,5160716.24733,-1174482.31322,-4210651.22776,2603075.20235,4606282.78801,-4212854.49774,-3844.42112227,5570.55180515,3622.19385693,-3.3494218092,-5.92686517589,5.4363300381,6762704.0385,1.28148868513,0.001882149617449172,-0.13324945745902256,0.0025535312440699734,-0.8407086294148695,-0.5865936672669928,2.295896650205524,0.0,-0.0011222300308754611,0.0,393456.19624,3.50446580043E-12,983.38015026,-3.34942271588,-5.92686378545,5.43633097409
3600.0,5398689.11263,-878583.373676,-3983882.04711,2366563.72734,4929598.27272,-3985913.45097,-4036.21346936,5202.54950393,3939.51495473,-3.04132217586,-6.33498739432,5.13707995504,6763510.48739,1.28586395422,0.0020725289500404913,-0.1325154472490664,0.002469890529924426,-0.8762360914513222,-0.6306191339198035,2.3580090159721405,0.0,-0.0011222300308754611,0.0,396058.837738,3.27093611315E-12,978.366715824,-3.04132306235,-6.33498618161,5.13708090482
3660.0,5614397.0082,-580622.561589,-3738635.67557,2119107.47081,5230116.86364,-3740485.81859,-4209.11457924,4810.95732436,4238.18333499,-2.71996402591,-6.71291417518,4.8148272088,6764328.7329,1.2902392233,0.002258021040755014,-0.13184715650766443,0.002370093049261921,-0.9163699115274581,-0.6726873660964797,2.4241517772227263,0.0,-0.0011222300308754611,0.0,398631.203051,3.05711395076E-12,973.636298033,-2.71996488813,-6.71291312634,4.81482816342
3720.0,5806891.29798,-281776.459639,-3476070.9023,1861862.86453,5506478.5066,-3477731.23855,-4362.37445063,4397.6359559,4516.86556285,-2.38687225486,-7.05903841797,4.47114455316,6765142.85967,1.29461449239,0.0024374850925993953,-0.13124397083074893,0.0022543374287892883,-0.961470237109205,-0.7124786350952624,2.4947522326729636,0.0,-0.0011222300308754611,0.0,401171.871428,2.86152887713E-12,969.200987453,-2.38687308965,-7.05903751977,4.47114550509
3780.0,5975321.74968,16785.5370077,-3197423.6005,1596028.5681,5757437.59053,-3198886.47007,-4495.33593147,3964.53794642,4774.32524469,-2.04361579901,-7.37190637814,4.10769274802,6765937.15148,1.29898976148,0.002609793746533422,-0.1307050016425743,0.0021229176575078674,-1.0118685262962939,-0.749632852328906,2.570204785858193,0.0,-0.0011222300308754611,0.0,403679.547484,2.6827936662E-12,965.071619714,-2.04361660401,-7.37190561808,4.10769369099
3840.0,6118940.04212,313905.662689,-2904000.75509,1322839.82289,5981868.17905,-2905259.41718,-4607.43714988,3513.69830557,5009.42808489,-1.69180048583,-7.65022411053,3.7262129575,6766696.51912,1.30336503057,0.002773839341285368,-0.13022909181620088,0.001976223459114408,-1.0678280504331095,-0.7837503289757446,2.650832041639663,0.0,-0.0011222300308754611,0.0,406152.884908,2.51960600958E-12,961.257167072,-1.69180125933,-7.65022347688,3.72621388637
3900.0,6237102.82952,608442.108902,-2597174.20143,1043562.6734,6178768.6669,-2598222.86305,-4698.21349815,3047.22473781,5221.14645923,-1.3330612905,-7.89286329551,3.32851823537,6767406.88293,1.30774029966,0.002928540112464791,-0.12981482152575863,0.0018147401778739912,-1.1294915110967922,-0.8143968197560832,2.7368329602217183,0.0,-0.0011222300308754611,0.0,408590.31373,2.3707490351E-12,957.764233588,-1.33306203136,-7.89286277732,3.32851914596
3960.0,6329274.3477,899273.220977,-2278374.10555,759488.083858,6347265.84044,-2279207.94588,-4767.29913661,2567.28755553,5408.56345061,-0.969054102827,-8.09886600789,2.91648413658,6768055.48092,1.31211556874,0.0030728463011974556,-0.1294605144519651,0.0016390479895933248,-1.1968178447584055,-0.8411146295530593,2.828220151590752,0.0,-0.0011222300308754611,0.0,410989.873692,2.2350908117E-12,954.596646047,-0.969054810372,-8.09886559501,2.91648502556
4020.0,6395028.55039,1185301.54691,-1949082.21972,471925.979509,6486618.32517,-1949697.40987,-4814.42799406,2076.10934685,5570.87630006,-0.601447223039,-8.26744807831,2.49203866146,6768631.08655,1.31649083783,0.003205746131686041,-0.12916424453846956,0.0014498202732128457,-1.2695153353990374,-0.8634413095785558,2.9247534383878553,0.0,-0.0011222300308754611,0.0,413349.05681,2.11158293641E-12,951.755127694,-0.601447896981,-8.26744776138,2.4920395262
4080.0,6434050.76822,1465457.72217,-1610824.94928,182199.243334,6596219.40825,-1611218.66754,-4839.4342567,1575.95448895,5707.39924227,-0.231912864066,-8.39800087182,2.05715185464,6769124.13519,1.32086610692,0.0033262716103109238,-0.12892384351666558,0.0012478210280580193,-1.3469846107858312,-0.8809364400317705,3.0258832704844236,0.0,-0.0011222300308754611,0.0,415664.662892,1.99925827172E-12,949.23703997,-0.231913504429,-8.39800064224,2.05715269314
4140.0,6446138.88733,1738704.17586,-1265166.26828,-108362.30146,6675599.22945,-1265336.71075,-4842.25235431,1069.11860174,5817.56571564,0.137881071217,-8.49009151595,1.61382541641,6769526.77301,1.32524137601,0.0034335040942078776,-0.12873690938851476,0.0010339012920048353,-1.428290536351192,-0.8932150022239363,3.130723011666904,0.0,-0.0011222300308754611,0.0,417932.672227,1.89722789759E-12,947.03617711,0.137880464163,-8.49009136585,1.61382622719
4200.0,6431204.04918,2004038.64597,-913700.520943,-398427.893567,6724426.3399,-913646.907543,-4822.91646636,557.918029454,5900.92995739,0.506278740404,-8.54346179289,1.16408263477,6769832.85138,1.3296166451,0.0035265795795284384,-0.12860081597751194,8.089945957139211E-4,-1.5121822731221788,-0.8999831605437207,-3.0451159362124183,0.0,-0.0011222300308754611,0.0,420148.139924,1.80467734687E-12,945.142598527,0.506278166198,-8.5434617151,1.16408341678
4260.0,6389270.87645,2260497.49403,-558045.145321,-686671.792456,6742508.63225,-557767.721202,-4781.55957995,44.6794207846,5957.16800942,0.871643550046,-8.5580260197,0.709958833695,6770037.89424,1.33399191418,0.003604693665557726,-0.12851272356192928,5.74111567700886E-4,-1.5971719738118804,-0.9010698719721913,-2.936703848851224,0.0,-0.0011222300308754611,0.0,422305.116125,1.72086219563E-12,943.542483578,0.871643008086,-8.55802600774,0.709959586242
4320.0,6320477.23236,2507158.81195,-199833.353391,-971779.168113,6729793.65003,-199333.385769,-4718.4121329,-468.270542011,5986.07816829,1.23236480386,-8.53386825367,0.253492393387,6770139.06309,1.33836718327,0.003667106161493548,-0.12846959050237405,3.303338720747915E-4,-1.6816650560937023,-0.8964470430177564,-2.8287738983460913,0.0,-0.0011222300308754611,0.0,424396.595667,1.64510343437E-12,942.218036342,1.23236429344,-8.53386830165,0.253493116056
4380.0,6225073.52253,2743145.31601,159293.200042,-1252451.89769,6686368.28596,160013.429579,-4633.80027171,-978.615232857,5987.58091209,1.58686391455,-8.47123908332,-0.203283726019,6770135.13634,1.34274245236,0.0037131453175084806,-0.12846818570396337,7.88077056350898E-5,-1.7641156712061359,-0.8862329656690683,-2.722825108390036,0.0,-0.0011222300308754611,0.0,426414.499704,1.57684051931E-12,941.1547943,1.58686343489,-8.47123918597,-0.203283033385
4440.0,6103421.54862,2967627.02428,517691.729115,-1527414.24664,6612457.88092,518628.936759,-4528.14374652,-1484.05797021,5961.71833038,1.93360031518,-8.37055213275,-0.658350100102,6770026.50893,1.34711772145,0.003742211676569356,-0.12850510171100568,-1.7926290369528567E-4,-1.8431705215545071,-0.8706780890887347,-2.620163494742613,0.0,-0.0011222300308754611,0.0,428349.690556,1.51567963299E-12,940.349792293,1.93359986542,-8.37055228534,-0.658349437415
4500.0,5955992.92396,3179823.71473,873725.580083,-1795418.41306,6508424.736,874875.496336,-4401.95345744,-1982.33168703,5908.65307413,2.27107718328,-8.2323802636,-1.10970874635,6769815.20691,1.35149299054,0.003753781558777672,-0.12857676824569456,-4.426227718990971E-4,-1.9177690958356035,-0.8501369484584502,-2.5218014744176567,0.0,-0.0011222300308754611,0.0,430192.019647,1.46127051971E-12,939.797699823,2.27107676249,-8.23238046196,-1.10970811333
4560.0,5783367.06152,3379007.16154,1225771.41745,-2055249.91455,6374766.0515,1227128.80792,-4255.82866155,-2471.20836081,5828.66683491,2.59784702612,-8.05745135264,-1.55539091937,6769504.90316,1.35586825962,0.0037474102029971534,-0.12867946604385708,-7.099720291459149E-4,-1.987185566277233,-0.8250331024592595,-2.4284156009646516,0.0,-0.0011222300308754611,0.0,431930.407227,1.41329175994E-12,939.489024478,2.5978466334,-8.05745159311,-1.55539031559
4620.0,5586228.74607,3564503.14781,1572226.30499,-2305732.79758,6212111.30799,1573784.99535,-4090.45384976,-2948.50817368,5722.15835924,2.91251709384,-7.84664348465,-1.99346480297,6769100.916,1.36024352871,0.0037227345979697853,-0.1288093409123594,-9.799722774568357E-4,-2.05101696052792,-0.7958242030512696,-2.340358007859596,0.0,-0.0011222300308754611,0.0,433552.951577,1.37145106493E-12,939.410153281,2.91251672827,-7.84664376407,-1.99346422793
4680.0,5365365.30348,3735693.25296,1911514.65398,-2545734.64983,6021219.10686,1913267.55897,-3906.59530631,-3412.10836305,5589.64100647,3.21375451633,-7.60097943794,-2.42204301287,6768610.17384,1.3646187978,0.003679476038961367,-0.12896241801288122,-0.0012512524110057828,-2.109134718158562,-0.7629723965744901,-2.2577044440675422,0.0,-0.0011222300308754611,0.0,435047.064801,1.33548113465E-12,939.542799164,3.21375417707,-7.60097975361,-2.42204246601
4740.0,5121663.38258,3892016.41438,2242095.01181,-2774171.39713,5802973.49022,2244034.16806,-3705.09737198,-3859.9517194,5431.73986587,3.5002910252,-7.3216204368,-2.83928975843,6768041.13418,1.36899406689,0.0036174424426789658,-0.12913461643366975,-0.0015224141578435682,-2.161619603896322,-0.7269225276861826,-2.180318923499005,0.0,-0.0011222300308754611,0.0,436399.631968,1.30511893292E-12,939.860954225,3.50029071147,-7.32162078644,-2.83928923922
4800.0,4856105.36663,4032970.26402,2562466.66505,-2990011.86795,5558379.76252,2564583.26768,-3486.87843959,-4290.05468923,5249.1884585,3.77092713312,-7.0098592655,-3.24342749709,6767403.65403,1.37336933598,0.0035365304453486655,-0.129321764147535,-0.0017920374730490572,-2.208695936689457,-0.6880882942992024,-2.1079190221406012,0.0,-0.0011222300308754611,0.0,437597.190343,1.28012997277E-12,940.334414597,3.77092684425,-7.00985964721,-3.24342700503
4860.0,4569765.43324,4158112.24227,2871176.0333,-3192282.11048,5288559.83876,2873460.47604,-3252.92671714,-4700.5150504,5042.82505831,4.02453569626,-6.6671129413,-3.63274295464,6766708.81744,1.37774460506,0.003436727295734577,-0.12951961344754165,-0.0020586859616085265,-2.2506746269078324,-0.646845110070241,-2.0401323228233648,0.0,-0.0011222300308754611,0.0,438626.125509,1.26087631681E-12,941.016259845,4.02453543156,-6.66711335373,-3.63274248912
4920.0,4263805.28278,4267060.49307,3166822.83203,-3380069.44949,4994747.14548,3169264.75067,-3004.29579582,-5089.51914095,4813.58867251,4.2600648622,-6.29491519532,-4.00559246323,6765968.73306,1.38211987415,0.003318112540358952,-0.12972385692148425,-0.002320912527521107,-2.2879087744686117,-0.6035279206508474,-1.9765402458158763,0.0,-0.0011222300308754611,0.0,439472.881233,1.2478036388E-12,941.968298143,4.26006462104,-6.2949156377,-4.00559202355
4980.0,3939469.55498,4359494.54577,3448065.98517,-3552526.27226,4678281.10156,3450654.3042,-2742.10005774,-5455.34863673,4562.51472125,4.47654048371,-5.89490898971,-4.36040666396,6765196.31769,1.38649514324,0.003180859481672414,-0.12993014396671593,-0.0025772654320425706,-2.3207618103814966,-0.5584322841649166,-1.9167092731311035,0.0,-0.0011222300308754611,0.0,440124.179902,1.24762045919E-12,943.240380337,4.47654026445,-5.89490946423,-4.36040624732
5040.0,3598080.95377,4435155.79013,3713629.27065,-3708873.5349,4340601.20576,3716352.25283,-2467.50995182,-5796.38688563,4290.73045149,4.67306812019,-5.4688392387,-4.69569467929,6764405.08077,1.39087041233,0.0030252363762573974,-0.13013409778738663,-0.002826294900639679,-2.3495862844882307,-0.5118173564285697,-1.8602114518515993,0.0,-0.0011222300308754611,0.0,440567.250163,1.24882757057E-12,944.877881052,4.67306792359,-5.46883974377,-4.69569428713
5100.0,3241035.09867,4493847.75155,3962306.68361,-3848403.98185,3983240.75715,3965151.98233,-2181.74715818,-6111.12481181,3999.4501122,4.84883478149,-5.01854574208,-5.01004793502,6763608.91975,1.39524568142,0.0028516073285937984,-0.13033133276832304,-0.0030665603510269417,-2.374710826509189,-0.46390980836260337,-1.8066366366717288,0.0,-0.0011222300308754611,0.0,440790.058035,1.25758719339E-12,946.924450159,4.84883460742,-5.01854627869,-5.01004756693
5160.0,2869795.12097,4535436.17335,4192967.50372,-3970485.07214,3607820.23386,4195922.21785,-1886.07965331,-6398.16640191,3689.96990827,5.00311049585,-4.54595631237,-5.30214371788,6762821.92606,1.3996209505,0.002660432830156283,-0.13051747210564657,-0.003296638246903898,-2.396432938269896,-0.4149080425561194,-1.7555987983553427,0.0,-0.0011222300308754611,0.0,440781.537437,1.27451824809E-12,949.423698077,5.00311034447,-4.54595688214,-5.30214337371
5220.0,2485886.02167,4559848.91306,4404561.0536,-4074561.60686,3216040.35504,4407611.78465,-1581.81668488,-6656.23378092,3363.66274647,5.13524976001,-4.05307993901,-5.57074856244,6762058.19709,1.40399621959,0.002452269891884769,-0.13068816558714058,-0.0035151304906849883,-2.4150156964773637,-0.3649863337145999,-1.706738301739518,0.0,-0.0011222300308754611,0.0,440531.815673,1.30037494375E-12,952.420343529,5.13524963178,-4.05308054418,-5.57074824234
5280.0,2090888.80849,4567075.65898,4596121.13625,-4160158.05261,2809674.85056,4599254.04765,-1270.30366376,-6884.17187609,3021.97278382,5.24469283751,-3.54199988079,-5.8147214348,6761331.64039,1.40837148868,0.002227771722869318,-0.13083910746058217,-0.0037206732155782075,-2.4306869171786194,-0.3142986960843816,-1.6597215817962119,0.0,-0.0011222300308754611,0.0,440032.42936,1.33607851866E-12,955.960803192,5.24469273332,-3.5420005243,-5.8147211393
5340.0,1686434.4292,4557167.47345,4766770.14004,-4226880.55618,2390562.96335,4769971.01826,-952.916984513,-7080.95266305,2666.40979331,5.33096683149,-3.01486663852,-6.03301662357,6760655.75628,1.41274675777,0.0019876869154384475,-0.1309660543889914,-0.003911945783507887,-2.4436397514241253,-0.26298239579687677,-1.614239225754525,0.0,-0.0011222300308754611,0.0,439276.526402,1.37271183873E-12,960.092939945,5.33096675325,-3.01486731902,-6.03301635566
5400.0,1274197.51897,4530236.16923,4915722.80094,-4274418.6468,1960601.70981,4918977.1182,-631.058790122,-7245.67898628,2298.54336717,5.39368645514,-2.47389083973,-6.2246862349,6760043.38493,1.41712202686,0.0017328581079716385,-0.13106484356383294,-0.004087679781222343,-2.454034008768404,-0.21116109555569482,-1.5700031384067425,0.0,-0.0011222300308754611,0.0,438259.050128,1.43113841553E-12,964.864502488,5.393686404,-2.47389156621,-6.22468599409
5460.0,855889.979819,4486453.52578,5042289.61289,-4302546.62298,1521737.92357,5045582.59132,-306.151701195,-7377.58795774,1919.99698603,5.43255445344,-1.92133628393,-6.38888218076,6759506.41973,1.42149729594,0.0014642201086564252,-0.13113141108106394,-0.004246667792440867,-2.461997745449843,-0.1589476583202886,-1.5267432242007744,0.0,-0.0011222300308754611,0.0,436976.902478,1.50349729852E-12,970.319709712,5.43255443195,-1.92133706157,-6.3888819694
5520.0,433254.409249,4426050.3527,5145879.87937,-4311124.62267,1075960.10784,5149196.55624,20.3664712025,-7476.05394487,1532.44198212,5.44736173505,-1.3595132986,-6.52485771293,6759055.49012,1.42587256503,0.0011827974745037939,-0.13116181068474855,-0.0043877717665504095,-2.4676288220446962,-0.10644665693635304,-1.4842038488242082,0.0,-0.0011222300308754611,0.0,435429.08408,1.59162563026E-12,976.493580783,5.44736174657,-1.35951413343,-6.5248575343
5580.0,8057.39456968,4349315.40756,5226004.40043,-4300099.37594,625290.120037,5229329.69435,347.048014864,-7540.59117822,1137.59142227,5.43798734738,-0.790772713279,-6.63196860957,6758699.63602,1.43024783412,8.897015493656149E-4,-0.1311522329527644,-0.004509930826545428,-2.4709962473182445,-0.053756645966859355,-1.4421402272541461,0.0,-0.0011222300308754611,0.0,433616.810007,1.69757986503E-12,983.404142763,5.43798739621,-0.790773612058,-6.63196846809
5640.0,-417917.313163,4256594.17504,5282277.79087,-4269504.64041,171774.710395,5285596.5686,672.440605161,-7570.85601877,737.193923324,5.40439852283,-0.21750055766,-6.70967428719,6758446.00302,1.43462310321,5.861269713807122E-4,-0.13109902490208583,-0.00461216840768633,-2.4721411995216616,-9.722550902807883E-4,-1.4003148094438722,0.0,-0.0011222300308754611,0.0,431543.600781,1.82358221803E-12,991.0436155,5.40439861437,-0.217501527808,-6.70967418867
5700.0,-842875.733652,4148287.51309,5314420.42555,-4219461.31914,-282523.066372,5317717.56925,995.092605081,-7566.64892844,333.027394901,5.34665105165,0.357886557131,-6.75753917297,6758299.59227,1.4389983723,2.7334766456618286E-4,-0.13099870987541468,-0.004693598660170019,-2.4710776627739666,0.05181383619228279,-1.3584936871751216,0.0,-0.0011222300308754611,0.0,429215.348594,1.97194272517E-12,999.370821381,5.34665119253,0.357885507747,-6.75753912482
5760.0,-1265020.69058,4024850.16959,5322260.00665,-4150177.25945,-735532.549615,5325520.48135,1313.55840314,-7527.91617793,-73.1073166062,5.2648902017,0.932945634219,-6.77523467344,6758263.09694,1.44337364138,-4.728766907886064E-5,-0.1308480074480565,-0.004753432086787719,-2.467792647619281,0.10450898345458026,-1.316443018012834,0.0,-0.0011222300308754611,0.0,426640.358779,2.14497297027E-12,1008.30772372,5.26489039991,0.932944497583,-6.77523468493
5820.0,-1682558.93499,3886789.17096,5305732.7459,-4061946.72956,-1185184.26627,5308941.66678,1626.40382616,-7454.75130469,-479.392926503,5.15935230223,1.50521151507,-6.76254198401,6758336.8481,1.44774891047,-3.743605402017873E-4,-0.13064385298346232,-0.004790980414121477,-2.462245986125175,0.15701866331840078,-1.2739254496177,0.0,-0.0011222300308754611,0.0,423829.366083,2.34491516869E-12,1017.74237432,5.1593525672,1.50521028341,-6.76254206649
5880.0,-2093708.34967,3734662.08072,5264884.15139,-3955149.56705,-1629418.80402,5268026.85088,1932.21166656,-7347.39630254,-884.00240646,5.030366956,2.07220169422,-6.71935581508,6758518.87814,1.45212417956,-7.063881292854877E-4,-0.13038341640564086,-0.00480566071675717,-2.4543697103185607,0.20924450198574565,-1.2306965274082642,0.0,-0.0011222300308754611,0.0,420795.524668,2.57390683523E-12,1027.53846756,5.03036729865,2.07220036043,-6.7193559821
5940.0,-2496705.22353,3569075.1244,5199869.40592,-3830249.99155,-2066195.74648,5202931.50011,2229.58735651,-7206.24249068,-1285.10592744,4.87835967933,2.63142227794,-6.64568890133,6758805.09229,1.45649944865,-0.0010418291943383097,-0.13006411975053866,-0.004796998827745141,-2.4440670442929555,0.2610821872644989,-1.1865010808427487,0.0,-0.0011222300308754611,0.0,417554.369905,2.83398536086E-12,1037.54909678,4.87836011208,2.63142083608,-6.64568916882
6000.0,-2889811.58029,3390681.17504,5110953.32047,-3687795.07206,-2493502.64904,5113920.77473,2517.16480531,-7031.83097992,-1680.87808883,4.70385463426,3.1803755035,-6.54167696352,6759189.52223,1.46087471774,-0.0013790904134999731,-0.12968365312882138,-0.004764632080966234,-2.4312110705849475,0.3124192043780961,-1.1410696104705609,0.0,-0.0011222300308754611,0.0,414123.749378,3.12711659166E-12,1047.63075499,4.70385517096,3.18037394932,-6.54167734979
6060.0,-3271322.54119,3200177.59352,4998509.84527,-3528412.83919,-2909364.02794,5001369.03867,2793.61239324,-6824.85263573,-2069.50544739,4.50747704803,3.716568999,-6.40758365698,6759664.62342,1.46524998683,-0.0017165331464832196,-0.12923998884174775,-0.004708311444535008,-2.415643177738733,0.3631323361129834,-1.0941147447812702,0.0,-0.0011222300308754611,0.0,410523.720266,3.45521896316E-12,1057.65402026,4.50747770392,3.71656733038,-6.40758418276
6120.0,-3639573.69494,2998303.9188,4863021.12065,-3352810.03385,-3311850.32962,4865758.90909,3057.63909145,-6586.14743529,-2449.19433015,4.28995493373,4.23752668408,-6.24380500655,6760221.57245,1.46962525591,-0.0020524805990317103,-0.12873139355274665,-0.004627903120254368,-2.3971714688450905,0.4130848708847026,-1.0453279103677204,0.0,-0.0011222300308754611,0.0,406776.410474,3.82015593208E-12,1067.50922822,4.28995572531,4.23752490158,-6.24380569494
6180.0,-3992948.44339,2785839.40505,4705076.0521,-3161769.48621,-3699086.84089,4707679.8296,3308.00065664,-6316.70312953,-2818.17888694,4.05211982751,4.74080096155,-6.05087290265,6760850.52476,1.474000525,-0.002385225375034747,-0.1281564385708971,-0.004523389702584001,-2.3755694212332346,0.46212347125243924,-0.9943764729859594,0.0,-0.0011222300308754611,0.0,402905.841854,4.22368069821E-12,1077.10745729,4.05212077234,4.74079906897,-6.05087377898
6240.00000001,-4329885.2867,2563600.40544,4525368.39666,-2956147.1222,-4069262.49638,4527826.15476,3543.50583683,-6017.65314739,-3174.72931762,3.79490641666,5.22398569405,-5.82945739838,6761540.80454,1.47837579409,-0.0027130374028248826,-0.1275140084231129,-0.004394871006484951,-2.3505752533875377,0.5100746752040791,-0.9409017756637871,0.0,-0.0011222300308754611,0.0,398937.715231,4.66733031372E-12,1086.37834555,3.79490753311,5.223983699,-5.82945848998
6300.00000001,-4648885.00967,2332437.60521,4324694.3528,-2736868.59915,-4420638.53669,4326994.73762,3763.02252238,-5690.27371131,-3517.16019922,3.51935110547,5.6847294388,-5.58036775627,6762281.01628,1.48275106318,-0.0030341722254831342,-0.12680330797351516,-0.004242564681566072,-2.3218926916532174,0.5567410408949324,-0.8845187404619992,0.0,-0.0011222300308754611,0.0,394899.158869,5.15227543254E-12,1095.26645425,3.51935241239,5.68472735328,-5.58036909216
6360.00000001,-4948517.73001,2093233.10886,4103949.64962,-2504925.57539,-4751556.96962,4106082.01635,3965.4837834,-5335.9801616,-3843.83884167,3.22658970391,6.12074852998,-5.30455238661,6763059.08739,1.48712633227,-0.0033468796479017276,-0.1260238683369569,-0.004066806723640032,-2.289194154031049,0.6018970136347614,-0.8248180281727289,0.0,-0.0011222300308754611,0.0,390818.443922,5.67913612715E-12,1103.72747427,3.22659122014,6.12074637101,-5.30455399694
6420.00000001,-5227429.76985,1846897.38801,3864126.13574,-2261371.62224,-5060448.78759,3866080.60026,4149.89374856,-4956.32250591,-4153.19361296,2.91785449035,6.52983981419,-5.00309794178,6763862.26877,1.49150160135,-0.0036494127365743786,-0.12517555177083178,-0.003868051968284974,-2.252127782667429,0.6452847067916787,-0.7613721674969005,0.0,-0.0011222300308754611,0.0,386724.67227,6.24777529528E-12,1111.72499686,2.91785623419,6.52983760437,-5.0030998572
6480.00000001,-5484350.31273,1594366.09726,3606307.87096,-2007317.78878,-5345841.89521,3608075.3583,4315.33329458,-4552.98021428,-4443.72219181,2.59447087574,6.9098930936,-4.67722784875,6764677.13202,1.49587687044,-0.003940037168592063,-0.12425855560066879,-0.0036468746013358696,-2.210330228757665,0.6866099639663257,-0.6937475399130256,0.0,-0.0011222300308754611,0.0,382647.443497,6.85708145067E-12,1119.22810333,2.59447286418,6.90989086157,-4.67723009953
6540.00000001,-5718097.80923,1336596.76511,3331666.72587,-1743927.8315,-5606368.70232,3333239.01526,4460.96552722,-4127.75627015,-4713.99972062,2.25785379226,7.25890353662,-4.32830046988,6765489.60502,1.50025213953,-0.004217040922042631,-0.12327341508299572,-0.0034039686524810816,-2.1634475191789138,0.7255393244978586,-0.6215245344985492,0.0,-0.0011222300308754611,0.0,378616.508574,7.50475345889E-12,1126.20974729,2.25785604019,7.25890131739,-4.3283030848
6600.00000001,-5927586.09395,1074565.3669,3041457.49612,-1472413.12166,-5840773.33754,3042827.26232,4586.04103687,-3682.57046884,-4962.68683789,1.90950377683,7.57498441397,-3.95780691019,6766285.08173,1.50462740862,-0.004478744291373286,-0.12222100497089955,-0.003140148355114351,-2.1111664825570795,0.7616988511070907,-0.544328337263985,0.0,-0.0011222300308754611,0.0,374661.41794,8.18710132548E-12,1132.64577367,1.90950629612,7.57498224899,-3.95780991531
6660.00000001,-6111830.17531,809262.78634,2737012.5392,-1194027.24472,-6047918.43649,2738173.38993,4689.90290581,-3219.45193386,-5188.5375643,1.55100256586,7.85638047584,-3.56736828938,6767048.62774,1.50900267771,-0.004723510194659372,-0.12110253943670837,-0.0028563481732826815,-2.0532586723973028,0.7946761650237044,-0.4618722808292997,0.0,-0.0011222300308754611,0.0,370811.17123,8.89887908411E-12,1138.51438427,1.55100536436,7.85637841281,-3.56737170655
6720.00000001,-6269951.65687,541691.172785,2419735.94364,-910060.307633,-6226791.45647,2420682.45279,4771.99142929,-2740.53080721,-5390.40700075,1.18400790849,8.10148211356,-3.15873212921,6767765.28526,1.51337794679,-0.00494975471860446,-0.11991956997148756,-0.0025536222280315196,-1.9896369042150988,0.8240273690371872,-0.37401386181170687,0.0,-0.0011222300308754611,0.0,367093.875038,9.63316744302E-12,1143.79586895,1.184010989,8.10148020584,-3.15873597461
6780.00000001,-6401183.74602,272860.202804,2091097.24388,-621832.972797,-6376510.46654,2091824.98026,4831.84849382,-2248.0290685,-5567.25877221,0.810247274643,8.30884019326,-2.73376742319,6768420.46123,1.51775321588,-0.0051559578206549755,-0.11867398090757221,-0.002233142816807044,-1.9204208305059611,0.849290618026923,-0.2808198404670666,0.0,-0.0011222300308754611,0.0,363536.41414,1.03813242417E-11,1148.47244152,0.810250633969,8.30883849887,-2.73377170568
6840.00000001,-6504875.80318,3783.25708748,1752624.69851,-330690.241503,-6496329.3599,1753130.25003,4869.12153787,-1744.2504529,-5718.17212586,0.431510190689,8.47718118054,-2.29445797974,6769000.36756,1.52212848497,-0.005340674079896784,-0.11736798230408146,-0.0018961977239386947,-1.846002298404021,0.8700076132783615,-0.18263115978046443,0.0,-0.0011222300308754611,0.0,360164.140594,1.11330178409E-11,1152.52799043,0.431513818788,8.47717976076,-2.2944626994
6900.00000001,-6580497.38321,-264526.473109,1405898.156,-37995.014372,-6585642.43414,1406179.14894,4883.56700758,-1231.56946719,-5842.34857044,0.0496390632605,8.60542196538,-1.84289375755,6769492.47275,1.52650375406,-0.0055025433636523595,-0.11600410007620887,-0.0015441860727210884,-1.7670947509821782,0.8857529413263726,-0.0801119379063854,0.0,-0.0011222300308754611,0.0,357000.584497,1.18763660397E-11,1155.94796022,0.0496429425815,8.60542088288,-1.84289890431
6960.00000001,-6627641.72138,-531059.932138,1052541.53906,254878.538105,-6643988.28627,1052596.6524,4875.0532168,-712.419542563,-5939.1179329,-0.333481483616,8.69268369791,-1.38126010602,6769885.92368,1.53087902315,-0.005640301256992441,-0.11458516339516699,-0.001178612568878324,-1.6847467526951019,0.8961688839083868,0.02573739177391408,0.0,-0.0011222300308754611,0.0,354067.189807,1.25982169266E-11,1158.72011448,-0.333477378494,8.69268301448,-1.38126565867
7020.00000001,-6646028.61915,-794816.177488,694214.986445,546551.756616,-6671052.97293,694043.960926,4843.56252704,-189.280403717,-6007.94370909,-0.715936574698,8.73830397484,-0.911825034238,6770171.90274,1.53525429223,-0.005752789092986162,-0.11311428953017738,-8.010801216138443E-4,-1.6003022577459534,0.9010005952779264,0.13362018048767338,0.0,-0.0011222300308754611,0.0,351383.078546,1.3284548896E-11,1160.83517668,-0.715932277069,8.73830374887,-0.911830959803
7080.00000001,-6635506.68974,-1054806.36455,332606.697637,835648.382684,-6666672.39201,332210.339671,4789.19277754,335.335230276,-6048.42759868,-1.09579405428,8.74184685444,-0.436924806484,6770343.89717,1.53962956132,-0.005838963423416078,-0.11159486639971586,-4.132809815056853E-4,-1.51530238754979,0.9001245624998307,0.24204214250254724,0.0,-0.0011222300308754611,0.0,348964.846897,1.39209716147E-11,1162.28713389,-1.09578960491,8.74184713819,-0.436931060195
7140.00000001,-6596054.93047,-1310057.71258,-30575.4675831,1120801.51034,-6630833.84981,-31195.287448,4712.15791577,858.895472188,-6060.31313542,-1.47111811043,8.70311037605,0.0410517346024,6770397.87155,1.54400483041,-0.0058979047837867645,-0.11003053315263027,-1.6986682151881266E-5,-1.4313427302856523,0.8935634373664488,0.3494544048436992,0.0,-0.0011222300308754611,0.0,346826.396768,1.44933073743E-11,1163.07333425,-1.47111355669,8.70311121296,0.0410452087577
7200.00000001,-6527783.59629,-1559617.42479,-393612.578632,1400660.55084,-6563676.78661,-394452.932607,4612.78779948,1378.86346566,-6043.48834929,-1.83998321089,8.62213146152,0.519679694554,6770332.34652,1.5483800995,-0.0059288256319025585,-0.10842515910568154,3.8596281102782986E-4,-1.3499176292320088,0.8814832650486611,0.45440956642810426,0.0,-0.0011222300308754611,0.0,344978.806445,1.49882193438E-11,1163.19444176,-1.83997860551,8.62213288375,0.51967296263
7260.00000001,-6430934.35719,-1802556.53551,-754783.353235,1673898.16042,-6465492.64306,-755840.26859,4491.52716071,1892.71180033,-5997.98742122,-2.2004880611,8.49918823102,0.996515126161,6770148.39588,1.55275536859,-0.005931077371875317,-0.10678282132583661,7.936702775815616E-4,-1.2722884101621394,0.8641738706425068,0.5556938214381083,0.0,-0.0011222300308754611,0.0,343430.243546,1.53938442661E-11,1162.65430887,-2.20048346051,8.49919025732,0.996508262436
7320.00000001,-6305879.72994,-2037973.65804,-1112372.94511,1939217.08082,-6336723.85901,-1113641.42185,4348.93373732,2397.93699111,-5923.99131122,-2.55076936061,8.33479985039,1.4691122035,6769849.57746,1.55713063767,-0.005904156412406605,-0.10510778110497555,0.001204192279063877,-1.1994025350018849,0.8420175459081493,0.6524081647875125,0.0,-0.0011222300308754611,0.0,342185.922856,1.57003821329E-11,1161.45982233,-2.550764823,8.33480248464,1.46910528813
7380.00000001,-6153121.78228,-2264998.60769,-1464681.73852,2195356.84312,-6177962.00524,-1466155.77233,4185.67558961,2892.07387775,-5821.82735664,-2.88901518839,8.12972404631,1.93504035102,6769441.81236,1.56150590676,-0.005847709242379683,-0.10340445951899875,0.0016155496620473564,-1.1318714846211748,0.8154532930515758,0.7439908821253904,0.0,-0.0011222300308754611,0.0,341248.110561,1.59005955975E-11,1159.62077338,-2.88901077163,8.12972727673,1.93503346725
7440.00000001,-5973290.11475,-2482795.8763,-1810034.08808,2441100.28683,-5989945.05707,-1811706.69848,4002.52762843,3372.70980827,-5691.96784821,-3.2134778747,7.88495240434,2.39190115679,6768933.22313,1.56588117585,-0.0057615365364498735,-0.10167741223661723,0.002025737263239409,-1.069997409458439,0.7849432725168023,0.8301912912073944,0.0,-0.0011222300308754611,0.0,340616.175159,1.5990177731E-11,1157.14979453,-3.21347363415,7.88495620351,2.39189438803
7500.00000001,-5767139.13207,-2690567.93568,-2146786.94302,2675279.84781,-5773553.82669,-2148650.20654,3800.36739001,3837.4984761,-5535.02760179,-3.52248621772,7.60170354127,2.83734491113,6768333.93674,1.57025644494,-0.005645596320757665,-0.09993130373507991,0.0024327327226986097,-1.0138294291804992,0.7509457360009542,0.9110138594812524,0.0,-0.0011222300308754611,0.0,340286.684005,1.59679577195E-11,1154.06239435,-3.52248220424,7.60170786703,2.83733833787
7560.00000001,-5535544.62236,-2887558.34973,-2473338.29652,2896783.57118,-5529807.57881,-2475383.38473,3580.17010116,4284.17328596,-5351.76055336,-3.81445689164,7.28141424404,3.2690865961,6767655.85478,1.57463171403,-0.005500006237074533,-0.0981708810875973,0.0028345044924455226,-0.9632304375246121,0.71389603199762,0.9866518482533656,0.0,-0.0011222300308754611,0.0,340253.543149,1.58359288681E-11,1150.37710808,-3.81445314978,7.28141904106,3.26908029308
7620.00000001,-5279499.669,-3073054.67674,-2788135.40258,3104560.80815,-5259858.86146,-2790352.62473,3343.00308828,4710.56013025,-5143.0554159,-4.08790488739,6.92572870406,3.68492113078,6766912.39254,1.57900698311,-0.005325044937198839,-0.09640094750781514,0.0032290192901164192,-0.9179405969246164,0.6741952431676046,1.057424306117808,0.0,-0.0011222300308754611,0.0,340508.177021,1.55990998087E-11,1146.11576737,-4.087901454,6.92573390615,3.68491516446
7680.00000001,-5000109.92526,-3246391.14604,-3089682.70557,3297627.55928,-4964987.59064,-3092061.55566,3090.01959259,5114.58946692,-4909.93044897,-4.3414528435,6.53648603752,4.08273767225,6766118.19033,1.5833822522,-0.005121152625683422,-0.094626335853971,0.0036142493621666703,-0.8776301812303392,0.6322049510440693,1.1237237614857667,0.0,-0.0011222300308754611,0.0,341039.74363,1.52651858039E-11,1141.30387823,-4.34144974671,6.53649157042,4.08273209883
7740.00000001,-4698588.28769,-3406951.0958,-3376549.43124,3475071.43049,-4646594.43368,-3379078.63919,2822.45206143,5494.3076033,-4653.52740297,-4.57383916632,6.11570634413,4.46053279704,6765288.80339,1.58775752129,-0.004888930747299482,-0.0928518823014753,0.003988179971106342,-0.8419395437457216,0.5882463486512888,1.1859768461721454,0.0,-0.0011222300308754611,0.0,341835.380209,1.48441703689E-11,1135.97108302,-4.57383642506,6.11571212848,4.46052766109
7800.00000001,-4376249.00829,-3554169.16152,-3647376.79164,3636056.17281,-4306193.54146,-3650044.37823,2541.60498992,5847.88710678,-4375.1047095,-4.78392489781,5.66557559151,4.81642243831,6764440.38022,1.59213279038,-0.004629140794226215,-0.0910824003771243,0.004348817494665681,-0.8105070603463328,0.5426021077730778,1.244617010755871,0.0,-0.0011222300308754611,0.0,342880.473709,1.43477764841E-11,1130.15166894,-4.78392252178,5.66558154602,4.81641777196
