time,gePosition_m_X,gePosition_m_Y,gePosition_m_Z,eiPosition_m_X,eiPosition_m_Y,eiPosition_m_Z,eiVelocity_m_s_X,eiVelocity_m_s_Y,eiVelocity_m_s_Z,eiAccel_m_s2_X,eiAccel_m_s2_Y,eiAccel_m_s2_Z,semiMajorAxis_m,gast_rad,eulerAngle_rad_Roll,eulerAngle_rad_Pitch,eulerAngle_rad_Yaw,eulerAngleWrtEi_rad_Roll,eulerAngleWrtEi_rad_Pitch,eulerAngleWrtEi_rad_Yaw,bodyAngularRateWrtEi_rad_s_Roll,bodyAngularRateWrtEi_rad_s_Pitch,bodyAngularRateWrtEi_rad_s_Yaw,altitudeMsl_m,airDensity_kg_m3,ambientTemperature_dgK,eiGravitation_m_s2_X,eiGravitation_m_s2_Y,eiGravitation_m_s2_Z
0.0,-1436381.46541304,4185811.71030584,5163944.67156165,-4315967.74,960356.2,5167269.53,129.091037,-7491.513855,1452.515654,5.45458059859689,-1.21387605795306,-6.54917389319418,6759053.07578957,1.02331944621101,-0.0,-0.202458193231342,-0.0,-2.47159390556423,-0.0371889647578404,-1.42899313520437,0.0,-0.0011222300308759,0.0,434989.540811728,1.6157E-12,978.026450176724,5.45458062216322,-1.21387690733748,-6.54917372128662
60.0,-1794959.99376134,3943151.6859414,5239238.39524942,-4298410.85824583,509021.506696086,5242566.81018345,455.963946960919,-7547.27721306048,1056.38096354334,5.43713964464054,-0.644045117393976,-6.65043722414064,6758732.88269342,1.02769471546425,-3.1609335933E-6,-0.202437005406389,-9.1512487489E-5,-2.47204519440808,0.0156059020283289,-1.38719418368879,0.0,-0.0011222300308759,0.0,433110.362691512,1.7261E-12,985.077690351122,5.43713970700409,-0.644046032275005,-6.65043709053746
120.0,-2147590.36385442,3685729.23903427,5290614.55293023,-4261287.54985335,55369.4334657412,5293931.37331531,781.06275247371,-7568.72044785768,655.053615408832,5.39544962425546,-0.0702742996735265,-6.72218267830815,6758511.99435284,1.0320699847175,-1.26988932352E-5,-0.202371081881652,-1.826159947694E-4,-2.4702868220478,0.0683734663492738,-1.34532626635134,0.0,-0.0011222300308759,0.0,430971.618900537,1.8571E-12,992.845641164651,5.39544973112045,-0.0702752875816325,-6.7221825891466
180.0,-2492788.94454249,3414636.3641828,5317814.95046934,-4204747.87464909,-398535.174102942,5321105.06330262,1102.93447736308,-7555.67992968844,250.317971692016,5.32959149782081,0.505005482140677,-6.76398534973264,6758393.38718876,1.03644525395931,-2.86534974899E-5,-0.202257027367312,-2.724562998623E-4,-2.46629730751523,0.12102070149968,-1.30315482430808,0.0,-0.0011222300308759,0.0,428579.63694298,2.0109E-12,1001.28178799633,5.32959165615872,0.505004413314898,-6.76398531282493
240.0,-2829091.76761232,3131015.01519695,5320689.08695673,-4129028.86956933,-850622.047141012,5323937.48481344,1420.13379651084,-7508.13881138008,-156.019412987568,5.23973979365737,1.07933342508156,-6.77553120239889,6758378.33488454,1.04082052320969,-5.10061119153E-5,-0.202091653876786,-3.601843867002E-4,-2.46002784010144,0.173452091771071,-1.26044066321393,0.0,-0.0011222300308759,0.0,425943.213333404,2.1899E-12,1010.30123295685,5.23974001181956,1.07933226737745,-6.77553122746109
300.0,-3155060.47337787,2836052.74554018,5299195.28391213,-4034453.91957463,-1298824.35029645,5302387.1323301,1731.22872924522,-7426.22862007702,-562.136590468647,5.12616520043133,1.6502258100227,-6.75662196562212,6758466.60167474,1.04519579246293,-7.96791200673E-5,-0.201871997282704,-4.449611934809E-4,-2.45140153205805,0.225567630798527,-1.21693635378426,0.0,-0.0011222300308759,0.0,423073.638222536,2.3963E-12,1019.78707443084,5.12616548822618,1.65022455581046,-6.7566220644774
360.0,-3469288.27559581,2530978.1811495,5253401.39807329,-3921431.78253334,-1741087.62059343,5256522.10251926,2034.80647548314,-7310.23038637058,-966.203307127874,4.9892366780698,2.21518441715455,-6.70717979305729,6758656.61168926,1.04957106170188,-1.145355152367E-4,-0.201595332363697,-5.25963159863E-4,-2.44031230013045,0.277260684707756,-1.1723826141693,0.0,-0.0011222300308759,0.0,419984.682984623,2.6323E-12,1029.60103369208,4.98923704679697,2.2151830595927,-6.7071799797928
420.0,-3770405.92365896,2217056.33290547,5183485.10113379,-3790455.2605532,-2175378.75815462,5186520.37327813,2329.47935723142,-7160.57523268923,-1366.38835318773,4.82942282935287,2.77170606377905,-6.62725125119909,6758945.55618469,1.05394633095227,-1.553788919668E-4,-0.201259186491459,-6.023886989249E-4,-2.42662344889344,0.328415660266569,-1.12650470862727,0.0,-0.0011222300308759,0.0,416692.547332716,2.8998E-12,1039.59748026343,4.8294232917948,2.77170459730027,-6.62725154226988
480.0,-4057087.63777961,1895583.7586828,5089733.71215504,-3642099.51284786,-2599695.03459918,5092669.63517637,2613.89081767119,-6977.84436773608,-1760.86712425718,4.6472924500494,3.31729277749533,-6.51701038126028,6759329.41781892,1.05832160020265,-2.01953919361E-4,-0.200861352218241,-6.734654912515E-4,-2.41016608239322,0.378905419131066,-1.07900895141219,0.0,-0.0011222300308759,0.0,413215.764184007,3.2008E-12,1049.63684268448,4.64729302042262,3.31729119830328,-6.5170107955396
540.0,-4328056.99077253,1567883.58907518,4972543.57163922,-3477020.00812655,-3012073.08264607,4975366.66427746,2886.72143075865,-6762.76846426873,-2147.82933757849,4.44351436021518,3.84946210147146,-6.37676080962193,6759802.91293664,1.06269686945303,-2.539473648255E-4,-0.200399899060593,-7.38458271876E-4,-2.39073755366846,0.428588383753805,-1.02957949034328,0.0,-0.0011222300308759,0.0,409575.062478427,3.5373E-12,1059.59517896117,4.44351505408097,3.84946040804695,-6.37676136839708
600.0,-4582092.71155863,1235300.43090947,4832418.94960825,-3295950.11704003,-3410597.82993556,4835116.22868359,3146.69488497558,-6516.22642431413,-2525.48685072543,4.21885675919359,4.36575716511048,-6.20693709937205,6760359.3744806,1.06707213870913,-3.10989708501E-4,-0.199873184728092,-7.96676602452E-4,-2.36810028788341,0.477305292218586,-0.977875673880646,0.0,-0.0011222300308759,0.0,405793.190149968,3.9111E-12,1069.36867935011,4.21885759332131,4.36575535873641,-6.20693782627852
660.0,-4818034.38577191,899195.163420939,4669970.48272074,-3099698.34691435,-3793411.34085097,4672529.52383639,3392.58392152547,-6239.24355088161,-2892.0815467736,3.97418640051984,4.86375640071765,-6.00810567581687,6760990.6149608,1.0714474079538,-3.726573499677E-4,-0.199279865926127,-8.474820280821E-4,-2.34198150063523,0.524875583926551,-0.923530494777508,0.0,-0.0011222300308759,0.0,401894.701150913,4.324E-12,1078.8737684818,3.97418739268911,4.86375448603337,-6.00810659669443
720.0,-5034788.02966519,560939.641496918,4485913.13698571,-2889145.22166732,-4158721.53131055,4488322.13313333,3623.21622407078,-5932.98914386078,-3245.89327126059,3.71046783353155,5.34108307033926,-5.78096568171612,6761686.81730715,1.07582267720419,-4.384753661103E-4,-0.198618908696422,-8.902940352779E-4,-2.31207459618586,0.571093444366587,-0.866150869914795,0.0,-0.0011222300308759,0.0,397905.711598225,4.7774E-12,1088.0444388428,3.71046900225541,5.34108105592713,-5.78096682436253
780.0,-5231331.51375487,221911.317571265,4281063.69291562,-2665239.809605,-4504810.72211128,4283311.51070282,3837.48026810362,-5598.77352044984,-3585.24782514298,3.42876281898916,5.79541500184066,-5.52635001689444,6762436.49965324,1.08019794645171,-5.079207406279E-4,-0.197889598083323,-9.245943570775E-4,-2.27804338383753,0.615723617558486,-0.805320872515965,0.0,-0.0011222300308759,0.0,393853.630627558,5.2723E-12,1096.82847116403,3.42876418313939,5.79541290083277,-5.52635141068776
840.0,-5406719.81065124,-116512.20541757,4056337.74935733,-2428995.90122686,-4830043.99561794,4058413.98257735,4034.33113889143,-5238.04443232413,-3908.52502771263,3.13022983550197,6.22449504886898,-5.24522662103098,6763226.5886675,1.08457321569067,-5.804259583365E-4,-0.197091546766582,-9.499293958755E-4,-2.23953068907121,0.658497225379113,-0.740609474166217,0.0,-0.0011222300308759,0.0,389766.871429271,5.8094E-12,1105.18370372596,3.13023141382053,6.22449287954667,-5.24522829639183
900.0,-5560090.03901264,-452958.678928627,3812746.2414363,-2181487.83889859,-5132877.31799693,3814641.2616996,4212.79631616289,-4852.38282126613,-4214.16685995288,2.8161234058897,6.62614274980704,-4.93869982379513,6764042.61758626,1.08894848494105,-6.553828475244E-4,-0.196224702213019,-9.659108162151E-4,-2.196173409611,0.699108032028696,-0.67158483010693,0.0,-0.0011222300308759,0.0,385674.547357432,6.3881E-12,1113.07501461512,2.81612521637635,6.62614053614957,-4.93870181146451
960.0,-5690666.27133866,-786066.759019844,3551391.46786954,-1923846.0009402,-5411865.38493392,3553096.47201767,4371.98140309626,-4443.49783140251,-4500.68568174633,2.48779284062261,6.99826747527163,-4.60801137897925,6764869.04373909,1.09332375419143,-7.321465632506E-4,-0.195289351888176,-9.722146489947E-4,-2.14762643769659,0.737209873135493,-0.597837514579657,0.0,-0.0011222300308759,0.0,381606.157193661,7.0073E-12,1120.47204614736,2.48779489979658,6.99826524739873,-4.60801370909602
1020.0,-5797764.06909821,-1114491.58473839,3273462.62407636,-1657251.94478701,-5665669.14350176,3274969.67810017,4511.07575129295,-4013.2209869514,-4766.67248909973,2.14667995559992,7.3388830726431,-4.25454067520595,6765689.66072734,1.09769902344753,-8.10039633023E-4,-0.194286126134486,-9.685794905171E-4,-2.09359785573924,0.772416327370421,-0.519015100770587,0.0,-0.0011222300308759,0.0,377591.262889654,7.6643E-12,1127.34780850584,2.14668227764547,7.33888086708452,-4.25454337618172
1080.0,-5880794.70486995,-1436910.36526365,2980230.84048108,-1382933.21755542,-5893062.93754699,2981532.91966985,4629.35790822661,-3563.49945300067,-5010.80514621055,1.79431538348633,7.64612371542866,-3.87980360572703,6766488.06658667,1.10207429269791,-8.883560292509E-4,-0.193215998448707,-9.548045277509E-4,-2.03389693995749,0.804304094033324,-0.43486960893458,0.0,-0.0011222300308759,0.0,373659.162644314,8.355E-12,1133.67783743095,1.7943179793045,7.64612157514998,-3.87980670293252
1140.0,-5939269.02881191,-1752027.94963886,2673043.73019429,-1102157.84736397,-6092941.2196989,2674134.75525063,4726.20079482857,-3096.38832210121,-5231.85649868221,1.43231324260542,7.91826042296695,-3.48544968068762,6767248.14378927,1.10644956193401,-9.66365282425E-4,-0.192080283049472,-9.307481423491E-4,-1.96849415270044,0.832421822232592,-0.345316993749331,0.0,-0.0011222300308759,0.0,369838.562138375,9.074E-12,1139.43977681449,1.43231611880879,7.91825839708076,-3.48545319498519
1200.0,-5972800.93618079,-2058582.34907753,2353319.45652781,-816228.534616266,-6264324.77073154,2354194.32539575,4801.07651222123,-2614.04190600652,-5428.70225426866,1.06236411395302,8.15371758884495,-3.07325714297445,6767954.51032177,1.11082483119011,-0.0010433166964109,-0.190880629781744,-8.96327731543E-4,-1.89758795589182,0.856306076248994,-0.25050349481431,0.0,-0.0011222300308759,0.0,366157.247174875,9.8137E-12,1144.61319655291,1.06236727185555,8.15371573194477,-3.07326108915421
1260.0,-5981110.39358917,-2355350.1787334,2022540.33791962,-526476.568489113,-6406366.36697367,2023194.95309088,4853.56067916319,-2118.70405201221,-5600.3285092731,0.686226455454306,8.35108886414752,-2.64512605067049,6768592.91170613,1.11520010044049,-0.0011184437629848,-0.18961901652914,-8.515211489052E-4,-1.82166713533876,0.875505392693571,-0.150867532462496,0.0,-0.0011222300308759,0.0,362641.761751307,1.05652E-11,1149.17948374542,0.686229890121544,8.35108723521843,-2.64513043586997
1320.0,-5964025.9856703,-2641151.9803382,1682246.01510837,-234255.499456354,-6518355.83874791,1682677.30619346,4883.33621367699,-1612.69753939087,-5745.83880193722,0.305716710021521,8.50915186339494,-2.20306946125371,6769150.53853512,1.11957536967945,-0.0011909688896734,-0.188297739376163,-7.963698508215E-4,-1.74155113754674,0.889611721282009,-0.0471796437190514,0.0,-0.0011222300308759,0.0,359317.096524101,1.13178E-11,1153.12161221123,0.305720409456428,8.50915052428073,-2.203074283461
1380.0,-5921486.94715482,-2914857.38946155,1334026.21219573,59065.3966344667,-6599724.46700187,1334232.1535723,4890.19648969217,-1098.41263798399,-5864.46058578416,-0.0773015835749359,8.62688134481805,-1.74920295677586,6769616.26896263,1.12395063893269,-0.0012601085483829,-0.186919400775761,-7.309834895111E-4,-1.65838836912129,0.898296021828842,0.0594595977067839,0.0,-0.0011222300308759,0.0,356206.393476453,1.2059E-11,1156.42425720934,-0.0772976390252104,8.62688035825677,-1.74920820353791
1440.0,-5853544.6503856,-3175390.11000502,979513.129197217,352107.823818822,-6650048.67073171,979492.75257669,4874.04781776612,-578.29492629257,-5955.55103134446,-0.460929389321722,8.70346069855598,-1.28573277357576,6769980.84706063,1.12832590818593,-0.0013250789221569,-0.185486895941286,-6.555453812203E-4,-1.57359783702492,0.90134214126671,0.167678304848855,0.0,-0.0011222300308759,0.0,353330.673146351,1.27755E-11,1159.07467973774,-0.46092522724829,8.70346012583853,-1.28573842104977
1500.0,-5760363.5240056,-3421732.65843266,620373.508716025,643491.298915367,-6669052.94385109,620126.910500466,4834.91121422698,-54.8324722343839,-6018.6020795644,-0.843244265855949,8.73829170241909,-0.814942760543917,6770237.0136811,1.13270117743631,-0.0013851020776012,-0.18400339761688,-5.7031805487E-4,-1.48875448812949,0.89867165379596,0.27594829126598,0.0,-0.0011222300308759,0.0,350708.590858838,1.3453E-11,1161.06333941008,-0.843239921690636,8.73829160077718,-0.814948773013336
1560.0,-5642221.38236799,-3652930.84433622,258300.423610955,931840.06857757,-6656612.00638284,257828.766944545,4772.92343346366,469.457519565722,-6053.24468163194,-1.2223128210448,8.73100254799074,-0.339180321783957,6770379.60588018,1.13707644668384,-0.0014394126282339,-0.182472339311095,-4.756479919464E-4,-1.40543846448675,0.890353388948961,0.382736163904844,0.0,-0.0011222300308759,0.0,348356.227986299,1.40769E-11,1162.38419974837,-1.22230833753647,8.73100296786273,-0.339186651738663
1620.0,-5499509.15047415,-3868097.95446157,-104995.163798028,1215790.06567947,-6612752.14108786,-105689.652344554,4688.33724381201,992.042489570496,-6059.25216746061,-1.59620346308223,8.68145410660826,0.139158557060726,6770405.63527135,1.14145171592279,-0.0014872647897552,-0.180897397028337,-3.71968720104E-4,-1.32508311261187,0.876595054569608,0.486655661784708,0.0,-0.0011222300308759,0.0,346286.923383421,1.46333E-11,1163.03482676681,-1.59619888933145,8.68145508896359,0.139151968215627
1680.0,-5332729.97406556,-4066418.60949188,-467793.017140693,1493995.85914449,-6537651.69300549,-468707.05627955,4581.52093058826,1510.38862584428,-6036.54269032207,-1.96299940271236,8.58974432976767,0.61764511464672,6770314.34739512,1.14582698517889,-0.0015279396713178,-0.179282469516462,-2.598016119401E-4,-1.24885711271871,0.857719239760861,0.586585879597361,0.0,-0.0011222300308759,0.0,344511.148943785,1.51089E-11,1163.0163458773,-1.96299479278574,8.58974590368845,0.617638335236125
1740.0,-5142497.70877488,-4247152.2661828,-828372.35919409,1765137.55043026,-6431640.71611701,-829501.627014887,4452.95701311278,2021.975170366,-5985.18070099796,-2.32081183526997,8.45621060908894,1.09383433219803,6770107.25632181,1.15020225442927,-0.0015607526075207,-0.177631657069332,-1.397540332172E-4,-1.17760219101806,0.834129904159382,0.681733918249246,0.0,-0.0011222300308759,0.0,343036.431871528,1.54922E-11,1162.33331547132,-2.3208072464547,8.45621278980514,1.09382743831377
1800.0,-4929534.7895687,-4409636.33746631,-1185020.66349519,2027927.56925245,-6295199.75869677,-1186359.81689872,4303.2401684658,2524.30880074189,-5905.37741406472,-2.66779317402461,8.28142989831486,1.56528197171828,6769788.14379242,1.15457752367966,-0.0015850603190719,-0.175949238972637,-1.2514829902E-5,-1.11182802207591,0.806276688012864,0.771640360705789,0.0,-0.0011222300308759,0.0,341867.324916757,1.5774E-11,1160.99357200014,-2.66778866482029,8.28143268586623,1.56527504474165
1860.0,-4694669.48578954,-4553288.90901144,-1536042.44315041,2281117.32096532,-6128957.78695892,-1537585.14253914,4133.07436433967,3014.93794804073,-5797.49024293769,-3.00215014407236,8.06621644350066,2.02956186112011,6769363.01163703,1.15895279293004,-0.0016002676987939,-0.174239649743458,1.211525183098E-4,-1.05175040534472,0.774623067764722,0.856141494719548,0.0,-0.0011222300308759,0.0,341005.424597221,1.59477E-11,1159.00809597933,-3.00214577204575,8.06621982215433,2.02955498487468
1920.0,-4438832.55517473,-4677611.03191686,-1879767.97475184,2523503.63853107,-5933689.25518676,-1881506.91385752,3943.26921619442,3491.46690507077,-5662.02119854873,-3.32215650471616,7.81161706940596,2.48428309752467,6768839.97985891,1.16332806216899,-0.0016058340513008,-0.172507454370881,2.604184760772E-4,-0.997352736796528,0.739621767094906,0.935308267672067,0.0,-0.0011222300308759,0.0,340449.436364715,1.60098E-11,1156.39093988625,-3.3221523243617,7.81162100789804,2.48427635524154
1980.0,-4163053.31635025,-4782188.57593399,-2214561.89560668,2753934.99334891,-5710310.33929078,-2216488.83629912,3734.73559818704,3951.56958013151,-5499.61426677232,-3.62616516348072,7.51890409910102,2.92710683161125,6768229.12913939,1.16770333142223,-0.001601278663609,-0.170757322801489,4.043969925996E-4,-0.948452948061588,0.701698275210321,1.00937980788817,0.0,-0.0011222300308759,0.0,340195.284752586,1.596E-11,1153.15924754021,-3.62616122423182,7.51890855170071,2.92710030290935
2040.0,-3868455.16437704,-4866693.63289394,-2538831.6139797,2971317.42139566,-5459874.35922588,-2540937.42586606,3508.48055076567,4393.00275953527,-5311.05179889547,-3.91261947650013,7.18956609977407,3.35576233851936,6767542.29333084,1.17207860067547,-0.0015861856415016,-0.168994003923178,5.521551969828E-4,-0.904764166288559,0.661241595862606,1.0787032667268,0.0,-0.0011222300308759,0.0,340236.265698074,1.58009E-11,1149.33338121353,-3.9126158210237,7.18957100809802,3.35575609660184
2100.0,-3556250.56123253,-4930885.46265473,-2851035.47459199,3174620.12404174,-5183566.42350318,-2853310.17918277,3265.60153858635,4813.61875616274,-5097.24996487932,-4.18006358358613,6.82529671804881,3.76806215834113,6766792.81248689,1.17645386991157,-0.0015602080033504,-0.167222299285638,7.027225327423E-4,-0.865943568733983,0.618600566254632,1.14368551589143,0.0,-0.0011222300308759,0.0,340563.237408491,1.55383E-11,1144.93715867036,-4.18006024646647,6.82530201349112,3.76805626758779
2160.0,-3227735.53604859,-4974610.98004825,-3149690.62493988,3362880.70636525,-4882697.33590562,-3152123.44412751,3007.28011983791,5211.37733777095,-4859.25332961511,-4.42715168037875,6.42798188064238,4.16191617313716,6765995.25865621,1.1808291391591,-0.0015230710707155,-0.165447036767053,8.55098812199E-4,-0.831628391105232,0.574083990424427,1.2047577505117,0.0,-0.0011222300308759,0.0,341164.845300941,1.51808E-11,1139.99818858878,-4.42714868726092,6.4279874872385,4.16191068723336
2220.0,-2884283.7332902,-4997804.78545419,-3433380.5318056,3535210.0196027,-4558696.810412,-3435959.94037373,2734.77509271481,5584.3568444956,-4598.228618348,-4.65265616595592,5.99968560322053,4.53534454887988,6765165.1448123,1.18520440840948,-0.0014745752265609,-0.163673044367246,0.0010082609327467,-0.801460521907291,0.527963099871423,1.26235157666594,0.0,-0.0011222300308759,0.0,342027.775713096,1.47387E-11,1134.54827983933,-4.65265353317758,5.99969144073723,4.5353395095715
2280.0,-2527340.05202918,-5000488.74419649,-3700762.10140762,3690796.57841993,-4213106.04535948,-3703475.88326436,2449.41518804175,5930.76441810247,-4315.45774086199,-4.85547461458049,5.54263460218984,4.88648949290676,6764318.62298803,1.18957967766558,-0.0014145981246192,-0.161905124290758,0.0011611682750101,-0.775102065187421,0.480475238081555,1.31688421346132,0.0,-0.0011222300308759,0.0,343137.032332866,1.42243E-11,1128.62388730231,-4.85547234928018,5.54264058922917,4.88648492941495
2340.0,-2158413.91956647,-4982771.1255011,-3950572.36090462,3828910.52792285,-3847569.71219292,-3953407.66871144,2152.59138033498,6248.94527619253,-4012.33014728611,-5.03463551162899,5.05920187531162,5.21362576242776,6763472.17291643,1.1939549469131,-0.0013430964272928,-0.160148027484813,0.0013127670490955,-0.752244307992972,0.43182802798837,1.36875038773097,0.0,-0.0011222300308759,0.0,344476.228733739,1.36507E-11,1122.2665424626,-5.03463361228288,5.05920793223337,5.21362169150287
2400.0,-1779072.24629918,-4944845.31423219,-4181634.66346984,3948907.13978005,-3463827.41785785,-4184578.08131942,1845.74889352356,6537.3909746783,-3690.33459320144,-5.18930268397066,4.551889430211,5.51516982734988,6762642.27940578,1.19833021615206,-0.0012601071279935,-0.158406428814574,0.0014619940309555,-0.732612172484441,0.38220356820847,1.41831885794459,0.0,-0.0011222300308759,0.0,346027.890134924,1.30315E-11,1115.52319833392,-5.18930114128216,4.5518954817111,5.51516625389797
2460.0,-1390932.10905591,-4886988.11293283,-4392864.38400033,4050229.82152626,-3063704.70294437,-4395901.99278193,1530.37898159054,6794.74661409069,-3351.05039827678,-5.31877836468644,4.02331039552834,5.78968757030997,6761845.09687346,1.2027054854053,-0.0011657484828972,-0.156684903081728,0.0016077802136608,-0.715965760350194,0.331762408032719,1.46593197870658,0.0,-0.0011222300308759,0.0,347773.757594544,1.23801E-11,1108.44639271763,-5.3187771627356,4.02331637275385,5.78968448849078
2520.0,-995653.211022488,-4809557.65485553,-4583274.07778261,4132412.62801976,-2649103.63988856,-4586391.52286249,1208.01056690442,7019.81696160231,-2996.13828940711,-5.42250487443159,3.47617082453369,6.03590042381475,6761096.10330136,1.20708075465283,-0.0010602205433845,-0.154987902107123,0.0017490548817938,-0.702100154233332,0.280647185724941,1.51190716295666,0.0,-0.0011222300308759,0.0,349695.088283287,1.17094E-11,1101.09410149201,-5.42250399198453,3.47617666666235,6.03589781848931
2580.0,-594930.16747568,-4712990.95142323,-4751978.08003973,4195082.2689838,-2221993.09662758,-4755160.64087693,880.201817977714,7211.57148114047,-2627.33092363136,-5.50006497593392,2.91325155794223,6.25268990883636,6760409.75236538,1.21145602389464,-9.438052506808E-4,-0.153319733091202,0.0018847505146513,-0.69084428134148,0.228985897808989,1.55653946163294,0.0,-0.0011222300308759,0.0,351772.946196004,1.10314E-11,1093.52912120881,-5.50006438781481,2.91325721320051,6.25268775723493
2640.0,-190484.663421385,-4597801.10073076,-4898196.53000478,4237959.61131227,-1784398.7308903,-4901429.19131896,548.5317423376,7369.14828638472,-2246.42318533998,-5.55118104727642,2.33739051519958,6.43910064011202,6759799.13952453,1.21583129314788,-8.168660336254E-4,-0.151684538429023,0.0020138087594959,-0.682059375567982,0.176894815150407,1.60010475273611,0.0,-0.0011222300308759,0.0,353988.478499832,1.03567E-11,1085.81780634654,-5.5511807257143,2.33739594133346,6.43909891359665
2700.0,215942.471730633,-4464574.18468959,-5021258.80864932,4260860.67904818,-1338392.77878425,-5024526.3327573,214.591859013212,7491.8570518521,-1855.26234506684,-5.57571329645543,1.75146571286585,6.59434197163701,6759275.7028741,1.22020656239826,-6.798468422439E-4,-0.150086277092123,0.0021351875235668,-0.675637384064731,0.124481087420281,1.64286322554053,0.0,-0.0011222300308759,0.0,356323.173528754,9.6944E-12,1078.02802451415,-5.57571321233223,1.75147087711197,6.59434063744535
2760.0,622599.229470083,-4313965.88311593,-5120606.38406385,4263697.15738407,-886083.698763354,-5123893.38400413,-120.021999569025,7579.18093138818,-1455.73815414761,-5.57365727666358,1.15837917341822,6.71778853480423,6758848.98040072,1.22458183164864,-5.332705547291E-4,-0.148528707608389,0.0022478690459204,-0.671499534654954,0.0718450898757015,1.6850629784742,0.0,-0.0011222300308759,0.0,358759.097080628,9.052E-12,1070.2263229708,-5.57365740060733,1.1583840520489,6.71778755767875
2820.0,1027730.38878615,-4146697.8328385,-5195795.06246555,4246476.4095562,-429605.728905371,-5199086.0755346,-453.717721765844,7630.77753826222,-1049.77293343998,-5.54514094207781,0.561041722846383,6.80897994150642,6758526.44087782,1.22895710090188,-3.777367123981E-4,-0.147015372592043,0.0023508686570621,-0.669595195020969,0.0190825712130007,1.72694363719356,0.0,-0.0011222300308759,0.0,361279.104080407,8.4355E-12,1062.47454151392,-5.54514124536351,0.561046300381853,6.80897928513502
2880.0,1429585.44687377,-3963553.75865412,-5246496.64582813,4209301.01718207,28891.5877272519,-5249776.20715864,-784.914764843714,7646.47903640073,-639.311699122761,-5.49042140933476,-0.0376414690679467,6.86761987460252,6758313.39651375,1.23333237013798,-2.139185623559E-4,-0.14554958471877,0.0024432438350534,-0.669901099476331,-0.0337133377077282,1.76873995557692,0.0,-0.0011222300308759,0.0,363867.02286051,7.849E-12,1054.82641324111,-5.49042186457516,-0.0376372008739273,6.86761950282036
2940.0,1826426.47856812,-3765375.40192411,-5272499.99936613,4152367.85568241,487253.85751985,-5275752.71518418,-1112.05180167162,7626.29138079002,-226.312358211122,-5.40988148146375,-0.634784828837126,6.89357468246863,6758212.99360944,1.23770763938837,-4.25594180133E-5,-0.144134414021227,0.0025241031309109,-0.672420983678877,-0.0864501949295728,1.81068539611183,0.0,-0.0011222300308759,0.0,366507.809375015,7.2952E-12,1047.32492439207,-5.40988206309179,-0.634780872127006,6.89357456019742
3000.0,2216535.89175648,-3553058.27095067,-5273711.5339281,4075966.71731779,943332.220283692,-5276922.15413439,-1433.59415066861,7570.39273171207,187.263996778806,-5.30402588297346,-1.22753600601947,6.88687146785523,6758226.26587871,1.24208290863875,1.355316225658E-4,-0.142772676403884,0.0025926145609774,-0.677185643697231,-0.139034339584327,1.85301570355693,0.0,-0.0011222300308759,0.0,369187.668765355,6.7755E-12,1040.00117129453,-5.30402656753598,-1.22753235797276,6.88687156178239
3060.0,2598224.04415004,-3327547.23725445,-5250155.11020571,3980478.49543142,1394993.61369227,-5253308.59993433,-1748.04096819659,7479.13105787116,599.462660675116,-5.1734770826706,-1.8130892881415,6.84769555803815,6758352.22686657,1.2464581778777,3.19484533832E-4,-0.141466923337039,0.0026480131391084,-0.68425341688471,-0.191368946745571,1.89597249013494,0.0,-0.0011222300308759,0.0,371894.141997193,6.2903E-12,1032.87506963182,-5.17347784896597,-1.81308594204252,6.84769583706149
3120.0,2969836.68914918,-3089832.00129591,-5201971.37390361,3866372.94497751,1840130.8698984,-5205052.98372211,-2053.93217449912,7353.02094193024,1008.34471423996,-5.01897056911527,-2.38869874939529,6.77638720079208,6758587.97543212,1.25083344713094,5.0837370949E-4,-0.140219432770847,0.0026896073299325,-0.693711062268095,-0.243351986118898,1.93980684271281,0.0,-0.0011222300308759,0.0,374616.155911447,5.839E-12,1025.95767842314,-5.01897139821372,-2.38869569557374,6.77638763627105
3180.0,3329762.21874455,-2840942.45115199,-5129416.5337903,3734206.03636879,2276672.59705933,-5132411.8682159,-2349.85507747587,7192.7396099394,1411.99619808365,-4.84134949669191,-2.95169092796911,6.67343736615294,6758928.79245507,1.25520871638133,7.012237018233E-4,-0.139032201387571,0.0027167843269973,-0.705674991732336,-0.29487402504251,1.98478294093244,0.0,-0.0011222300308759,0.0,377344.036018227,5.4205E-12,1019.25440905296,-4.84135037187591,-2.95168815459168,6.67343793201336
3240.0,3676438.67164381,-2581943.93905248,-5032860.59773605,3584616.92191244,2702592.8002213,-5035755.68175651,-2634.4506564982,6999.12222155016,1808.53700710699,-4.64155872013684,-3.4994767375381,6.53948263718441,6759368.21688515,1.25958398563171,8.970152547903E-4,-0.137906938359592,0.0027290141775466,-0.720292763285782,-0.34581581606222,2.03118163602426,0.0,-0.0011222300308759,0.0,380069.482647013,5.0335E-12,1012.76824631198,-4.6415596267919,-3.49947423125534,6.53948330991998
3300.0,4008360.47876494,-2313932.49951245,-4912785.08507992,3418324.53627049,3115920.19876966,-4915566.42838225,-2906.41947294472,6773.1564758536,2196.12945371134,-4.42063834746899,-4.02956232700126,6.37529930945472,6759898.10250999,1.26395925488209,0.0010946915384199,-0.136845060784348,0.002725852874528,-0.73774468535195,-0.396045611154824,2.07930387610962,0.0,-0.0011222300308759,0.0,382785.512494151,4.6762E-12,1006.50231719054,-4.42063927294666,-4.02956007346836,6.37530006805983
3360.0,4324084.92019593,-2038030.03300466,-4769780.23647747,3236123.85408885,3514747.20140324,-4772434.8951045,-3164.52718470367,6515.97660199515,2572.98645905531,-4.17971702604715,-4.53955871246176,6.18179694103878,6760508.6699245,1.26833452412105,0.0012931645050092,-0.13584769091867,0.0027069446048051,-0.758245284877159,-0.445416151127975,2.12947376484071,0.0,-0.0011222300308759,0.0,385486.368971379,4.347E-12,1000.46151089177,-4.17971795951396,-4.53955669675652,6.18179776689747
3420.0,4622238.2714873,-1755379.47778812,-4604541.74433948,3038881.82889187,3897238.50395703,-4607057.37951157,-3407.60965590397,6228.85680910958,2937.37934842441,-3.92000520273495,-5.02719018519231,5.96001165806471,6761188.57764325,1.27270979337429,0.0014913213044405,-0.134915655241537,0.0026720233756795,-0.78204424740676,-0.493761294091219,2.18204089227361,0.0,-0.0011222300308759,0.0,388167.405842329,4.044E-12,994.653174801697,-3.92000613501555,-5.02718839215132,5.96001253481219
3480.0,4901521.62081618,-1467139.98947397,-4417867.027857,2827533.0374458,4261639.27974467,-4420231.961714,-3634.57766660997,5913.20426400889,3287.64524487479,-3.64278855473007,-5.49030169242141,5.71109949897373,6761925.03946804,1.27708506262181,0.0016880307144358,-0.134049485255211,0.0026209142396012,-0.80942622685008,-0.540892277825619,2.23738136302071,0.0,-0.0011222300308759,0.0,390824.949273707,3.7656E-12,989.087090622468,-3.64278947814966,-5.49030010691077,5.71110041234122
3540.0,5160716.34001055,-1174482.14758426,-4210651.0765025,2603075.05321206,4606282.93574627,-4212854.34453832,-3844.42123612314,5570.55164854828,3622.19406950506,-3.3494216836192,-5.9268655312804,5.43632997513655,6762704.01103998,1.28146033186077,0.0018821495587318,-0.133249419816945,0.0025535343027273,-0.840708629415237,-0.586593667267027,2.29589665020645,0.0,-0.0011222300308759,0.0,393456.143557897,3.5101E-12,983.774982542531,-3.34942259184831,-5.92686413841272,5.43633091278683
3600.0,5398689.19475631,-878583.204185959,-3983881.88516646,2366563.57160384,4929598.41042579,-3985913.28514544,-4036.21357515323,5202.54932624732,3939.51516272606,-3.04132203256364,-6.33498774152716,5.13707986516904,6763510.45774007,1.28583560110829,0.0020725291000333,-0.132515408704672,0.0024698936448669,-0.876236091451201,-0.630619133920394,2.35800901598008,0.0,-0.0011222300308759,0.0,396058.785419824,3.2759E-12,978.729778305543,-3.04132292046783,-6.33498652683345,5.13708081652791
3660.0,5614397.07878711,-580622.388902009,-3738635.50329957,2119107.30899323,5230116.99006846,-3740485.64046009,-4209.11467593366,4810.95712617499,4238.18353681189,-2.71996386590006,-6.71291451132693,4.81482709250539,6764328.70119407,1.29021087036154,0.0022580214037242,-0.131847117081158,0.0023700962050353,-0.916369911527124,-0.672687366096196,2.42415177721563,0.0,-0.0011222300308759,0.0,398631.151148424,3.0614E-12,973.964784456273,-2.71996472939625,-6.71291346088953,4.81482804859327
3720.0,5806891.35610077,-281776.284381156,-3476070.72016907,1861862.697213,5506478.62053334,-3477731.04853584,-4362.37453725764,4397.63573795726,4516.86575692118,-2.38687207928599,-7.05903874035047,4.47114441117078,6765142.82605742,1.29458613960906,0.0024374856717147,-0.131243930542377,0.0022543406092927,-0.961470237110089,-0.712478635094879,2.49475223266762,0.0,-0.0011222300308759,0.0,401171.819994388,2.8652E-12,969.492877551346,-2.386872915207,-7.05903784090231,4.47114536443762
3780.0,5975321.7944535,16785.7140980446,-3197423.40904071,1596028.39590684,5757437.69081666,-3198886.26868368,-4495.33600713635,3964.53770961846,4774.32542950546,-2.0436156091508,-7.37190668426471,4.10769258126634,6765937.11614558,1.29896140886516,0.0026097945438733,-0.130704960512651,0.0021229208461294,-1.01186852629559,-0.749632852328495,2.5702047858661,0.0,-0.0011222300308759,0.0,403679.496571511,2.6858E-12,965.325766879307,-2.04361641511925,-7.37190592325933,4.10769352543268
3840.0,6118940.07272643,313905.841019889,-2904000.55491876,1322839.64650263,5981868.26459203,-2905259.20501419,-4607.43721376573,3513.69805095,5009.42825899181,-1.6918002830388,-7.65022439813083,3.72621276709702,6766696.48226189,1.30333667810126,0.0027738403577649,-0.130229049864841,0.0019762266387953,-1.0678280504324,-0.783750328974919,2.65083204163611,0.0,-0.0011222300308759,0.0,406152.834568359,2.522E-12,961.473352582613,-1.6918010573511,-7.65022376378741,3.72621369700309
3900.0,6237102.84520789,608442.287653918,-2597173.99323244,1043562.49355791,6178768.73665759,-2598222.64080099,-4698.2135495225,3047.22446654283,5221.14662123009,-1.33306107619209,-7.89286356256342,3.32851802258244,6767406.84475532,1.30771194735164,0.0029285413478609,-0.129814778772683,0.0018147433311899,-1.12949151109671,-0.814396819756921,2.73683296022074,0.0,-0.0011222300308759,0.0,408590.264014899,2.3727E-12,957.943183836172,-1.33306181771291,-7.89286304389064,3.32851893404691
3960.0,6329274.34777856,899273.399400739,-2278373.89008901,759487.901322247,6347265.89344959,-2279207.71430636,-4767.29917481976,2567.28726889666,5408.56359920665,-0.969053878471186,-8.09886625260369,2.91648390280049,6768055.441672,1.31208721660202,0.0030728477540545,-0.129460470916607,0.0016390510989005,-1.19681784475794,-0.841114629553798,2.82822015159297,0.0,-0.0011222300308759,0.0,410989.824649338,2.2366E-12,954.740011228631,-0.969054586538521,-8.09886583940624,2.91648479248969
4020.0,6395028.53423572,1185301.72433947,-1949081.99780662,471925.795089411,6486618.36056122,-1949697.16980467,-4814.42801854177,2076.10904624956,5570.87643404256,-0.601446990110755,-8.26744829913544,2.49203840815491,6768631.04646126,1.31646248583812,0.0032057477994029,-0.129164200239605,0.0014498233207102,-1.26951533539914,-0.863441309578601,2.92475343839384,0.0,-0.0011222300308759,0.0,413349.008487572,2.1127E-12,951.865422507224,-0.601447664451238,-8.26744798200641,2.49203927346317
4080.0,6434050.73530745,1465457.89774731,-1610824.72180675,182199.057869893,6596219.42521838,-1611218.41990684,-4839.43426699227,1575.95417584782,5707.39936050695,-0.231912624040586,-8.39800106744075,2.05715158336038,6769124.09452183,1.3208377550885,0.0033262734890501,-0.1289237984726,0.0012478239959107,-1.34698461078544,-0.880936440031098,3.0258832704839,0.0,-0.0011222300308759,0.0,415664.615332176,2.0E-12,949.317548917192,-0.231913264694694,-8.39800083774296,2.05715242230136
4140.0,6446138.83721401,1738704.34881792,-1265166.0361778,-108362.487105723,6675599.2272996,-1265336.45652064,-4842.25235001698,1069.1182776837,5817.5658171018,0.137881316883668,-8.49009168525719,1.61382512874542,6769526.73201224,1.32521302433889,0.0034335061789374,-0.128736863616804,0.00103390416244,-1.42829053635188,-0.893215002224432,3.13072301165977,0.0,-0.0011222300308759,0.0,417932.625468761,1.8977E-12,947.09082884133,0.137880709627261,-8.49009153509617,1.61382593985427
4200.0,6431203.98150952,2004038.81552835,-913700.285192678,-398428.078510597,6724426.31801357,-913646.647752891,-4822.91644719414,557.917696055063,5900.9300411447,0.506278990289304,-8.54346193496944,1.16408233232719,6769832.81030366,1.32958829359213,0.0035265818640596,-0.128600769495021,8.089973511341E-4,-1.5121822731229,-0.899983160543951,-3.04511593621487,0.0,-0.0011222300308759,0.0,420148.09400251,1.805E-12,945.175815215965,0.506278415950959,-8.54346185716012,1.16408311457294
4260.0,6389270.79092305,2260497.65944368,-558044.906943892,-686671.975798007,6742508.59012374,-557767.456938963,-4781.55954570143,44.679079695648,5957.16807462943,0.871643802771288,-8.55802613383457,0.709958518091675,6770037.85334063,1.33396356284251,0.0036046961424905,-0.12851267638454,5.741141907743E-4,-1.59717197381131,-0.90106987197157,-2.93670384884979,0.0,-0.0011222300308759,0.0,422305.071070632,1.721E-12,943.559012494793,0.871643260730078,-8.55802612186373,0.709959270799083
4320.0,6320477.12876107,2507158.97253958,-199833.113445591,-971779.348944793,6729793.58724859,-199333.118169193,-4718.41208343511,-468.270889094985,5986.07821420635,1.23236505809347,-8.53386833928056,0.253492066227351,6770139.02260789,1.33833883208147,0.0036671088222934,-0.128469542645269,3.303363458528E-4,-1.68166505609305,-0.896447043017631,-2.82877389835283,0.0,-0.0011222300308759,0.0,424396.551501656,1.6451E-12,942.222733387243,1.23236454763013,-8.53386838726625,0.253492789007468
4380.0,6225073.40077271,2743145.47096166,159293.440468179,-1252452.07509641,6686368.2022195,160013.699339182,-4633.80020697989,-978.615584210173,5987.58093806753,1.58686416901372,-8.47123913997779,-0.203284063137501,6770135.0965002,1.34271410133185,0.0037131481525156,-0.128468137181141,7.88100136583E-5,-1.76411567120849,-0.886232965669857,-2.72282510839837,0.0,-0.0011222300308759,0.0,426414.456445831,1.5768E-12,941.150781306674,1.58686368933382,-8.47123924262984,-0.20328337042897
4440.0,6103421.40869636,2967627.1728576,517691.968908326,-1527414.41970939,6612457.77600998,518629.207466168,-4528.14366655261,-1484.05832409032,5961.71833587106,1.93360056865308,-8.3705521601425,-0.658350445601585,6770026.46994301,1.34708937058509,0.0037422146749981,-0.128505052535718,-1.792607773041E-4,-1.84317052155382,-0.870678089088003,-2.62016349474791,0.0,-0.0011222300308759,0.0,428349.648215004,1.5156E-12,940.339050329439,1.93360011888457,-8.37055231273742,-0.65834978286683
4500.0,5955992.7659181,3179823.85623397,873725.818113138,-1795418.58087559,6508424.60982588,874875.766746545,-4401.95336231563,-1982.33204166133,5908.65305868227,2.27107743457682,-8.23238026151277,-1.10970909867927,6769815.16898653,1.35146463983547,0.0037537847088309,-0.128576718430328,-4.426208423183E-4,-1.91776909584021,-0.850136948458757,-2.52180147441151,0.0,-0.0011222300308759,0.0,430191.978225811,1.4612E-12,939.781816031275,2.27107701380272,-8.23238045987282,-1.10970846562898
4560.0,5783366.88552411,3379007.29529125,1225771.65257243,-2055250.07620687,6374765.90406736,1227129.0767684,-4255.82855144793,-2471.20871443738,5828.66679815922,2.59784727412765,-8.05745132094606,-1.55539127699415,6769504.86647537,1.35583990908586,0.0037474134918528,-0.128679415599428,-7.099703107653E-4,-1.98718556628101,-0.825033102458864,-2.42841560096889,0.0,-0.0011222300308759,0.0,431930.366719426,1.4131E-12,939.469011950856,2.59784688142163,-8.05745156141423,-1.55539067320305
4620.0,5586228.55230552,3564503.27321953,1572226.5360445,-2305732.95218313,6212111.13941235,1573785.26134748,-4090.45372489768,-2948.50852451127,5722.15830091045,2.91251733747218,-7.84664342328712,-1.99346516437615,6769100.88071889,1.36021517832195,0.0037227380118361,-0.12880928984895,-9.799707837634E-4,-2.05101696053448,-0.795824203051893,-2.34035800786376,0.0,-0.0011222300308759,0.0,433552.911971014,1.3713E-12,939.386266042733,2.91251697193006,-7.84664370269871,-1.99346458933364
4680.0,5365365.09232858,3735693.36929643,1911514.87981661,-2545734.79650842,6021218.91736502,1913267.82081223,-3906.59516698859,-3412.10870930861,5589.64092637519,3.21375475454079,-7.60097934691215,-2.42204337655781,6768610.14009438,1.36459044757234,0.0036794795631246,-0.128962366339546,-0.0012512511544979,-2.10913471816501,-0.76297239657394,-2.2577044440694,0.0,-0.0011222300308759,0.0,435047.026075321,1.3353E-12,939.514306160119,3.21375441530937,-7.60097966256295,-2.42204282971581
4740.0,5121663.15444698,3892016.5210375,2242095.23126051,-2774171.53502464,5802973.28012931,2244034.42443606,-3705.0972185497,-3859.95205931108,5431.73976392395,3.50029125697247,-7.32162031615094,-2.83929012290919,6768041.10208376,1.36896571681986,0.0036174460616229,-0.129134564158598,-0.0015224131499504,-2.16161960390336,-0.726922527686513,-2.18031892349548,0.0,-0.0011222300308759,0.0,436399.594092161,1.3049E-12,939.825626867398,3.50029094328017,-7.3216206657567,-2.83928960373435
4800.0,4856105.12195773,4032970.36046611,2562466.87696572,-2990011.99622266,5558379.53227036,2564583.51728525,-3486.87827246977,-4290.05502100875,5249.18833469565,3.77092735745928,-7.00985911531705,-3.24342786085739,6767403.6236655,1.37334098605596,0.0035365341427424,-0.129321711277559,-0.0017920367240239,-2.20869593669395,-0.688088294298325,-2.10791902214426,0.0,-0.0011222300308759,0.0,437597.153279602,1.2798E-12,940.290530668779,3.77092706863238,-7.00985949697987,-3.24342736886173
4860.0,4569765.17271027,4158112.32784025,2871176.23654595,-3192282.22832794,5288559.58889268,2873460.71756545,-3252.92653680748,-4700.51537228904,5042.82491272911,4.024535912174,-6.66711276171985,-3.63274331620343,6766708.788865,1.37771625531206,0.0034367310545682,-0.12951955998846,-0.0020586854804621,-2.25067462690249,-0.646845110069897,-2.04013232282362,0.0,-0.0011222300308759,0.0,438626.089212313,1.2605E-12,940.965122127608,4.02453564753116,-6.66711317408271,-3.63274285076124
4920.0,4263805.00700217,4267060.56728203,3166823.02547105,-3380069.55613515,4994746.87663738,3169264.98280802,-3004.29560280728,-5089.51945117775,4813.58850534066,4.26006506872277,-6.29491498651559,-4.00559282106643,6765968.70630101,1.38209152455673,0.0033181163429808,-0.129723802878216,-0.0023209123219463,-2.28790877446868,-0.603527920650212,-1.97654024581901,0.0,-0.0011222300308759,0.0,439472.845649023,1.2474E-12,941.91027635038,4.26006482762296,-6.29491542879998,-4.00559238147237
4980.0,3939469.26475851,4359494.60807754,3448066.16770371,-3552526.36695506,4678280.81449643,3450654.52566622,-2742.09985265225,-5455.34893358769,4562.51453278595,4.47654067873804,-5.8949087543114,-4.36040701440667,6765196.29282999,1.38646679380997,0.0031808633099234,-0.129930089342991,-0.0025772655081463,-2.32076181037777,-0.558432284164131,-1.91670927313945,0.0,-0.0011222300308759,0.0,440124.144970723,1.2409E-12,943.175164081197,4.47654046064945,-5.8949092263153,-4.3604065999725
5040.0,3598080.64991486,4435155.84008548,3713629.44119047,-3708873.61694896,4340600.90132711,3716352.46236292,-2467.50973536689,-5796.38716750659,4290.73024219425,4.67306830385418,-5.46883897501131,-4.695695022792,6764405.05806311,1.39084206306035,0.003025240211534,-0.130134042584821,-0.0028262952624385,-2.34958628449517,-0.511817356427778,-1.86021145185691,0.0,-0.0011222300308759,0.0,440567.2158149,1.2414E-12,944.804409165944,4.67306810840922,-5.46883947711694,-4.69569463292153
5100.0,3241034.7820465,4493847.78875312,3962306.84111805,-3848404.05058735,3983240.43629141,3965152.17869419,-2181.74693106812,-6111.12507701426,3999.44988253027,4.84883495280466,-5.0185454504713,-5.01004826996758,6763608.89918641,1.3952173322993,0.0028516111519554,-0.130331276986708,-0.0030665610019428,-2.37471082650679,-0.463909808362295,-1.80663663667852,0.0,-0.0011222300308759,0.0,440790.024198745,1.2495E-12,946.840830942464,4.84883477985269,-5.01854598365597,-5.01004790422787
5160.0,2869794.79261085,4535436.19737283,4192967.64718703,-3970485.12694729,3607819.89763159,4195922.399835,-1886.0794163124,-6398.16664878597,3689.96965880187,5.00311065382227,-4.54595599330594,-5.30214404262999,6762821.90759267,1.39959260154969,0.0026604366223645,-0.13051741574366,-0.0032966391888084,-2.39643293827761,-0.414908042555697,-1.7555987983571,0.0,-0.0011222300308759,0.0,440781.504035415,1.2657E-12,949.327161498367,5.00311050348276,-4.54595655916047,-5.30214370082125
5220.0,2485885.68265829,4559848.92353805,4404561.18205269,-4074561.64717574,3216040.00459312,4407611.95109133,-1581.81643882951,-6656.23400782472,3363.66247785809,5.13524990360734,-4.05307959305058,-5.57074887529578,6762058.1806453,1.40396787080293,0.0024522736335475,-0.130688108642712,-0.0035151317239805,-2.41501569647568,-0.364986333714939,-1.70673830173939,0.0,-0.0011222300308759,0.0,440531.782626759,1.2908E-12,952.307241964491,5.13524977632716,-4.05308019380698,-5.57074855752492
5280.0,2090888.45989885,4567075.65563647,4596121.24875851,-4160158.07791067,2809674.48713364,4599254.19741938,-1270.3034095511,-6884.17208143721,3021.97249682753,5.24469296570873,-3.54199950863209,-5.81472173400219,6761331.62587678,1.40834314003902,0.0022277753944997,-0.130839049930414,-0.0037206747390541,-2.43068691717078,-0.314298696084716,-1.65972158179622,0.0,-0.0011222300308759,0.0,440032.396587429,1.3257E-12,955.826672973896,5.24469286232755,-3.54200014719993,-5.81472144076564
5340.0,1686434.07231291,4557167.45598039,4766770.23573329,-4226880.56600903,2390562.58830149,4769971.15027816,-952.916723057658,-7080.95284501008,2666.4094886936,5.3309669438184,-3.01486623602618,-6.03301690927326,6760655.74305436,1.41271840928941,0.0019876904975204,-0.130965996270149,-0.0039119475954079,-2.4436397514285,-0.262982395796315,-1.61423922575474,0.0,-0.0011222300308759,0.0,439276.493819858,1.3716E-12,959.932635510877,5.33096686564628,-3.01486691603294,-6.03301664155588
5400.0,1274197.15510783,4530236.13740885,4915722.87897654,-4274418.64074236,1960601.32458165,4918977.23143606,-631.058522449479,-7245.67914333147,2298.54304592332,5.39368654978715,-2.47389041251467,-6.22468650312639,6760043.37280048,1.41709367853979,0.0017328615810869,-0.131064784854301,-0.0040876818772135,-2.45403400877071,-0.211161095556299,-1.57000313840719,0.0,-0.0011222300308759,0.0,438259.01765056,1.4298E-12,964.672414535637,5.39368649869712,-2.473891138344,-6.22468626252161
5460.0,855889.610347989,4486453.47943901,5042289.67250725,-4302546.60070713,1521737.52970037,5045582.68480364,-306.151428399438,-7377.58808842185,1919.99664925218,5.43255452935571,-1.92133583321545,-6.38888242960895,6759506.4085165,1.42146894779017,0.0014642234535929,-0.131131351777976,-0.0042466701665047,-2.46199774545597,-0.15894765832032,-1.52674322420157,0.0,-0.0011222300308759,0.0,436976.870017647,1.5018E-12,970.090075768872,5.43255450789272,-1.92133661004032,-6.38888221846308
5520.0,433254.03560664,4426050.2917169,5145879.91987313,-4311124.58390348,1075959.70695412,5149196.62908734,20.366747965419,-7476.05404781334,1532.44163103988,5.44736179122251,-1.35951282584213,-6.52485794048823,6759055.47962595,1.4258442170377,0.0011828006724006,-0.131161750784766,-0.004387774411085,-2.46762882203645,-0.106446656936347,-1.48420384882451,0.0,-0.0011222300308759,0.0,435429.051548331,1.5896E-12,976.22088796623,5.4473618027303,-1.35951365963197,-6.52485776207564
5580.0,8057.01822728685,4349315.33185923,5226004.42118798,-4300099.32047464,625289.713841056,5229329.7457306,347.048294378604,-7540.59125214487,1137.59105821302,5.437987382831,-0.790772220137176,-6.63196881395141,6758699.62604846,1.43021948627666,8.897045817953E-4,-0.131152172452,-0.0045099337324064,-2.47099624731994,-0.05375664596693,-1.44214022725442,0.0,-0.0011222300308759,0.0,433616.777317214,1.6951E-12,983.083605618299,5.43798743159345,-0.790773117619038,-6.6319686726806
5640.0,-417917.690578679,4256594.08461111,5282277.79133963,-4269504.56812629,171774.300663968,5285596.59778392,672.440886156031,-7570.85606250787,737.193547741181,5.40439853666979,-0.217500046012448,-6.70967446655118,6758445.9933711,1.4345947555299,5.861298204553E-4,-0.131098963795767,-0.0046121715641585,-2.4721411995293,-9.722550902671E-4,-1.40031480944433,0.0,-0.0011222300308759,0.0,431543.567845041,1.8205E-12,990.671687157455,5.40439862805901,-0.217501014562759,-6.70967436819629
5700.0,-842876.110536931,4148287.40796112,5314420.40526423,-4219461.22998106,-282523.477795769,5317717.5755988,995.09288623277,-7566.6489409313,333.027009349768,5.34665104305547,0.357887085184053,-6.75753932552421,6758299.58273586,1.43897002478028,2.733503130486E-4,-0.130998648158258,-0.0046936020550809,-2.47107766277147,0.0518138361923478,-1.35849368717507,0.0,-0.0011222300308759,0.0,429215.315328838,1.9682E-12,998.945670377138,5.34665118367424,0.357886037736924,-6.75753927746936
5760.0,-1265021.06532444,4024850.04986445,5322259.96524604,-4150177.15345937,-735532.960827251,5325520.46430298,1313.55868307735,-7527.91615826196,-73.1077104646035,5.26489016996187,0.932946176364883,-6.77523479748924,6758263.08732108,1.44334529401923,-4.72852376733E-5,-0.130847945114221,-0.0047534357064715,-2.46779264761457,0.104508983454506,-1.31644301801337,0.0,-0.0011222300308759,0.0,426640.325102118,2.1405E-12,1007.82959489744,5.26489036776571,0.932945042034875,-6.77523480896676
5820.0,-1682559.30584531,3886789.03679576,5305732.68308388,-4061946.60683914,-1185184.67532099,5308941.62589485,1626.40410347871,-7454.75125208226,-479.393326907546,5.15935224674349,1.50521206879258,-6.76254207797859,6758336.83821212,1.44772056326676,-3.743583415279E-4,-0.130643790026653,-0.0047909842435208,-2.46224598612697,0.157018663318342,-1.27392544961713,0.0,-0.0011222300308759,0.0,423829.331917999,2.3397E-12,1017.21376376093,5.15935251112913,1.50521083981754,-6.76254216028056
5880.0,-2093708.71492048,3734661.93234622,5264884.06699186,-3955149.42780336,-1629419.20890452,5268026.78581975,1932.21193980711,-7347.39621637248,-884.002811557405,5.0303668762895,2.07220225680653,-6.7193558775064,6758518.86779466,1.45209583251429,-7.063861780276E-4,-0.130383352818603,-0.004805664739487,-2.45436971032264,0.209244501985605,-1.2306965274089,0.0,-0.0011222300308759,0.0,420795.489944493,2.5679E-12,1026.96408106693,5.03036721814198,2.07220092609278,-6.71935604415301
5940.0,-2496705.58140397,3569074.9621088,5199869.29986745,-3830249.83607243,-2066196.14518159,5202931.41065434,2229.58762422882,-7206.24237050674,-1285.10633529442,4.87835957508574,2.63142284650334,-6.64568893092564,6758805.08131007,1.45647110176467,-0.0010418275041158,-0.130064055525849,-0.0047970030261477,-2.44406704429905,0.261082187264383,-1.18650108084227,0.0,-0.0011222300308759,0.0,417554.334556635,2.8271E-12,1036.93561431167,4.87836000678299,2.63142140810454,-6.64568919778197
6000.0,-2889811.92903021,3390680.99917732,5110953.19280121,-3687794.9007191,-2493503.03949722,5113920.66076514,2517.16506601124,-7031.83082547167,-1680.87849743261,4.70385450530985,3.18037607501642,-6.5416769591617,6759189.5104764,1.46084637101505,-0.001379088996787,-0.12968358825821,-0.0047646364362145,-2.43121107058204,0.312419204378758,-1.1410696104703,0.0,-0.0011222300308759,0.0,414123.713348246,3.1194E-12,1046.98646449809,4.70385504068706,3.18037452462647,-6.5416773445015
6060.0,-3271322.8790413,3200177.4044768,4998509.6961165,-3528412.65245269,-2909364.40810457,5001368.90022119,2793.61264543743,-6824.85244692084,-2069.50585467677,4.5074768943778,3.71656957030793,-6.40758361775041,6759664.61074951,1.46522164025686,-0.0017165320145378,-0.129239923316358,-0.0047083159366656,-2.41564317774309,0.363132336113698,-1.09411474478204,0.0,-0.0011222300308759,0.0,410523.683503924,3.4467E-12,1056.98839697314,4.50747754865211,3.71656790576304,-6.40758414226644
6120.0,-3639574.02014327,2998303.71704691,4863020.95028365,-3352809.8322799,-3311850.69742854,4865758.74629704,3057.63933367141,-6586.14721222917,-2449.19473399419,4.2899547555595,4.23752725191889,-6.24380493174111,6760221.55874213,1.46959690949868,-0.0020524797617897,-0.128731327363677,-0.0046279077282782,-2.39717146884318,0.413084870885244,-1.04532791036772,0.0,-0.0011222300308759,0.0,406776.372940258,3.8108E-12,1066.83252016765,4.28995554520963,4.23752547371685,-6.24380561849667
6180.0,-3992948.75417283,2785839.19114577,4705075.86087821,-3161769.27043391,-3699087.19429016,4707679.64272966,3308.00088741734,-6316.70287252407,-2818.17928519417,4.05211962516976,4.74080152261024,-6.05087279177165,6760850.50992246,1.47397217874906,-0.0023852248409987,-0.128156371708289,-0.004523394404591,-2.37556942123042,0.462123471253142,-0.994376472985886,0.0,-0.0011222300308759,0.0,402905.803516374,4.2137E-12,1076.43031004972,4.05212056775832,4.74079963445846,-6.05087366607854
6240.0,-4329885.58135765,2563600.17995209,4525368.18508018,-2956146.892956,-4069262.83335545,4527825.94422242,3543.50605472521,-6017.65285695421,-3174.72970809565,3.79490619067935,5.22398624498101,-5.82945725117455,6761540.7884918,1.47834744799087,-0.002713037179038,-0.127513940877026,-0.0043948757797192,-2.35057525339123,0.510074675203802,-0.94090177566458,0.0,-0.0011222300308759,0.0,398937.676069215,4.6568E-12,1085.71147448103,3.79490730460019,5.22398425437862,-5.82945834037454
6300.0,-4648885.28649331,2332437.36882356,4324694.12146012,-2736868.35725387,-4420638.85525333,4326994.50394119,3763.02272598291,-5690.27338815752,-3517.16057974235,3.51935085654636,5.68472997624447,-5.5803675727264,6762280.9989681,1.4827227172384,-0.0030341723174303,-0.126803239733546,-0.0042425695025149,-2.32189269165748,0.556741040894256,-0.884518740462148,0.0,-0.0011222300308759,0.0,394899.118872461,5.1413E-12,1094.62035769005,3.51935216067792,5.68472789509015,-5.58036890584755
6360.0,-4948517.98735179,2093232.86229956,4103949.39923836,-2504925.32174287,-4751557.2678419,4106081.7601911,3965.48397137441,-5335.97980663709,-3843.83921006693,3.22658943291217,6.12074905060734,-5.30455216693116,6763059.06878196,1.48709798648878,-0.0033468800594354,-0.126023799392569,-0.0040668115681825,-2.28919415402687,0.601897013634929,-0.82481802817322,0.0,-0.0011222300308759,0.0,390818.403091445,5.668E-12,1103.1121777017,3.22659094615958,6.12074689580883,-5.30455377418961
6420.0,-5227430.00612287,1846897.13203793,3864125.86715372,-2261371.35781426,-5060449.06358556,3866080.32241488,4149.89391960029,-4956.32212025677,-4153.19396706443,2.91785419830658,6.52984031473739,-5.00309768641393,6763862.24885241,1.49147325573631,-0.0036494134699026,-0.125175482111437,-0.0038680568117604,-2.25212778266186,0.64528470679188,-0.761372167496456,0.0,-0.0011222300308759,0.0,386724.630616099,6.2366E-12,1111.14982009631,2.91785593902058,6.52983810878251,-5.00309959853517
6480.0,-5484350.52640762,1594365.83271153,3606307.58510916,-2007317.51463518,-5345842.14717826,3608075.05968663,4315.3334474657,-4552.97979923954,-4443.72252949808,2.59447056382475,6.90989357087432,-4.67722755837542,6764677.11079139,1.49584852498669,-0.0039400382241709,-0.124258485215296,-0.0036468794186882,-2.21033022875957,0.68660996396631,-0.693747539913747,0.0,-0.0011222300308759,0.0,382647.401040741,6.8462E-12,1118.70144815751,2.59447254909337,6.90989134230958,-4.67722980571729
6540.0,-5718097.99887543,1336596.49279692,3331666.42381156,-1743927.54875172,-5606368.92853775,3333238.69692598,4460.96566079529,-4127.75582721644,-4714.00003982853,2.25785346177991,7.25890398753741,-4.32830014538659,6765489.58251642,1.50022379422564,-0.004217042298595,-0.123273343961047,-0.0034039734183695,-2.16344751917117,0.725539324498509,-0.621524534499032,0.0,-0.0011222300308759,0.0,378616.465347488,7.4944E-12,1125.73890749064,2.25785570659969,7.25890177128967,-4.32830275685823
6600.0,-5927586.25818438,1074565.08780977,3041457.17901273,-1472412.8315046,-5840773.53638316,3042826.9254479,4586.0411500687,-3682.56999968875,-4962.68713659764,1.90950342923563,7.57498483556621,-3.95780655269715,6766285.05797531,1.50459906347603,-0.0044787459857833,-0.122220933101849,-0.0031401530440447,-2.11116648256364,0.761698851106885,-0.544328337264744,0.0,-0.0011222300308759,0.0,374661.373986043,8.1775E-12,1132.23677290947,1.90950594558156,7.57498267303626,-3.95780955448476
6660.0,-6111830.31285999,809262.501422032,2737012.20829066,-1194026.94841287,-6047918.60644914,2738173.03579675,4689.90299765407,-3219.45144034569,-5188.53784057507,1.5510022027193,7.85638086529742,-3.56736790020205,6767048.60280503,1.50897433272355,-0.0047235122020023,-0.121102466810433,-0.0028563527597836,-2.05325867240195,0.794676165023202,-0.46187228083006,0.0,-0.0011222300308759,0.0,370811.126597996,8.8904E-12,1138.17184900075,1.55100499854711,7.85637880415403,-3.56737131433169
6720.0,-6269951.76656012,541690.883004997,2419735.60028794,-910060.006473361,-6226791.59613444,2420682.08279177,4771.99149890225,-2740.53029134127,-5390.40725273682,1.18400753146514,8.10148246821127,-3.15873170987885,6767765.25919771,1.51334960196536,-0.0049497570321574,-0.119919496578367,-0.0025536266867306,-1.98963690421063,0.824027369037257,-0.374013861810901,0.0,-0.0011222300308759,0.0,367093.829788797,9.626E-12,1143.52294387547,1.18401060969451,8.10148056182039,-3.15873555266895
6780.0,-6401183.82678089,272859.909256528,2091096.8895311,-621832.66814689,-6376510.57463671,2091824.59592075,4831.84854043554,-2248.02853245444,-5567.25899816332,0.810246885505154,8.30884051061427,-2.73376697541381,6768420.43412983,1.51772487121575,-0.005155960431839,-0.118673906738349,-0.0022331471225973,-1.92042083050487,0.849290618027287,-0.280819840467736,0.0,-0.0011222300308759,0.0,363536.368340272,1.03757E-11,1148.27075517901,0.810250243046064,8.30883881705299,-2.7337712558927
6840.0,-6504875.854059,3782.96082715384,1752624.33468903,-330689.934763291,-6496329.43528725,1753129.85295537,4869.12156081701,-1744.24989898635,-5718.17232413047,0.431509791297203,8.47718145829035,-2.29445750541965,6769000.33951446,1.52210014046327,-0.0053406769783365,-0.117367907350444,-0.0018962018521641,-1.84600229841212,0.870007613278932,-0.18263115978018,0.0,-0.0011222300308759,0.0,360164.094315909,1.11292E-11,1152.39768135687,0.431513418192527,8.47718003891932,-2.29446222380376
6900.0,-6580497.4033701,-264526.770962986,1405897.78430075,-37994.7069794068,-6585642.47581619,1406178.74083833,4883.56700630316,-1231.56889785293,-5842.34873951795,0.0496386555503962,8.60542220143186,-1.84289325875777,6769492.44386027,1.52647540971366,-0.0055025465371749,-0.116004024330406,-0.0015441899992717,-1.76709475097341,0.885752941326899,-0.0801119379063742,0.0,-0.0011222300308759,0.0,357000.537820032,1.18745E-11,1155.88769686369,0.0496425343160924,8.60542111903066,-1.84289840510495
6960.0,-6627641.71012919,-531060.23047981,1052541.16116823,254878.844683368,-6643988.29338694,1052596.23506119,4875.05319087894,-712.418960368522,-5939.11807138896,-0.33348189764362,8.69268389037383,-1.3812595849963,6769885.89406732,1.53085067896118,-0.0056403046916905,-0.11458508685044,-0.0011786162703921,-1.68474675269414,0.896168883908508,0.0257373917740218,0.0,-0.0011222300308759,0.0,354067.142811434,1.25985E-11,1158.72714394745,-0.333477792389568,8.6926832068823,-1.381265138171
7020.0,-6646028.57591152,-794816.475230532,694214.604082748,546552.060891358,-6671052.94479103,694043.536229903,4843.56247616381,-189.279811326274,-6007.94381574615,-0.715936992988634,8.7383041220646,-0.911824493382836,6770171.87252943,1.53522594820014,-0.005752792773258,-0.113114212180688,-8.010835756032E-4,-1.60030225774512,0.90100059527837,0.133620180487741,0.0,-0.0011222300308759,0.0,351383.0313166,1.32869E-11,1160.90545110992,-0.715932694533926,8.73830389602466,-0.911830420458701
7080.0,-6635506.61409145,-1054806.66046187,332606.312594409,835648.683153063,-6666672.32808986,332209.909558972,4789.19270152386,335.335830108007,-6048.42767239781,-1.09579447474467,8.7418469550012,-0.436924248326014,6770343.86651091,1.53960121745052,-0.0058389673320205,-0.111594788240424,-4.132841665225E-4,-1.51530238754908,0.900124562500357,0.242042142502341,0.0,-0.0011222300308759,0.0,348964.799516858,1.39254E-11,1162.41549942272,-1.09579002387501,8.74184723883807,-0.436930504530328
7140.0,-6596054.8221232,-1310058.00547039,-30575.8534755333,1120801.80548735,-6630833.74974648,-31195.7209708515,4712.1578145518,858.896076629774,-6060.31317525221,-1.47111853094149,8.7031104287802,0.0410523074139206,6770397.84058277,1.54397648670376,-0.0058979089019564,-0.110030454179696,-1.69895779269E-5,-1.43134273028483,0.893563437366592,0.349454404842998,0.0,-0.0011222300308759,0.0,346826.349322256,1.44997E-11,1163.25376825765,-1.47111397509346,8.70311126609644,0.0410457781408303
7200.0,-6527783.45509115,-1559617.71355311,-393612.963507976,1400660.83916138,-6563676.65021313,-394453.367482835,4612.78767313681,1378.86407182556,-6043.48835446363,-1.83998362933037,8.6221314655139,0.519680279272211,6770332.31540616,1.54835175594557,-0.0059288299393809,-0.108425079315853,3.859602234423E-4,-1.34991762923107,0.881483265049363,0.454409566428832,0.0,-0.0011222300308759,0.0,344978.759014681,1.49964E-11,1163.42032447636,-1.83997902131612,8.62213288859145,0.519673543073537
7260.0,-6430934.18315224,-1802556.8189399,-754783.735201288,1673898.44041599,-6465492.47031894,-755840.70272052,4491.52700943408,1892.71240527593,-5997.9873911084,-2.20048847535436,8.49918818559701,0.996515719961152,6770148.36479062,1.5527270251931,-0.0059310818470835,-0.106782740717109,7.936680156648E-4,-1.27228841016143,0.86417387064224,0.555693821438793,0.0,-0.0011222300308759,0.0,343430.196208903,1.54036E-11,1162.91871428259,-2.20048387170824,8.49919021330539,0.996508851240429
