time,gePosition_m_X,gePosition_m_Y,gePosition_m_Z,eiPosition_m_X,eiPosition_m_Y,eiPosition_m_Z,eiVelocity_m_s_X,eiVelocity_m_s_Y,eiVelocity_m_s_Z,eiAccel_m_s2_X,eiAccel_m_s2_Y,eiAccel_m_s2_Z,semiMajorAxis_m,gast_rad,eulerAngle_rad_Roll,eulerAngle_rad_Pitch,eulerAngle_rad_Yaw,eulerAngleWrtEi_rad_Roll,eulerAngleWrtEi_rad_Pitch,eulerAngleWrtEi_rad_Yaw,bodyAngularRateWrtEi_rad_s_Roll,bodyAngularRateWrtEi_rad_s_Pitch,bodyAngularRateWrtEi_rad_s_Yaw,altitudeMsl_m,airDensity_kg_m3,ambientTemperature_dgK,eiGravitation_m_s2_X,eiGravitation_m_s2_Y,eiGravitation_m_s2_Z
0.0,-1436381.48862739,4185811.47756286,5163944.85376219,-4315967.73999999,960356.199999999,5167269.52999999,129.091036999934,-7491.51385500013,1452.51565399991,5.45458043946008,-1.21387477003138,-6.5491751645923,6759052.98367584,1.02331933954551,0.0,-0.202458193231342,-1.0E-16,-2.47159390556422,-0.0371889647578316,-1.42899313520438,0.0,-0.0011222299538715,0.0,434991.318347183,1.782E-12,992.872619628906,5.45458046544858,-1.21387570674601,-6.54917497501085
60.0,-1794960.01041126,3943151.44593611,5239238.56905637,-4298410.85886894,509021.508960514,5242566.80833202,455.963920769385,-7547.27713672763,1056.38090896559,5.43713894752435,-0.644043829967075,-6.65043776710945,6758732.64082536,1.02769460895833,-3.1611329683E-6,-0.202437001159218,-9.1518200508E-5,-2.47204519445283,0.0156058984055728,-1.38719418655662,0.0,-0.0011222299538715,0.0,433112.19241202,1.7267E-12,986.205932617187,5.43713900990476,-0.644044745116784,-6.65043763346672
120.0,-2147590.37145803,3685728.99747931,5290614.71556103,-4261287.55356034,55369.4425302037,5293931.36767522,781.062672066927,-7568.72029993205,655.053551410831,5.39544854806418,-0.0702732521725392,-6.72218245265024,6758511.61758406,1.03206987837114,-1.26996672482E-5,-0.202371074091663,-1.826265945253E-4,-2.4702868224414,0.0683734591138516,-1.3453262721125,0.0,-0.0011222299538715,0.0,430973.484587115,1.8565E-12,994.004028320312,5.39544865489206,-0.0702742397372569,-6.72218236351807
180.0,-2492788.94195612,3414636.12754568,5317815.10189145,-4204747.88524444,-398535.154549034,5321105.05465779,1102.93432666619,-7555.67973306358,250.31794230373,5.32959027276885,0.505006021909926,-6.76398444909309,6758392.91195577,1.03644514778395,-2.86551410524E-5,-0.202257016621566,-2.724701763717E-4,-2.46629730856899,0.121020690681024,-1.30315483303668,0.0,-0.0011222299538715,0.0,428581.523723308,2.0097E-12,1002.47467041015,5.32959043100264,0.50500495379919,-6.76398441220694
240.0,-2829091.75552938,3131014.78946261,5320689.22956278,-4129028.89138683,-850622.015199994,5323937.4763396,1420.13357417162,-7508.13860169363,-156.019373332134,5.23973867153857,1.07933330821385,-6.77552984616437,6758377.81312923,1.04082041719676,-5.10087946101E-5,-0.202091640586547,-3.601994684662E-4,-2.46002784214147,0.173452077418912,-1.26044067503454,0.0,-0.0011222299538715,0.0,425945.107521707,2.1885E-12,1011.53186035156,5.23973888955932,1.07933215128099,-6.775529871205
300.0,-3155060.45424581,2836052.53525484,5299195.42175048,-4034453.95658702,-1298824.30638884,5302387.12882087,1731.22844833352,-7426.22843745039,-562.136463007145,5.1261644015082,1.65022503831522,-6.75662044642686,6758466.09205368,1.04519568660958,-7.9682865276E-5,-0.201871981652165,-4.449753315474E-4,-2.45140153543319,0.225567612984536,-1.2169363688748,0.0,-0.0011222299538715,0.0,423075.526942406,2.3956E-12,1021.05725097656,5.12616468920803,1.65022378454486,-6.75662054524041
360.0,-3469288.25322349,2530977.98881967,5253401.53581894,-3921431.83757352,-1741087.56745287,5256522.10935279,2034.80616014061,-7310.23026632144,-966.203091207037,4.98923634455774,2.21518313839452,-6.70717841055288,6758656.16970952,1.04957095602238,-1.145402057284E-4,-0.201595314392165,-5.25974504765E-4,-2.4403123052206,0.277260663528002,-1.17238263276539,0.0,-0.0011222299538715,0.0,419986.553689998,2.633E-12,1030.91076660156,4.98923671338799,2.21518178048747,-6.70717859732665
420.0,-3770405.90266668,2217056.15869524,5183485.24303309,-3790455.33481109,-2175378.70030787,5186520.39535786,2329.47903700932,-7160.57519839882,-1366.38806471394,4.82942299641796,2.77170453239304,-6.62725024807604,6758945.22506707,1.0539462254352,-1.553842996241E-4,-0.201259166008904,-6.023960062521E-4,-2.42662345611852,0.328415635844805,-1.1265047310276,0.0,-0.0011222299538715,0.0,416694.387356251,2.9032E-12,1040.94494628906,4.82942345939643,2.77170306425349,-6.62725053946456
480.0,-4057087.62269184,1895583.60087099,5089733.86116958,-3642099.60574513,-2599694.97746944,5092669.67607147,2613.89052083569,-6977.84442547316,-1760.86679075475,4.64729304106026,3.31729129099357,-6.51700989631521,6759329.2217213,1.05832149484801,-2.019597527227E-4,-0.200861328947833,-6.734683073953E-4,-2.41016609222267,0.378905391623039,-1.0790089779852,0.0,-0.0011222299538715,0.0,413217.560431592,3.2081E-12,1051.0185546875,4.64729361273636,3.31728970824116,-6.51701031151356
540.0,-4328056.98529806,1567883.44475802,4972543.72895525,-3477020.11758639,-3012073.03150369,4975366.72572922,2886.72117807678,-6762.76860295648,-2147.8289912107,4.44351520713953,3.84946092888187,-6.37676085791546,6759802.85370253,1.06269676426082,-2.539533254133E-4,-0.200399872696979,-7.384569762823E-4,-2.39073756663119,0.428588353352688,-1.02957952153461,0.0,-0.0011222299538715,0.0,409576.801356837,3.5502E-12,1061.00622558593,4.4435159035215,3.84945922936969,-6.37676141868089
600.0,-4582092.71807275,1235300.29693091,4832419.11458179,-3295950.24007973,-3410597.78894837,4835116.31054799,3146.69468536508,-6516.22661918577,-2525.48652103369,4.2188576430226,4.36575648508998,-6.206937582555,6760359.43239649,1.06707203367362,-3.109955460947E-4,-0.199873155017173,-7.966723100424E-4,-2.36810030457778,0.47730525916174,-0.977875710221153,0.0,-0.0011222299538715,0.0,405794.857765971,3.9313E-12,1070.802734375,4.21885848144957,4.36575466946497,-6.20693831316179
660.0,-4818034.40510782,899195.037427992,4669970.65322279,-3099698.48041836,-3793411.31245246,4672529.62442719,3392.58377049312,-6239.24377017491,-2892.08125484967,3.97418710188651,4.86375626415832,-6.00810641828166,6760990.75325837,1.07144730308643,-3.726629079453E-4,-0.199279832732213,-8.474763813624E-4,-2.34198152173849,0.524875548503716,-0.923530536890922,0.0,-0.0011222299538715,0.0,401896.283766935,4.3536E-12,1080.32360839843,3.97418810084128,4.863754336445,-6.00810734539891
720.0,-5034788.06135136,560939.522516366,4485913.31002066,-2889145.36316215,-4158721.516018,4488322.24983848,3623.21610519408,-5932.98935679525,-3245.89302661587,3.71046818149782,5.34108339570407,-5.78096648225731,6761686.98946611,1.07582257249925,-4.384806105848E-4,-0.198618872045015,-8.902889336592E-4,-2.31207462246156,0.57109340692962,-0.866150918523768,0.0,-0.0011222299538715,0.0,397907.196279821,4.8186E-12,1089.50219726562,3.71046936032115,5.341081363956,-5.78096763470582
780.0,-5231331.55649557,221911.206497159,4281063.865331,-2665239.95786382,-4504810.71881075,4283311.64069251,3837.48015709491,-5598.77370448047,-3585.24762580626,3.42876272668142,5.79541560322081,-5.52635070232528,6762436.65808097,1.08019784191205,-5.079257705748E-4,-0.197889558172482,-9.245916786947E-4,-2.27804341613893,0.615723578532653,-0.805320928444336,0.0,-0.0011222299538715,0.0,393855.005982267,5.3278E-12,1098.28637695312,3.42876410519865,5.79541348016252,-5.52635211071008
840.0,-5406719.86302518,-116512.305887647,4056337.91845624,-2428996.05657773,-4830044.00221761,4058414.12341467,4034.33100919971,-5238.04457791808,-3908.52486326702,3.13022931482998,6.2244956885712,-5.2452270885347,6763226.69313033,1.08457311132487,-5.804309977014E-4,-0.197091503945589,-9.499307632973E-4,-2.23953072833747,0.65849718527564,-0.740609538334229,0.0,-0.0011222299538715,0.0,389768.128319505,5.8818E-12,1106.6337890625,3.13023091282801,6.22449349228247,-5.24522878467956
900.0,-5560090.10015716,-452958.764866878,3812746.40534278,-2181488.00318432,-5132877.33226346,3814641.41170418,4212.7961447517,-4852.38293312277,-4214.16671651686,2.81612255876121,6.62614320170875,-4.93870006217086,6764042.64187349,1.08894838073768,-6.553882234664E-4,-0.196224656932845,-9.659174430808E-4,-2.19617345685162,0.699107991457941,-0.671584903514908,0.0,-0.0011222299538715,0.0,385675.679475338,6.4802E-12,1114.50939941406,2.81612439535756,6.62614095621353,-4.93870207837999
960.0,-5690666.34146295,-786066.82578251,3551391.62557178,-1923846.17716026,-5411865.40528879,3553096.63030725,4371.98117505732,-4443.49792595253,-4500.68554747955,2.48779182989607,6.99826758288694,-4.60801146473705,6764868.97942529,1.09332365015049,-7.321526766086E-4,-0.195289304633094,-9.722272836607E-4,-2.14762649395813,0.737209832819456,-0.597837598274167,0.0,-0.0011222299538715,0.0,381607.161411488,7.1219E-12,1121.88366699218,2.48779392273771,6.99826531867748,-4.60801383280451
1020.0,-5797764.14969347,-1114491.6278082,3273462.77516097,-1657252.13652387,-5665669.16957301,3274969.84432328,4511.07546229646,-4013.22108689011,-4766.67235875968,2.14667896364212,7.33888278790772,-4.25454074573178,6765689.51747352,1.0976989195633,-8.10046927555E-4,-0.194286077347007,-9.685984498287E-4,-2.09359792204773,0.772416288152413,-0.519015195786387,0.0,-0.0011222299538715,0.0,377592.139338877,7.8039E-12,1128.73071289062,2.14668132800169,7.338880542249,-4.2545434957561
1080.0,-5880794.79858489,-1436910.38078466,2980230.98465257,-1382933.42833122,-5893062.97033877,2981533.09352405,4629.35756437629,-3563.49958031208,-5010.8050235969,1.79431456893005,7.64612310934233,-3.87980381734855,6766487.86907653,1.10207418897612,-8.883649651033E-4,-0.193215948460735,-9.54829794384E-4,-2.03389701723063,0.804304056881615,-0.434869716206509,0.0,-0.0011222299538715,0.0,373659.914522751,8.5222E-12,1135.02661132812,1.79431721668423,7.6461209263332,-3.87980697632553
1140.0,-5939269.13899752,-1752027.93480406,2673043.8667271,-1102158.08007983,-6092941.26134199,2674134.93593358,4726.2004101346,-3096.38849134635,-5231.85639638598,1.43231270582319,7.91825966648536,-3.48545016277682,6767247.92600679,1.10644945838892,-9.663763170854E-4,-0.192080232030648,-9.307794872534E-4,-1.96849424162769,0.832421788233738,-0.345317113992192,0.0,-0.0011222299538715,0.0,369839.195289969,9.2706E-12,1140.75024414062,1.43231564433943,7.91825759679793,-3.4854537529886
1200.0,-5972801.06613111,-2058582.30242751,2353319.5838128,-816228.791196495,-6264324.82388075,2354194.51115129,4801.0761044679,-2614.04211952329,-5428.70219083852,1.06236387902636,8.15371690977594,-3.07325795954307,6767954.30832489,1.11082472780174,-0.0010433302735316,-0.190880577712631,-8.963648206489E-4,-1.89758805678913,0.856306046586346,-0.25050362837753,0.0,-0.0011222299538715,0.0,366157.769519669,1.00412E-11,1145.88305664062,1.06236711011767,8.15371500992503,-3.07326199693007
1260.0,-5981110.54589959,-2355350.09952941,2022540.45323994,-526476.849793833,-6406366.43400473,2023195.140985,4853.56026529338,-2118.70429815389,-5600.32850454856,0.68622647225367,8.35108849116155,-2.64512717887973,6768592.75627173,1.11519999721455,-0.0011184603069699,-0.189618963201841,-8.515636018064E-4,-1.82166724799812,0.875505368607232,-0.150867679179706,0.0,-0.0011222299538715,0.0,362642.182663045,1.08242E-11,1150.4072265625,0.686229991093974,8.35108682239144,-2.64513167126731
1320.0,-5964026.16157972,-2641151.86818754,1682246.1147211,-234255.805455825,-6518355.92095103,1682677.49219662,4883.33580586931,-1612.69779416116,-5745.83887172375,0.305716874536963,8.50915197112408,-2.20307079131854,6769150.4490038,1.11957526662736,-0.001190988802006,-0.188297684420309,-7.964172349358E-4,-1.74155126111546,0.889611704009741,-0.0471798027874982,0.0,-0.0011222299538715,0.0,359317.426252796,1.1608E-11,1154.30737304687,0.305720668825824,8.50915059774458,-2.2030757368596
1380.0,-5921487.14606733,-2914857.24393727,1334026.29171955,59065.0664953657,-6599724.56396542,1334232.33294828,4890.1960930679,-1098.41286960642,-5864.46073716872,-0.0773013965650025,8.62688201285712,-1.74920431284466,6769616.24932359,1.12395053604017,-0.0012601322013022,-0.18691934370345,-7.310352531628E-4,-1.65838850205418,0.898296012532704,0.0594594277737962,0.0,-0.0011222299538715,0.0,356206.642695867,1.23793E-11,1157.56958007812,-0.0772973472798035,8.62688100015837,-1.74920969858228
1440.0,-5853544.86989971,-3175389.92992267,979513.184232928,352107.470180735,-6650048.78006122,979492.920504736,4874.04743020422,-578.295101582805,-5955.55125975758,-0.460929290179107,8.70346189338709,-1.28573394984762,6769980.88485539,1.12832580545299,-0.0013251066459467,-0.185486836201917,-6.556007478982E-4,-1.57359797714454,0.901342140956093,0.167678126161423,0.0,-0.0011222299538715,0.0,353330.852676989,1.31235E-11,1160.18212890625,-0.460925014796744,8.70346130512052,-1.28573975070657
1500.0,-5760363.76014872,-3421732.44165298,620373.535572696,643490.922116303,-6669053.06128741,620127.062803336,4834.91082821481,-54.8325632785376,-6018.60236825109,-0.843244319769721,8.73829328526675,-0.814943563755213,6770237.0817655,1.13270107486579,-0.001385134139953,-0.184003334651849,-5.703759137036E-4,-1.48875463280144,0.898671663261739,0.275948106381817,0.0,-0.0011222299538715,0.0,350708.711579208,1.38251E-11,1162.13684082031,-0.843239855492825,8.73829318083927,-0.814949742075862
1560.0,-5642221.63011138,-3652930.5878107,258300.419987638,931839.668423485,-6656612.1262925,257828.900772423,4772.92303940721,469.457529915086,-6053.24500361748,-1.22231303063836,8.73100430536096,-0.339180610275207,6770379.66657199,1.1370763442786,-0.0014394492066326,-0.182472272599398,-4.75706823155E-4,-1.40543861087807,0.890353408722515,0.382735975570308,0.0,-0.0011222299538715,0.0,348356.300908946,1.44688E-11,1163.42846679687,-1.22230842240544,8.73100473691727,-0.339187115911214
1620.0,-5499509.40442605,-3868097.65452848,-104995.198312859,1215789.64143505,-6612752.25721802,-105689.538012269,4688.33683390025,992.042604513988,-6059.25248953619,-1.59620376754479,8.68145579524168,0.139158846218715,6770405.64602423,1.14145161369142,-0.0014873059405672,-0.180897326116568,-3.72026587765E-4,-1.32508325797081,0.876595084914154,0.486655472654361,0.0,-0.0011222299538715,0.0,346286.959841951,1.50393E-11,1164.05541992187,-1.59619906697492,8.68145680481636,0.139152075107401
1680.0,-5332730.22902986,-4066418.26260709,-467793.080848083,1493995.40974754,-6537651.79934497,-468706.960410668,4581.52050222279,1510.38883431295,-6036.54297816056,-1.96299969268242,8.58974572504668,0.61764595566256,6770314.26694606,1.14582688310422,-0.0015279853009619,-0.179282394030263,-2.598562412414E-4,-1.24885725461018,0.857719280693609,0.586585691997702,0.0,-0.0011222299538715,0.0,344511.160819119,1.55229E-11,1164.01879882812,-1.96299495653445,8.58974734201777,0.617638991069618
1740.0,-5142497.96050308,-4247151.8693248,-828372.448377732,1765137.07487748,-6431640.80769249,-829501.546614851,4452.95657108338,2021.9754494339,-5985.18092432406,-2.32081197871949,8.45621154618604,1.09383561851297,6770107.05027664,1.15020215251704,-0.0015608024517826,-0.177631576706813,-1.398029688597E-4,-1.17760232747199,0.834129955495541,0.681733734029328,0.0,-0.0011222299538715,0.0,343036.431782157,1.59075E-11,1163.32348632812,-2.32080726702566,8.45621378522612,1.09382854047443
1800.0,-4929535.03500515,-4409635.88894287,-1185020.77280091,2027927.06706566,-6295199.83215845,-1186359.74738716,4303.2397254124,2524.30912008017,-5905.37755087307,-2.66779304621695,8.28143029810574,1.56528353899422,6769787.78882444,1.15457742192984,-0.0015851139357219,-0.175949153483479,-1.25556519199E-5,-1.1118281516396,0.806276749419446,0.771640181183781,0.0,-0.0011222299538715,0.0,341867.32630768,1.61836E-11,1161.97717285156,-2.66778842007654,8.28143315784714,1.56527643283481
1860.0,-4694669.72319545,-4553288.40892342,-1536042.56617134,2281116.79263244,-6128957.84086302,-1537585.0783318,4133.07393948676,3014.93827536973,-5797.49028203068,-3.00214965404589,8.06621631972051,2.02956351912998,6769362.49781446,1.15895269134266,-0.0016003244763209,-0.17423955889928,1.211219607498E-4,-1.05175052705711,0.774623138813364,0.856141320707116,0.0,-0.0011222299538715,0.0,341005.441682749,1.63447E-11,1159.99011230468,-3.00214517334329,8.06621978223055,2.02955647241219
1920.0,-4438832.7840403,-4677610.48236096,-1879768.1047066,2523503.08582834,-5933689.28994968,-1881506.84904088,3943.26883274997,3491.46721149455,-5662.02114006677,-3.3221556125574,7.81161651811389,2.4842846639904,6768839.31100621,1.16332796075546,-0.0016058932337429,-0.172507357933086,2.603998590758E-4,-0.99735285011456,0.739621847306856,0.935308099546525,0.0,-0.0011222299538715,0.0,340449.483908054,1.63878E-11,1157.3759765625,-3.32215133367153,7.81162054928117,2.48427776323551
1980.0,-4163053.53688858,-4782187.98114494,-2214562.0259907,2753934.41948312,-5710310.35685027,-2216488.76527771,3734.7352800632,3951.56984442384,-5499.61412080435,-3.62616388547105,7.51890327526918,2.92710816142257,6768228.32148158,1.16770323016828,-0.0016013393879732,-0.170757220492097,4.04391381964E-4,-0.948453052767008,0.701698364090579,1.00937964568383,0.0,-0.0011222299538715,0.0,340195.377690428,1.63131E-11,1154.15063476562,-3.626159859202,7.51890782604613,2.92710148893096
2040.0,-3868455.37725907,-4866692.99877809,-2538831.73908591,2971316.83094749,-5459874.36249228,-2540937.34387882,3508.48031934654,4393.00297079654,-5311.05158259041,-3.91261787875167,7.1895651875481,3.35576334391326,6767541.37290364,1.17207849958109,-0.0015862469820111,-0.16899389540249,5.521630104351E-4,-0.904764262395764,0.661241692923357,1.07870311022514,0.0,-0.0011222299538715,0.0,340236.418642188,1.61246E-11,1150.33349609375,-3.91261414854067,7.18957019601102,3.35575697479914
2100.0,-3556250.76712252,-4930884.79631902,-2851035.58982871,3174619.5227322,-5183566.41570524,-2853310.0826163,3265.60141014622,4813.6189146679,-5097.2496986781,-4.18006176746562,6.82529590111991,3.76806281792893,6766791.81188621,1.1764537689939,-0.0015602690151795,-0.167222184138699,7.02743606137E-4,-0.865943656409776,0.618600671029578,1.14368536469901,0.0,-0.0011222299538715,0.0,340563.46407051,1.5829E-11,1145.94677734375,-4.18005836807883,6.82530129513519,3.7680568176567
2160.0,-3227735.7349342,-4974610.28938716,-3149690.72691342,3362880.10069626,-4882697.31993705,-3152123.33059366,3007.28010395961,5211.37745416263,-4859.25303327132,-4.42714976456806,6.42798131729664,4.16191653011723,6765994.21364425,1.18082903840671,-0.0015231308263526,-0.16544691449893,8.551325526391E-4,-0.831628470604723,0.574084102476179,1.20475760412149,0.0,-0.0011222299538715,0.0,341165.15789282,1.5436E-11,1141.017578125,-4.42714672127681,6.42798701761817,4.16191095262644
2220.0,-2884283.9243113,-4997804.07840674,-3433380.61817315,3535209.41643491,-4558696.78826691,-3435959.80855737,2734.7751917671,5584.35693768027,-4598.22830733712,-4.65265426977446,5.99968540821931,4.53534470024809,6765164.09114228,1.18520430781953,-0.0014746328397309,-0.163672914405969,0.0010083065219108,-0.801460593525595,0.527963218794058,1.26235143450256,0.0,-0.0011222299538715,0.0,342028.18437295,1.49574E-11,1135.57543945312,-4.65265159806244,5.99969133178251,4.53533958676504
2280.0,-2527340.2332022,-5000488.02824984,-3700762.17053872,3690795.98454683,-4213106.01772261,-3703475.73257953,2449.4153975369,5930.76451226967,-4315.45742364717,-4.85547284565758,5.54263483551993,4.8864895721259,6764317.59362542,1.18957957723233,-0.0014146527597356,-0.161904985996348,0.0011612248742715,-0.77510212922491,0.480475363499954,1.31688407491214,0.0,-0.0011222299538715,0.0,343137.544619706,1.44067E-11,1129.65649414062,-4.8554705514299,5.54264089871322,4.88648495067884
2340.0,-2158414.08780541,-4982770.40722662,-3950572.41141244,3828909.94968554,-3847569.67822527,-3953407.49882729,2152.59168986863,6248.94539734218,-4012.32982376019,-5.03463395878893,5.05920253686195,5.21362591793096,6763471.19568096,1.19395484664514,-0.0013431472959015,-0.160147880163103,0.0013128339580652,-0.752244364731135,0.431828159555624,1.3687502521661,0.0,-0.0011222299538715,0.0,344476.849224595,1.3798E-11,1123.30102539062,-5.03463203903906,5.05920865853158,5.21362180356563
2400.0,-1779072.39744466,-4944844.59905118,-4181634.69368954,3948906.58274834,-3463827.37519716,-4184577.89163312,1845.74928800824,6537.39114698327,-3690.33425448799,-5.18930141423781,4.55189045955579,5.51517019906164,6762641.37499365,1.19833011605796,-0.0012601534767766,-0.158406271735237,0.0014620707624568,-0.732612222169474,0.382203705602169,1.41831872472848,0.0,-0.0011222299538715,0.0,346028.620149577,1.3146E-11,1116.55541992187,-5.18929985806397,4.55189656361552,5.51516659463675
2460.0,-1390932.23803031,-4886987.40501535,-4392864.39149755,4050229.29025766,-3063704.64792103,-4395901.78192186,1530.37944259887,6794.74685640232,-3351.05002794721,-5.31877742224346,4.02331167705987,5.78968826629182,6761844.27725387,1.20270538547076,-0.0011657895797533,-0.156684735500502,0.0016078664683853,-0.715965803182037,0.33176255095065,1.46593184720341,0.0,-0.0011222299538715,0.0,347774.595065421,1.24648E-11,1109.47143554687,-5.31877621212098,4.02331769455848,5.78968516375925
2520.0,-995653.312461525,-4809556.95704927,-4583274.05897616,4132412.12590069,-2649103.56793842,-4586391.28830557,1208.01107406676,7019.81728444999,-2996.13786603219,-5.42250427961187,3.47617219900405,6.0359014996431,6761095.37059545,1.20708065488357,-0.0010602556685134,-0.1549877232923,0.0017491504307312,-0.702100190358193,0.280647333880532,1.51190703253133,0.0,-0.0011222299538715,0.0,349696.027783557,1.17679E-11,1102.10717773437,-5.42250339279168,3.47617806968528,6.03589888162397
2580.0,-594930.236161849,-4712990.26542996,-4751978.03001126,4195081.79815699,-2221993.00285943,-4755160.378753,880.202350461408,7211.5718846535,-2627.33042441159,-5.50006472353991,2.91325284178765,6.25269135285981,6760409.09844781,1.21145592429638,-9.438336982316E-4,-0.153319542353847,0.0018848550204237,-0.69084431084653,0.228986050926655,1.55653933164889,0.0,-0.0011222299538715,0.0,351773.97913263,1.10675E-11,1094.52526855468,-5.50006413351089,2.91325851494951,6.25268919447555
2640.0,-190484.694788716,-4597800.4273464,-4898196.44254738,4237959.17269583,-1784398.61073853,-4901428.89645428,548.532280424677,7369.14875960282,-2246.42259034868,-5.55118110526969,2.33739152730873,6.43910236837057,6759798.54666971,1.2158311937092,-8.168871266538E-4,-0.151684335154989,0.002013921583855,-0.682059398477136,0.176894972960838,1.60010462255088,0.0,-0.0011222299538715,0.0,353989.593470314,1.03745E-11,1086.79260253906,-5.55118078315452,2.33739696215733,6.4391006391015
2700.0,215942.480900745,-4464573.52409331,-5021258.67657257,4260860.27245065,-1338392.62865131,-5024525.99897457,214.59238569167,7491.85757380641,-1855.26164142555,-5.57571360724367,1.7514663060825,6.5943438356456,6759275.14573453,1.220206463122,-6.798599601845E-4,-0.150086060772299,0.0021353075733751,-0.67563740033474,0.124481249655679,1.64286309449948,0.0,-0.0011222299538715,0.0,356324.356828615,9.6978E-12,1078.97778320312,-5.5757135230739,1.75147147158643,6.59434250113968
2760.0,622599.280721702,-4313965.23522379,-5120606.19972651,4263696.78170986,-886083.516540162,-5123893.00465037,-120.021497230225,7579.1814740792,-1455.73733930552,-5.57365776335046,1.15837926513547,6.71779034364765,6758848.4294272,1.22458173253482,-5.332751691418E-4,-0.148528477862154,0.0022479947025257,-0.671499544171333,0.071845256264904,1.685062845903,0.0,-0.0011222299538715,0.0,358760.333331234,9.0449E-12,1071.14819335937,-5.57365788716603,1.15838413937234,6.71778936740548
2820.0,1027730.48181018,-4146697.1976174,-5195794.81845693,4246476.06307872,-429605.514262078,-5199085.6441579,-453.717251798864,7630.7780712468,-1049.77201672747,-5.54514152080157,0.561041316677308,6.80898149669043,6758525.86698798,1.22895700194763,-3.777324239378E-4,-0.147015129178336,0.0023509978156393,-0.669595197593209,0.0190827414763303,1.72694350238925,0.0,-0.0011222299538715,0.0,361280.376928349,8.4213E-12,1063.36657714843,-5.54514182353306,0.561045885969418,6.80898084149795
2880.0,1429585.57952648,-3963553.13638487,-5246496.33567442,4209300.6978404,28891.833355863,-5249775.71820998,-784.914330463854,7646.47953221763,-639.310700958427,-5.49042200651821,-0.0376422782134693,6.8676210122348,6758312.77644757,1.23333227136044,-2.139051312083E-4,-0.145549327530014,0.002443374055534,-0.669901094832215,-0.033713163863893,1.76873981779802,0.0,-0.0011222299538715,0.0,363868.315682022,7.8308E-12,1055.68774414062,-5.49042246065123,-0.0376380203967293,6.86762064134803
2940.0,1826426.64747769,-3765374.79323533,-5272499.61811217,4152367.56134048,487254.131271101,-5275752.16459494,-1112.05140245579,7626.29182005511,-226.31130676924,-5.40988205231821,-0.634785871306148,6.89357531405769,6758212.31508444,1.23770754077325,-4.25367805262E-5,-0.144134143057584,0.0025242318754616,-0.672420971457541,-0.0864500178187685,1.81068525456712,0.0,-0.0011222299538715,0.0,366509.10590808,7.2758E-12,1048.15625,-5.40988263233714,-0.634781925583192,6.89357519211296
3000.0,2216536.09274537,-3553057.67679305,-5273711.07845148,4075966.44592129,943332.51846625,-5276921.53962618,-1433.59378474922,7570.39310655613,187.265071048471,-5.30402642588305,-1.22753707555332,6.88687160936533,6758225.53147703,1.24208281018606,1.355633556021E-4,-0.142772391728953,0.0025927394718057,-0.67718562344084,-0.139034159546674,1.85301555739303,0.0,-0.0011222299538715,0.0,369188.953593966,6.7572E-12,1040.80395507812,-5.30402710852444,-1.22753343780623,6.88687170301054
3060.0,2598224.27293881,-3327546.6586661,-5250154.57916078,3980478.24501206,1394993.93251255,-5253307.92095896,-1748.04063505647,7479.13137259039,599.463731676951,-5.17347764404869,-1.8130901950084,6.8476953378336,6758351.45563034,1.24645807959887,3.195250981876E-4,-0.141466625020186,0.0026481322988776,-0.684253388028578,-0.191368764155284,1.89597233842267,0.0,-0.0011222299538715,0.0,371895.400827113,6.2749E-12,1033.65148925781,-5.17347840839334,-1.81308685749904,6.84769561612091
3120.0,2969836.94205893,-3089831.43893325,-5201970.767269,3866372.71348831,1840131.20612652,-5205052.24100507,-2053.93187767683,7353.02121029061,1008.34576655632,-5.01897123522327,-2.38869937648229,6.7763868410661,6758587.20146188,1.25083334901168,5.084227245509E-4,-0.140219120825019,0.0026897194479038,-0.693711024129228,-0.243351801392977,1.93980668443211,0.0,-0.0011222299538715,0.0,374617.375608419,5.828E-12,1026.71142578125,-5.01897206268325,-2.38869632877091,6.77638727565166
3180.0,3329762.49284703,-2840941.90497909,-5129415.85208627,3734205.82138009,2276672.94843739,-5132411.06296986,-2349.85482637979,7192.73984940309,1411.99723139212,-4.84135037247147,-2.95169127471105,6.67343713867837,6758928.06033344,1.2552086184245,7.01280717006E-4,-0.139031875713812,0.00271688880814,-0.705674943496438,-0.294873838650803,1.98478277495617,0.0,-0.0011222299538715,0.0,377345.204420771,5.415E-12,1019.98962402343,-4.84135124668639,-2.95168850447972,6.67343770387305
3240.0,3676438.96472369,-2581943.40794871,-5032859.84106862,3584616.72024313,2702593.16545974,-5035754.81472175,-2634.45046665379,6999.12244558212,1808.53803735145,-4.64155989916011,-3.49947693803826,6.53948280120976,6759367.57441708,1.2595838878373,8.97079796238E-4,-0.137906598709602,0.0027291110553771,-0.720292703993062,-0.345815628539182,2.03118146110102,0.0,-0.0011222299538715,0.0,380070.588210518,5.0342E-12,1013.48974609375,-4.64156080586709,-3.49947443168502,6.53948347393919
3300.0,4008360.78877236,-2313931.98111771,-4912784.25223108,3418324.34366078,3115920.57706937,-4915565.49891348,-2906.41936435521,6773.15668614603,2196.13051034194,-4.42063988054716,-4.02956263392796,6.3753000453888,6759897.5919103,1.26395915725012,0.0010947631466745,-0.136844706749934,0.002725942616798,-0.737744613882377,-0.396045423113276,2.07930369084634,0.0,-0.0011222299538715,0.0,382786.543862528,4.6837E-12,1007.21502685546,-4.42064080741527,-4.02956037707893,6.37530080508437
3360.0,4324085.2443372,-2038029.52386419,-4769779.32427526,3236123.66502452,3514747.59156115,-4772433.90053796,-3164.52717851013,6515.97678269835,2572.98757857138,-4.17971889740095,-4.53955944710736,6.18179829626952,6760508.31905075,1.26833442666293,0.0012932427558382,-0.135847321952389,0.0027070278284305,-0.758245199936312,-0.445415963275197,2.12947356768597,0.0,-0.0011222299538715,0.0,385487.314595755,4.3613E-12,1001.17077636718,-4.17971983386004,-4.53955742500596,6.18179912472257
3420.0,4622238.60525521,-1755378.9735664,-4604540.74749812,3038881.63666374,3897238.90323183,-4607056.31500262,-3407.60977004196,6228.85692485236,2937.38056541272,-3.92000732142168,-5.02719166346044,5.96001351977279,6761188.39302997,1.27270969607574,0.001491405808394,-0.134915270706822,0.0026721005276288,-0.782044147514345,-0.493761107247554,2.18204068150397,0.0,-0.0011222299538715,0.0,388168.253767445,4.0652E-12,995.364379882812,-3.92000825849502,-5.02718986126223,5.96001440097162
3480.0,4901521.95693547,-1467139.48574554,-4417865.93938242,2827532.83447393,4261639.68274414,-4420230.82064066,-3634.57791152149,5913.20426266244,3287.64658247572,-3.64279076530325,-5.49030414405633,5.71110160311697,6761925.00270958,1.27708496548855,0.0016881210949745,-0.134049084497975,0.0026209853090291,-0.809426110334292,-0.540892092945718,2.23738113673298,0.0,-0.0011222299538715,0.0,390825.68718967,3.7934E-12,989.805541992187,-3.64279169544641,-5.49030254705695,5.71110252307678
3540.0,5160716.66786782,-1174481.64047293,-4210649.88863043,2603074.83159666,4606283.33362057,-4212853.1194379,-3844.4216116673,5570.55146852381,3622.19553154078,-3.34942379474896,-5.92686903292285,5.43633195215856,6762704.07950294,1.28146023490137,0.0018822454131814,-0.133249002245839,0.0025535986254208,-0.840708494418021,-0.586593485463494,2.29589640632104,0.0,-0.0011222299538715,0.0,393456.759168172,3.5441E-12,984.505615234375,-3.34942471168709,-5.92686762674957,5.43633289874038
3600.0,5398689.50034691,-878582.690918891,-3983880.59067164,2366563.32380188,4929598.79060213,-3985911.96902267,-4036.21406961966,5202.54890692104,3939.51672947314,-3.04132385704246,-6.33499218198074,5.13708131357877,6763510.56977423,1.28583550431417,0.002072629951452,-0.132514973864496,0.0024699498440967,-0.876235935951565,-0.630618956489047,2.35800875226262,0.0,-0.0011222299538715,0.0,396059.267116849,3.3156E-12,979.477111816406,-3.04132475562333,-6.33499095272649,5.13708227631679
3660.0,5614397.34522629,-580621.868365919,-3738634.09691596,2119107.02847992,5230117.3366489,-3740484.22820667,-4209.11526754731,4810.95641913427,4238.18516562819,-2.71996526179745,-6.7129195999184,4.81482766391773,6764328.78511241,1.29021077372699,0.0022581266538248,-0.131846664704601,0.0023701422870299,-0.91636973339259,-0.672687194541345,2.42415149132674,0.0,-0.0011222299538715,0.0,398631.488924494,3.1062E-12,974.732666015625,-2.71996613785424,-6.7129185342419,4.81482863385209
3720.0,5806891.56472189,-281775.757319601,-3476069.19982117,1861862.37898315,5506478.91532549,-3477729.53816131,-4362.37519790597,4397.63471642037,4516.86738781943,-2.38687298111511,-7.05904405848319,4.47114388677829,6765142.81136482,1.29458604313979,0.0024375945653345,-0.131243460568843,0.0022543742018929,-0.961470034188873,-0.712478471151598,2.49475192225355,0.0,-0.0011222299538715,0.0,401172.006462674,2.9144E-12,970.284423828125,-2.38687383133918,-7.05904314368105,4.47114485629504
3780.0,5975321.9262759,16786.2454419473,-3197421.7766167,1596028.03670693,5757437.91481543,-3198884.66208823,-4495.33670743556,3964.53637371887,4774.32699458241,-2.0436160402089,-7.37191176901023,4.10769092119731,6765936.94499378,1.29896131255261,0.0026099061536804,-0.130704473069176,0.0021229395414348,-1.01186829656372,-0.749632697977098,2.5702044487044,0.0,-0.0011222299538715,0.0,403679.527940486,2.7388E-12,966.143432617187,-2.04361686202608,-7.37191099307183,4.10769188386929
3840.0,6118940.10997746,313906.373173521,-2903998.81641107,1322839.24475008,5981868.39961691,-2905257.5081291,-4607.4379281886,3513.69642752256,5009.4296936769,-1.6918003449734,-7.65022883815267,3.7262101203947,6766696.11900218,1.30333658196542,0.0027739535943629,-0.13022854521148,0.0019762283804859,-1.06782779220831,-0.78375018644062,2.65083167584883,0.0,-0.0011222299538715,0.0,406152.711408758,2.5781E-12,962.318237304687,-1.69180113644784,-7.65022818977665,3.72621107085158
3900.0,6237102.7726069,608442.817000241,-2597172.15821105,1043562.04898454,6178768.76680752,-2598220.86306179,-4698.21426025927,3047.22260336751,5221.14787485916,-1.33306091808877,-7.89286708309778,3.32851469515439,6767406.28179107,1.30771185137822,0.0029286549960866,-0.129814257221823,0.0018147267781689,-1.12949122332746,-0.814396691485545,2.73683256455925,0.0,-0.0011222299538715,0.0,408589.991686057,2.4311E-12,958.816162109375,-1.33306167782229,-7.89286655170885,3.32851562894652
3960.0,6329274.15333581,899273.922602942,-2278371.97062023,759487.414450791,6347265.80607614,-2279205.86757181,-4767.29987335649,2567.28522470309,5408.56464257705,-0.969053653397212,-8.09886876886411,2.91648029091478,6768054.70051044,1.31208712079104,0.0030729605316562,-0.129459932740806,0.0016390159007545,-1.19681752736282,-0.841114518153484,2.82821972578023,0.0,-0.0011222299538715,0.0,410989.413303875,2.2967E-12,955.640319824218,-0.969054380446363,-8.09886834460893,2.91648120439679
4020.0,6395028.20942818,1185302.23887754,-1949080.0070519,471925.266695993,6486618.14657091,-1949695.26695599,-4814.42870453894,2076.1068788079,5570.87726232815,-0.601446810635234,-8.2674499254647,2.49203491342265,6768630.17378248,1.31646239020385,0.0032058584302015,-0.129163645585155,0.0014497702563603,-1.2695149896271,-0.863441217719271,2.92475298348048,0.0,-0.0011222299538715,0.0,413348.472639879,2.1738E-12,952.791748046875,-0.601447504435645,-8.26744959919963,2.49203580364514
4080.0,6434050.27455839,1465458.40241686,-1610822.67260137,182198.488589032,6596219.07867214,-1611216.47342722,-4839.43494476557,1575.95193090429,5707.3999910169,-0.231912528616215,-8.39800208076041,2.05714852932319,6769123.15403688,1.32083765961666,0.0033263807804378,-0.128923227294742,0.0012477549510884,-1.34698423950715,-0.880936370299948,3.02588278913896,0.0,-0.0011222299538715,0.0,415663.973047254,2.0615E-12,950.267944335937,-0.231913188920474,-8.39800184402945,2.05714939394106
4140.0,6446138.23697482,1738704.84329903,-1265163.93988376,-108363.096915387,6675598.74443785,-1265334.4773495,-4842.25302356358,1069.11598123674,5817.56628257364,0.137881377680636,-8.49009245275824,1.61382269827249,6769525.79366766,1.32521292902947,0.0034336090925634,-0.128736275648377,0.0010338219500905,-1.42829014418226,-0.893214956947428,3.13072250829178,0.0,-0.0011222299538715,0.0,417931.897286314,1.959E-12,948.062561035156,0.137880750862312,-8.49009229776888,1.61382353545655
4200.0,6431203.23904158,2004039.29997947,-913698.151046929,-398428.728591332,6724425.69596159,-913644.644636113,-4822.91711509502,557.915351594236,5900.93038026262,0.50627914404649,-8.54346282455372,1.16408053930587,6769831.9388497,1.32958819844229,0.0035266795700118,-0.128600164253918,8.089054057368E-4,-1.51218186627836,-0.899983141597915,-3.04511645560206,0.0,-0.0011222299538715,0.0,420147.30174786,1.8655E-12,946.165649414062,0.506278550495803,-8.54346274414744,1.16408134766688
4260.0,6389269.90316507,2260498.13368847,-558042.742002706,-686672.66554293,6742507.825593,-557765.436375599,-4781.56019725899,44.6766707801735,5957.16832201394,0.871644224730953,-8.55802742934122,0.709957218080859,6770037.09833186,1.33396346785509,0.0036047880500412,-0.128512053217898,5.740161882076E-4,-1.59717155966513,-0.901069880622778,-2.9367043771032,0.0,-0.0011222299538715,0.0,422304.236712746,1.7803E-12,944.563415527343,0.871643664065476,-8.55802741696208,0.709957996600824
4320.0,6320476.09150269,2507159.43522146,-199830.92308801,-971780.07678014,6729792.67553302,-199331.084917859,-4718.41269707205,-468.273391823999,5986.07839211188,1.23236592799925,-8.53387018030181,0.253491001177771,6770138.4115475,1.33833873726791,0.0036671945842192,-0.128468900801615,3.30235811133E-4,-1.68166464249025,-0.896447079823579,-2.82877442785698,0.0,-0.0011222299538715,0.0,424395.696197825,1.7027E-12,943.238037109375,1.23236539971161,-8.53387022996342,0.253491749147557
4380.0,6225072.20821717,2743145.91903317,159295.651634639,-1252452.83784797,6686367.13670003,160015.741351411,-4633.80075132687,-978.618213483876,5987.58105148156,1.5868656266239,-8.47124149891153,-0.203285198813432,6770134.63216493,1.34271400668071,0.0037132276441328,-0.128467475896903,7.87099781565E-5,-1.76411526569327,-0.886233030467078,-2.72282563184966,0.0,-0.0011222299538715,0.0,426413.599869655,1.6323E-12,942.173522949218,1.58686513009637,-8.47124160516686,-0.203284481821592
4440.0,6103420.05370105,2967627.60094475,517694.195972397,-1527415.21210985,6612456.54824854,518631.254065071,-4528.14410395723,-1484.06110630048,5961.71837180034,1.9336026792366,-8.37055485919277,-0.65835193446452,6770026.13208454,1.34708927609353,0.0037422879530824,-0.128504371120512,-1.793580191277E-4,-1.84317013069428,-0.870678181065416,-2.62016400583172,0.0,-0.0011222299538715,0.0,428348.808205433,1.5687E-12,941.365783691406,1.93360221374123,-8.37055501711894,-0.658351248600813
4500.0,5955991.24061272,3179824.25659072,873728.054863775,-1795419.39533447,6508423.2101905,874877.812511266,-4401.95365390192,-1982.33498920764,5908.65298938451,2.27108017274268,-8.23238302238413,-1.10971114180712,6769814.91977995,1.35146454550634,0.0037538519582075,-0.128576016336569,-4.427138467919E-4,-1.91776872478977,-0.850137066293689,-2.52180196824282,0.0,-0.0011222299538715,0.0,430191.170736633,1.5116E-12,940.809936523437,2.27107973747161,-8.23238322757162,-1.10971048698904
4560.0,5783365.18218297,3379007.65816118,1225773.89078874,-2055250.90290032,6374764.32271326,1227131.11431788,-4255.82866250045,-2471.21182168354,5828.66658719777,2.59785052923247,-8.05745383260121,-1.55539395985677,6769504.6584372,1.35583981491915,0.0037474749686138,-0.128678692465555,-7.100584636433E-4,-1.98718521862234,-0.825033244481277,-2.4284160742506,0.0,-0.0011222299538715,0.0,431929.605997348,1.4607E-12,940.495971679687,2.59785012333276,-8.05745408113957,-1.55539333582111
4620.0,5586226.66436134,3564503.58734558,1572228.76519287,-2305733.77944467,6212109.36738111,1573787.28103408,-4090.45362932183,-2948.51176790605,5722.1579103757,2.91252093816495,-7.84664541007307,-1.99346845229988,6769100.66547096,1.36021508433196,0.0037227939918918,-0.128808545511026,-9.800541619287E-4,-2.05101663836418,-0.795824367404237,-2.34035845880441,0.0,-0.0011222299538715,0.0,433552.210859691,1.4158E-12,940.410827636718,2.9125205607722,-7.84664569853219,-1.99346785865404
4680.0,5365363.01502593,3735693.6229346,1911517.0871721,-2545735.61143479,6021216.94756099,1913269.81083963,-3906.59484989396,-3412.11205119441,5589.64032353062,3.21375850528592,-7.60098062105147,-2.42204713746992,6768609.87634579,1.36459035374478,0.0036795303026907,-0.128961600812157,-0.0012513303082128,-2.1091344223312,-0.762972581344731,-2.25770487214837,0.0,-0.0011222299538715,0.0,435046.396333018,1.3767E-12,940.53564453125,3.21375815555685,-7.60098094645747,-2.42204657374304
4740.0,5121660.88550237,3892016.70247195,2242097.40237333,-2774172.32416789,5802971.10798766,2244036.37132204,-3705.09667652307,-3859.95545413359,5431.7389258699,3.50029497686363,-7.32162080415375,-2.83929416886818,6768040.76151664,1.36896562315758,0.0036174917735437,-0.129133777591061,-0.0015224888545057,-2.16161933430517,-0.726922731008411,-2.1803193291666,0.0,-0.0011222299538715,0.0,436399.046624041,1.3431E-12,940.844604492187,3.50029465400802,-7.32162116395724,-2.8392936345633
4800.0,4856102.66167013,4032970.45870127,2562468.996327,-2990012.74623182,5558377.15602237,2564585.40652361,-3486.87751169273,-4290.05842223801,5249.18725027167,3.77093091182159,-7.00985885546126,-3.24343199648225,6767403.19394581,1.37334089257039,0.0035365749890351,-0.129320903895285,-0.0017921097511291,-2.2086956925759,-0.68808851441121,-2.10791940654479,0.0,-0.0011222299538715,0.0,437596.698216447,1.3148E-12,941.307556152343,3.77093061512473,-7.00985924750709,-3.24343149111466
4860.0,4569762.52359117,4158112.33318961,2871178.28828199,-3192282.92642854,5288557.00943631,2873462.53431617,-3252.9255696747,-4700.51873841862,5042.82358160659,4.02453923013158,-6.6671118771137,-3.63274738210097,6766708.27362508,1.37771616198321,0.0034367671523633,-0.129518732030625,-0.0020587564317751,-2.25067440710655,-0.646845345354888,-2.0401326875261,0.0,-0.0011222299538715,0.0,438625.735807676,1.2922E-12,941.977661132812,4.02453895885202,-6.66711229979934,-3.63274690501877
4920.0,4263802.17357756,4267060.47118511,3166824.99391278,-3380070.19038415,4994744.0971066,3169266.71246222,-3004.29444398862,-5089.52274961072,4813.58693489567,4.2600681441052,-6.29491364350176,-4.00559672322177,6765968.1225085,1.38209143139601,0.0033181477788917,-0.129722954541908,-0.0023209815516741,-2.28790857763048,-0.603528169642317,-1.97654059263944,0.0,-0.0011222299538715,0.0,439472.60200698,1.2758E-12,942.916259765625,4.26006789752223,-6.29491409582421,-4.00559627366117
4980.0,3939466.25280063,4359494.40321946,3448068.03772652,-3552526.92626736,4678277.83967604,3450656.15418132,-2742.0985155652,-5455.35214188173,4562.51273375332,4.47654355614339,-5.89490711797637,-4.36041073511247,6765195.6663743,1.38646670080883,0.0031808901564213,-0.129929220741538,-0.0025773331416553,-2.32076163506883,-0.558432545550629,-1.91670960400008,0.0,-0.0011222299538715,0.0,440124.017650437,1.2661E-12,944.17333984375,4.47654333363017,-5.89490759953374,-4.36041031229957
5040.0,3598077.46604896,4435155.51997171,3713631.19828518,-3708874.09094394,4340597.73706954,3716353.9763286,-2467.50822980406,-5796.3902721314,4290.72822421846,4.67307105516129,-5.4688371722181,-4.69569861362409,6764404.41857058,1.39084197022164,0.0030252625392831,-0.130133153724254,-0.0028263612977383,-2.34958612931968,-0.51181762903804,-1.86021176869508,0.0,-0.0011222299538715,0.0,440567.209378073,1.2635E-12,945.794494628906,4.6730708562424,-5.46883768322334,-4.69569821685194
5100.0,3241031.43335868,4493847.34738707,3962308.47121657,-3848404.42933804,3983237.08906685,3965153.56515292,-2181.74526234872,-6111.12807029502,3999.44765057444,4.84883765103775,-5.01854354710498,-5.01005183114558,6763608.27502594,1.39521723963445,0.0028516290333971,-0.130330367760665,-0.0030666254640392,-2.37471069016368,-0.463910091153073,-1.80663694139115,0.0,-0.0011222299538715,0.0,440790.140772544,1.2685E-12,947.8232421875,4.84883747545005,-5.01854408838736,-5.01005145985896
5160.0,2869791.28632918,4535435.6290514,4192969.13631534,-3970485.40072429,3607816.3742928,4195923.64592981,-1886.0775859149,-6398.1695249678,3689.96721104577,5.00311335085878,-4.54595398766043,-5.30214769514401,6762821.32180382,1.39959250904726,0.0026604501241636,-0.13051648594403,-0.0032967022970133,-2.39643281959766,-0.414908334594537,-1.75559909277097,0.0,-0.0011222299538715,0.0,440781.742955851,1.2818E-12,950.302978515625,5.00311319860357,-4.54595456069414,-5.30214734900553
5220.0,2485882.02633159,4559848.22254838,4404562.51590919,-4074561.80626465,3216036.31237922,4407613.04363892,-1581.81444613022,-6656.23675917918,3363.65980532467,5.13525261610748,-4.05307742321546,-5.57075273214221,6762057.64819114,1.40396777846008,0.0024522827984216,-0.130687157981482,-0.0035151940300612,-2.41501559444177,-0.364986634163322,-1.70673858759945,0.0,-0.0011222299538715,0.0,440532.140210845,1.3041E-12,953.278442382812,5.13525248751228,-4.05307803014311,-5.57075241111314
5280.0,2090884.66167619,4567074.81620979,4596122.4123198,-4160158.11255349,2809670.63388793,4599255.12251081,-1270.30125411491,-6884.17469511795,3021.96958463336,5.24469567078706,-3.54199706920126,-5.81472587545505,6761331.15229862,1.40834304787288,0.0022277802155568,-0.130838078067813,-0.0037207372011409,-2.4306868309274,-0.314299004181825,-1.65972186076589,0.0,-0.0011222299538715,0.0,440032.86606216,1.3364E-12,956.796508789062,5.24469556657223,-3.54199771287671,-5.81472557987831
5340.0,1686430.14106523,4557166.47253341,4766771.21297559,-4226880.46648508,2390558.58284454,4769971.89299516,-952.914406920487,-7080.9553010617,2666.40631858702,5.33096958327286,-3.0148633990394,-6.03302136499792,6760655.3243592,1.4127183172857,0.0019876908901495,-0.13096500284472,-0.0039120115655059,-2.44363968028499,-0.262982710843784,-1.614239499424,0.0,-0.0011222299538715,0.0,439277.065415734,1.3798E-12,960.904846191406,5.33096950463333,-3.01486408306081,-6.03302109570444
5400.0,1274193.10105647,4530235.00468604,4915723.65277689,-4274418.39757491,1960597.17716562,4918977.77574733,-631.056051960121,-7245.68141397749,2298.53959966223,5.39368903999876,-2.47388704864099,-6.22469124211437,6760042.99629495,1.41709358669851,0.0017328573585303,-0.131063769511749,-0.0040877489978236,-2.45403395220123,-0.21116141690402,-1.57000340830569,0.0,-0.0011222299538715,0.0,438259.678852922,1.4356E-12,965.651489257812,5.39368898869778,-2.4738877773962,-6.2246910005433
5460.0,855885.445416914,4486452.19288071,5042290.22476065,-4302546.20496063,1521733.25246873,5045583.01367714,-306.148815380562,-7377.59013857408,1919.99291235288,5.43255677357475,-1.92133183107734,-6.38888735781209,6759506.05430651,1.42146885611132,0.0014642143120523,-0.131130314196993,-0.0042467421900521,-2.46199770309835,-0.158947985353253,-1.52674349181483,0.0,-0.0011222299538715,0.0,436977.605957619,1.5055E-12,971.081420898437,5.43255675205587,-1.92133260977966,-6.38888714615862
5520.0,433249.773790144,4426048.84781931,5145880.23183441,-4311124.02752823,1075955.3143376,5149196.72482743,20.3694857990525,-7476.05583666702,1532.43759644612,5.44736369172744,-1.35950810885915,-6.52486290580698,6759055.12259817,1.42584412552413,0.0011827861900887,-0.131160690698833,-0.0043878529708715,-2.4676287936914,-0.106446989062102,-1.48420411561211,0.0,-0.0011222299538715,0.0,435429.845510576,1.5914E-12,977.22998046875,5.44736370324484,-1.3595089435563,-6.52486272720198
5580.0,8052.6758407187,4349313.72851913,5226004.47402028,-4300098.59665536,625285.222829054,5229329.59052184,347.051133694965,-7540.59273570673,1137.58672944863,5.43798885178916,-0.790766760725849,-6.63197361845266,6758699.23826199,1.43021939493695,8.896842341092E-4,-0.131151089666422,-0.0045100201033969,-2.47099623295151,-0.0537569826038549,-1.44214049466963,0.0,-0.0011222299538715,0.0,433617.611337498,1.6952E-12,984.1162109375,5.43798890055326,-0.790767658268449,-6.63197347717296
5640.0,-417922.094944525,4256592.32139931,5282277.56682573,-4269503.67159533,171769.730900556,5285596.17439784,672.443798891785,-7570.85719687918,737.188941113796,5.40439950571895,-0.217493876308103,-6.70967888584715,6758445.54685663,1.43459466434975,5.861030108315E-4,-0.131097858198869,-0.0046122664540285,-2.47214119926727,-9.725956557437E-4,-1.40031507895489,0.0,-0.0011222299538715,0.0,431544.423367181,1.8194E-12,991.733337402343,5.40439959705008,-0.217494844244791,-6.70967878755404
5700.0,-842880.55595787,4148285.48629417,5314419.88661107,-4219460.15726195,-282528.104129067,5317716.86819391,995.095841028011,-7566.6496860791,333.022154791338,5.34665147208037,0.357893868238307,-6.75754313461505,6758299.0526728,1.43896993376255,2.733164163003E-4,-0.130997519725263,-0.0046937054605912,-2.47107767691602,0.0518134922937148,-1.35849396028508,0.0,-0.0011222299538715,0.0,429216.173885041,1.9663E-12,1000.04095458984,5.34665161255931,0.357892821844202,-6.75754308660661
5760.0,-1265025.52891298,4024847.97307226,5322259.13789014,-4150175.90300891,-735537.619359444,5325519.45922572,1313.56164721522,-7527.91648185064,-73.1127702516627,5.26489005506413,0.932953414641155,-6.77523780087461,6758262.45543728,1.44334520317537,-4.73268246648E-5,-0.130846793902089,-0.004753546858572,-2.46779267664367,0.104508636843161,-1.31644329628623,0.0,-0.0011222299538715,0.0,426641.168973286,2.1384E-12,1008.96215820312,5.26489025266249,0.932952281510059,-6.77523781233653
5820.0,-1682563.76339255,3886786.80998863,5305731.5353903,-4061945.17905941,-1185189.34005633,5308940.31237414,1626.40704525354,-7454.75113275099,-479.398539139148,5.15935162625606,1.50521955816892,-6.76254413983959,6758336.09605643,1.44772047258818,-3.744081481268E-4,-0.130642616158497,-0.0047911016488118,-2.46224603070658,0.157018314652895,-1.27392573469995,0.0,-0.0011222299538715,0.0,423830.144723869,2.3379E-12,1018.38549804687,5.15935189043812,1.50521833016805,-6.76254422207103
5880.0,-2093713.14144812,3734659.56218509,5264882.59074016,-3955147.82490321,-1629423.85294906,5268025.15644866,1932.21483113927,-7347.39564572886,-884.008117723497,5.03036583253494,2.07220977465241,-6.71935694600093,6758518.01934693,1.45209574200099,-7.064446135123E-4,-0.130382156457862,-0.0048057863095679,-2.45436977131974,0.209244151977206,-1.23069682105811,0.0,-0.0011222299538715,0.0,420796.257111706,2.5674E-12,1028.17578125,5.03036617431624,2.07220844425021,-6.71935711260113
5940.0,-2496709.9519302,3569072.45638702,5199867.49043886,-3830248.06177275,-2066200.74153343,5202929.46157293,2229.59044318796,-7206.24135315925,-1285.11167663174,4.87835822912937,2.6314301887652,-6.64568905009055,6758804.1442879,1.4564710114138,-0.0010418948220999,-0.130062836842271,-0.0047971262721159,-2.44406712279742,0.261081836692758,-1.18650138495071,0.0,-0.0011222299538715,0.0,417555.043617155,2.8289E-12,1038.18566894531,4.87835866109808,2.63142874950278,-6.64568931709728
6000.0,-2889816.21919469,3390678.36631618,5110951.04902586,-3687792.95982113,-2493507.56176895,5113918.39150357,2517.16779876239,-7031.82937670897,-1680.88382060413,4.70385300279625,3.18038309615383,-6.54167626326612,6759188.5157557,1.46084628082662,-0.0013791652738601,-0.12968234739028,-0.0047647586963688,-2.43121116790043,0.312418854110437,-1.14106992709533,0.0,-0.0011222299538715,0.0,414124.354036722,3.1247E-12,1048.27172851562,4.70385353909475,3.18038154314311,-6.54167664924467
6060.0,-3271327.06552965,3200174.65298378,4998507.21980179,-3528410.55032064,-2909368.83103714,5001366.31322411,2793.6152870689,-6824.85058814754,-2069.51111653087,4.50747538268683,3.71657621639043,-6.40758230634608,6759663.59956169,1.46522155023942,-0.0017166171443788,-0.129238660336771,-0.0047084346025202,-2.41564329545484,0.363131987122856,-1.09411507617395,0.0,-0.0011222299538715,0.0,410524.247648292,3.4571E-12,1058.30444335937,4.50747603894557,3.71657454685038,-6.40758283242036
6120.0,-3639578.08087499,2998300.8549397,4863018.14551192,-3352807.57431892,-3311854.99708046,4865755.8462174,3057.64188746243,-6586.14496487737,-2449.19990431055,4.28995335543556,4.23753357676079,-6.24380322844654,6760220.577718,1.46959681965224,-0.0020525734637203,-0.128730042255296,-0.0046280204371265,-2.39717160879582,0.413084524277693,-1.04532825899718,0.0,-0.0011222299538715,0.0,406776.854171841,3.8281E-12,1068.17321777343,4.28995414866864,4.23753179055014,-6.24380391827573
6180.0,-3992952.66806702,2785836.22554894,4705072.73322026,-3161766.86166398,-3699091.34784625,4707676.43563889,3308.0033623814,-6316.70025170518,-2818.18434665775,4.05211840276461,4.74080767946995,-6.05087089476924,6760849.6045517,1.47397208906505,-0.0023853266799488,-0.128155064357455,-0.004523499175655,-2.37556958556263,0.462123128293868,-0.994376841567869,0.0,-0.0011222299538715,0.0,402906.196860548,4.2398E-12,1077.78869628906,4.05211935120046,4.74080577967117,-6.05087177444592
6240.0,-4329889.32771005,2563597.11702803,4525364.74089893,-2956144.33777991,-4069266.81858543,4527822.43691097,3543.50846167245,-6017.6498664017,-3174.7346533327,3.79490513740732,5.22399245212854,-5.82945528684266,6761539.99602208,1.47834735847786,-0.0027131465927673,-0.12751261108837,-0.0043949710825547,-2.35057544454304,0.510074337348264,-0.940902167174613,0.0,-0.0011222299538715,0.0,398937.977503234,4.694E-12,1087.07971191406,3.79490626023371,5.22399044568387,-5.82945638468338
6300.0,-4648888.84431654,2332434.21375276,4324690.36746756,-2736865.65948982,-4420642.64974278,4326990.70347307,3763.02507278181,-5690.27001789685,-3517.16540597225,3.51934988347478,5.68473646204798,-5.58036556439588,6762280.34206134,1.48272262789067,-0.0030342886463955,-0.126801887266457,-0.0042426542586552,-2.32189291236706,0.556740709823367,-0.88451915813874,0.0,-0.0011222299538715,0.0,394899.324950245,5.1921E-12,1095.99072265625,3.51935120049196,5.68473436040856,-5.58036691060673
6360.0,-4948521.33456615,2093229.61972048,4103945.34241582,-2504922.48494083,-4751560.84818929,4106077.67382212,3965.48625841842,-5335.97603427055,-3843.84391257422,3.22658838347677,6.12075599044318,-5.3045500279059,6763058.55126188,1.48709789730349,-0.0033470025751786,-0.126022424014768,-0.0040668850975756,-2.28919440730465,0.601896691292877,-0.824818475496778,0.0,-0.0011222299538715,0.0,390818.510727736,5.7349E-12,1104.4765625,3.2265899146101,6.12075381025926,-5.30455165406189
6420.0,-5227433.11899237,1846893.80664505,3864121.51505909,-2261368.38581047,-5060452.40478765,3866075.95789847,4149.89613657561,-4956.31791587439,-4153.19853307656,2.91785287838314,6.52984777600529,-5.00309524040477,6763861.85457623,1.49147316671629,-0.0036495413987803,-0.125174083660714,-0.0038681187421453,-2.25212807172819,0.645284395424965,-0.761372648131454,0.0,-0.0011222299538715,0.0,386724.637094501,6.3225E-12,1112.50036621093,2.91785464308286,6.52984553974206,-5.00309717875483
6480.0,-5484353.37938007,1594362.42986881,3606302.94649922,-2007314.41223846,-5345845.22239691,3608070.42589521,4315.33557230668,-4552.97513299019,-4443.72693402558,2.59446878317975,6.90990148159557,-4.67722458314741,6764676.80609716,1.4958484361291,-0.0039401707645722,-0.124257063657815,-0.0036469295785223,-2.21033055692835,0.686609666159161,-0.693748057596308,0.0,-0.0011222299538715,0.0,382647.304266121,6.9538E-12,1120.03100585937,2.59447079966241,6.9098992180833,-4.6772268656838
6540.0,-5718100.56484081,1336593.01926247,3331661.50942568,-1743924.32241519,-5606371.70935855,3333233.80463406,4460.96766122594,-4127.75067778198,-4714.00424455753,2.25785107697972,7.2589121386484,-4.32829642858972,6765489.32194713,1.50022370554192,-0.0042171786311301,-0.123271899434205,-0.0034040117316724,-2.163447889658,0.725539043201686,-0.621525092848773,0.0,-0.0011222299538715,0.0,378616.264311309,7.6264E-12,1127.041015625,2.25785336134527,7.25890988345259,-4.32829908590292
6600.0,-5927588.50927676,1074561.55195339,3041452.0023214,-1472409.489832,-5840775.99355661,3042821.78808037,4586.04298748215,-3682.56436155855,-4962.6910921291,1.90950037687718,7.57499291794132,-3.9578019449882,6766284.79223737,1.50459897495472,-0.0044788852770131,-0.122219465932318,-0.0031401794407443,-2.11116689819678,0.761698589646631,-0.544328939499132,0.0,-0.0011222299538715,0.0,374661.069363215,8.3364E-12,1133.50598144531,1.90950294210457,7.57499071349836,-3.95780500489886
6660.0,-6111832.22147482,809258.913571887,2737006.78602243,-1194023.50238239,-6047920.71098443,2738167.66995564,4689.90463245644,-3219.44532802749,-5188.54149139749,1.55099851381404,7.85638853260286,-3.56736235108809,6767048.28737031,1.50897424436754,-0.0047236536029809,-0.121100977502679,-0.0028563671087371,-2.05325913522149,0.794675927080595,-0.461872929366652,0.0,-0.0011222299538715,0.0,370810.721360733,9.0781E-12,1139.40405273437,1.55100136869254,7.85638642802062,-3.56736583711253
6720.0,-6269953.30655493,541687.25520861,2419729.9526084,-910056.469328659,-6226793.32052441,2420676.50843528,4771.99289603336,-2740.52373943258,-5390.41054357057,1.18400332278052,8.10148940879715,-3.15872527658121,6767764.86175243,1.51334951378035,-0.0049498996732555,-0.1199179857753,-0.00255362875291,-1.98963741496102,0.824027158581491,-0.374014557762871,0.0,-0.0011222299538715,0.0,367093.329711442,9.8442E-12,1144.71496582031,1.18400647078463,8.10148745928539,-3.15872920623355
6780.0,-6401184.97452825,272856.254725454,2091091.03984285,-621829.054985748,-6376511.89396111,2091818.83616343,4831.84967371499,-2248.021591625,-5567.26187995626,0.810242329971858,8.30884650867833,-2.73375980280735,6768419.93928954,1.51772478319316,-0.0051561034154043,-0.118672375161901,-0.0022331365465344,-1.92042138806355,0.849290439187884,-0.280820583075303,0.0,-0.0011222299538715,0.0,363535.782285523,1.06252E-11,1149.42114257812,0.810245768231835,8.30884477448812,-2.73376418592221
6840.0,-6504876.58914,3779.29349344507,1752618.30912254,-330686.26192795,-6496330.32797945,1753123.93355945,4869.12241508253,-1744.24262905485,-5718.17475813631,0.431505075742947,8.47718642731317,-2.29444978393012,6768999.74982514,1.52210005260597,-0.0053408193704723,-0.117366355734393,-0.0018961781486593,-1.84600289925023,0.870007470147889,-0.182631945874024,0.0,-0.0011222299538715,0.0,360163.43423345,1.141E-11,1153.50610351562,0.43150879411784,8.47718497222007,-2.29445462102352
6900.0,-6580497.7088487,-264530.437171569,1405891.61104348,-37990.9913970759,-6585642.9239756,1406172.68954362,4883.56757692391,-1231.56135993408,-5842.35069851127,0.0496339376040541,8.60542618112555,-1.84288517367104,6769491.77695643,1.52647532201879,-0.0055026873599474,-0.116002453359599,-0.0015441525738819,-1.76709538879799,0.885752837695995,-0.0801127615524581,0.0,-0.0011222299538715,0.0,356999.818444059,1.21855E-11,1156.95532226562,0.0496379179222861,8.60542507045242,-1.84289045442933
6960.0,-6627641.57239351,-531063.882055283,1052534.86980963,254882.58605812,-6643988.28264745,1052590.08093139,4875.05348095655,-712.411210269202,-5939.1195379738,-0.333486521759618,8.69268700940257,-1.38125127282618,6769885.1767536,1.53085059143159,-0.0056404429168743,-0.114583497118991,-0.0011785644548545,-1.68474741844259,0.896168822968657,0.0257365392773927,0.0,-0.0011222299538715,0.0,354066.381101888,1.29376E-11,1159.75634765625,-0.333482306044641,8.69268630757343,-1.38125697506524
7020.0,-6646027.98422726,-794820.099349156,694208.225128025,546555.811419086,-6671052.46387578,694037.30916824,4843.56249235412,-189.271895916373,-6007.9447786103,-0.715941501334342,8.73830653894869,-0.911816018740728,6770171.13325935,1.53522586084441,-0.0057529273192306,-0.113112604177279,-8.010166855857E-4,-1.60030294005454,0.901000579330505,0.133619310137932,0.0,-0.0011222299538715,0.0,351382.245735617,1.36509E-11,1161.89990234375,-0.715937085171421,8.7383063067553,-0.911822107741359
7080.0,-6635505.56003676,-1054810.24516614,332599.877228425,835652.426590997,-6666671.3682596,332203.640074567,4789.192449733,335.343872788364,-6048.42812196956,-1.09579891119254,8.7418487960023,-0.436915607437332,6770343.12807858,1.53960113025722,-0.0058390970655014,-0.11159316236234,-4.132015852845E-4,-1.51530307369424,0.900124592739508,0.242041266651749,0.0,-0.0011222299538715,0.0,348964.009257249,1.43101E-11,1163.37963867187,-1.09579433742982,8.74184908769293,-0.436922035977901
7140.0,-6596053.29918,-1310061.53927219,-30582.3133863513,1120805.52583934,-6630832.30435893,-31202.0017580118,4712.15729669058,858.904213928687,-6060.31310033394,-1.47112297954529,8.70311174171084,0.0410611587307768,6770397.11472063,1.54397639967003,-0.0058980326466073,-0.110028810770666,-1.68908668129E-5,-1.43134340741137,0.893563513791385,0.349453535963087,0.0,-0.0011222299538715,0.0,346825.573601642,1.48998E-11,1164.19311523437,-1.47111829808632,8.70311260210755,0.0410544498597905
7200.0,-6527781.45851076,-1559621.18506258,-393619.415272732,1400664.52038534,-6563674.71455621,-394459.627695428,4612.78688569406,1378.87227109377,-6043.48774102147,-1.83998818113163,8.62213220255384,0.519689383965163,6770331.60044075,1.54835166908284,-0.0059289464931144,-0.108423418717374,3.860751925136E-4,-1.34991828559359,0.881483386518066,0.454408715869184,0.0,-0.0011222299538715,0.0,344978.016521568,1.54058E-11,1164.34033203125,-1.83998344742741,8.62213366441793,0.51968246446538
7260.0,-6430931.71008839,-1802560.21672242,-754790.145166606,1673902.06610539,-6465490.04177835,-755846.909581902,4491.52594400815,1892.7206284284,-5997.98622362616,-2.2004931980709,8.49918821834216,0.996525078474331,6770147.64668387,1.55272693849566,-0.005931190009314,-0.106781063320515,7.937989183021E-4,-1.27228903607902,0.864174035056218,0.555692998468519,0.0,-0.0011222299538715,0.0,343429.504740463,1.58157E-11,1163.82531738281,-2.20048847139268,8.49919030018489,0.996518026635843
