time,gePosition_m_X,gePosition_m_Y,gePosition_m_Z,eiPosition_m_X,eiPosition_m_Y,eiPosition_m_Z,eiVelocity_m_s_X,eiVelocity_m_s_Y,eiVelocity_m_s_Z,eiAccel_m_s2_X,eiAccel_m_s2_Y,eiAccel_m_s2_Z,semiMajorAxis_m,gast_rad,eulerAngle_rad_Roll,eulerAngle_rad_Pitch,eulerAngle_rad_Yaw,eulerAngleWrtEi_rad_Roll,eulerAngleWrtEi_rad_Pitch,eulerAngleWrtEi_rad_Yaw,bodyAngularRateWrtEi_rad_s_Roll,bodyAngularRateWrtEi_rad_s_Pitch,bodyAngularRateWrtEi_rad_s_Yaw,altitudeMsl_m,airDensity_kg_m3,ambientTemperature_dgK,eiGravitation_m_s2_X,eiGravitation_m_s2_Y,eiGravitation_m_s2_Z
0.0,-1428622.31112709,4163200.4655738,5136049.67204027,-4292653.41,955168.47,5139356.57,109.649663,-7527.72649,1484.521489,5.5289865693572,-1.23026788740987,-6.61954989994585,6758662.11722884,1.02331944621101,-0.0,-0.202458193231342,-0.0,-2.4715939053549,-0.0371889644761344,-1.42899313488854,0.0,-0.0011344542745508,0.0,398252.763838142,3.1122E-12,976.192653674721,5.5289865693572,-1.23026788740987,-6.61954989994585
60.0,-1789712.64876688,3920255.3134273,5213136.60397904,-4276130.76360613,501640.15063872,5216447.94770978,440.899504425955,-7584.04304560366,1084.18939672292,5.50841669093322,-0.646201702281534,-6.71971240615587,6758662.11722887,1.02769471546425,-2.364808184E-6,-0.202456042600789,-1.006005757945E-4,-2.47205929639209,0.0161204236657014,-1.38666117967647,-7.049068604E-7,-0.0011344779878485,-3.3028523725E-6,398335.161468169,3.2024E-12,983.369143358291,5.50841669093322,-0.646201702281534,-6.71971240615587
120.0,-2144732.0333194,3662345.3126043,5266057.24088062,-4239785.46485071,45786.449266332,5269357.68010073,770.149856360686,-7605.20775889381,678.777242699508,5.46236021841803,-0.0589893241270332,-6.78881750197499,6758662.11722883,1.0320699847175,-2.51189964817E-5,-0.202449046743113,-4.002575026433E-4,-2.47030794868962,0.069280295155486,-1.34410218243724,-1.5682193696E-6,-0.0011344959082197,-6.6150804443E-6,398280.483168024,3.312E-12,991.275655191297,5.46236021841803,-0.0589893241270332,-6.78881750197499
180.0,-2492166.12299056,3390599.0029,5294562.85672707,-4183783.25764152,-410279.480789291,5297837.08956815,1095.87688042975,-7591.11290731489,270.159254331849,5.39101509822693,0.52866574084301,-6.82652947798943,6758662.11722882,1.03644525395931,-9.1796909114E-5,-0.202436413480054,-8.945341280153E-4,-2.46631584574527,0.122194572973341,-1.30107628427383,-2.5897433372E-6,-0.0011345075693188,-9.9359390526E-6,398085.3786748,3.4417E-12,999.861374013802,5.39101509822693,0.52866574084301,-6.82652947798943
240.0,-2830524.93283794,3106195.85223943,5298517.62697299,-4108380.89026465,-864442.894077516,5301750.47079899,1416.5720940025,-7541.81319429643,-139.77448384783,5.29469509567264,1.11405482451904,-6.83265572642931,6758662.11722884,1.04082052320969,-2.259016321156E-4,-0.202417401639533,-0.0015773854989592,-2.46003131186148,0.174763491620489,-1.25733917145186,-3.7692476845E-6,-0.0011345124437284,-1.32646764019E-5,397748.768104346,3.5916E-12,1009.03826093396,5.29469509567264,1.11405482451904,-6.83265572642931
300.0,-3158349.27068251,2810361.12607352,5277899.32207647,-4013924.98616908,-1314597.20057467,5281075.78379538,1730.74928789973,-7457.52569377281,-549.126655787512,5.17382866282785,1.69447627941292,-6.80714795491088,6758662.11722881,1.04519579246293,-4.507912578842E-4,-0.202391343697663,-0.0024411868488052,-2.45137463957029,0.226881529199867,-1.21263857867943,-5.1064639077E-6,-0.0011345099435635,-1.66005334892E-5,397271.883714379,3.7614E-12,1018.68603174665,5.17382866282785,1.69447627941292,-6.80714795491088
360.0,-3474217.0876188,2504360.59818322,5232799.48200484,-3900850.50203112,-1758653.68795,5235904.82755069,2036.95136094463,-7338.62906255864,-956.00139364551,5.02895729882105,2.26724769265305,-6.75010277495461,6758662.1172288,1.04957106170188,-7.895653599697E-4,-0.202357665935199,-0.0034767697023755,-2.44023743015857,0.278435208532751,-1.16671093064184,-6.6010854758E-6,-0.001134499421153,-1.9942743537E-5,396658.271816294,3.9505E-12,1028.66356558606,5.02895729882105,2.26724769265305,-6.75010277495461
420.0,-3776749.7157209,2189495.1251204,5163423.06959608,-3769678.77900142,-2194551.17459278,5166442.89226163,2333.75704093037,-7185.6620201973,-1358.5129738363,4.86073340379137,2.82971808104516,-6.66176165594907,6758662.11722882,1.05394633095227,-0.0012649521691088,-0.202315905355336,-0.0046734654282475,-2.42648177762254,0.329300715754733,-1.11927819435689,-8.252767164E-6,-0.0011344801697988,-2.32905314375E-5,395913.754633969,4.1579E-12,1038.82359594937,4.86073340379137,2.82971808104516,-6.66176165594907
480.0,-4064617.96585945,1867095.10630415,5070087.60293968,-3621015.19485927,-2620265.54951359,5073007.89024476,2619.7874617098,-6999.32109896086,-1754.79449109399,4.66991762971392,3.37928001560926,-6.54251023745084,6758662.11722886,1.05832160020265,-0.0018991969576234,-0.202265722683112,-0.0060191560236244,-2.40993949275385,0.379341291876588,-1.07004508713299,-1.00611243258E-5,-0.0011344514246144,-2.66431132077E-5,395046.352534709,4.3822E-12,1049.02643605174,4.66991762971392,3.37928001560926,-6.54251023745084
540.0,-4336548.05765017,1538514.85367808,4953221.76924825,-3455546.42660972,-3033819.1554875,4956028.9680342,2893.71256636816,-6780.45766980691,-2143.00647189947,4.45737573340151,3.91338162296548,-6.39287699509342,6758662.11722893,1.06269686945303,-0.0027139521541114,-0.202206910856821,-0.0075003318777319,-2.39041166284383,0.428404365850198,-1.01869688984379,-1.20257321061E-5,-0.0011344123634425,-2.99996954594E-5,394066.16768517,4.6222E-12,1059.14947100887,4.45737573340151,3.91338162296548,-6.39287699509342
600.0,-4591327.35512146,1205126.89368974,4813363.52501608,-3274037.3348504,-3433289.97224998,4816044.60446428,3154.25730682291,-6530.07425328215,-2521.34538840932,4.22407493918389,4.42953841007283,-6.21353125792587,6758662.11722894,1.06707213870913,-0.0037301697224377,-0.202139398527372,-0.0091021562247331,-2.36766898474829,0.476318421246715,-0.964898263413453,-1.41461245971E-5,-0.0011343621078543,-3.33594748843E-5,392985.230809613,4.8764E-12,1069.09131825969,4.22407493918389,4.42953841007283,-6.21353125792587
660.0,-4827809.88150349,868316.225201669,4651157.68959356,-3077327.48299947,-3816820.55719276,4653700.20187414,3400.20761071366,-6249.32012759414,-2888.05203397396,3.97107982105512,4.92534485815692,-6.00528057770761,6758662.11722897,1.0714474079538,-0.0049679963470527,-0.202063248200158,-0.0108085359672361,-2.34145350562307,0.522889629251059,-0.908293668414527,-1.64217939409E-5,-0.0011342997242303,-3.67216377576E-5,391817.313344238,5.1433E-12,1078.7715032867,3.97107982105512,4.92534485815692,-6.00528057770761
720.0,-5044921.58717981,529474.557546531,4467353.04163684,-2866327.30620534,-4182626.70183817,4469745.17990409,3630.41608710307,-5939.48624933574,-3241.41972144966,3.69954771645439,5.39848573122372,-5.76906745354871,6758662.11722898,1.07582267720419,-0.0064466719695716,-0.201978648783574,-0.0126021985270696,-2.31148266273773,0.567898347227422,-0.84851024962313,-1.88521893815E-5,-0.0011342242249244,-4.00853594607E-5,390577.707881745,5.4213E-12,1088.12741165133,3.69954771645439,5.39848573122372,-5.76906745354871
780.0,-5241665.34592555,189994.551533034,4262798.93021112,-2642013.94644413,-4529005.76339734,4265029.58367307,3843.80744331259,-5601.99950563094,-3579.80226580135,3.41072368629182,5.84674704437561,-5.50596541829295,6758662.11722894,1.08019794645171,-0.00818443221818,-0.201885902445972,-0.0144647743609254,-2.27745682365638,0.61109568578895,-0.785164361490176,-2.14367162689E-5,-0.001134134569512,-4.34498040266E-5,389282.980377661,5.7085E-12,1097.11022049672,3.41072368629182,5.84674704437561,-5.50596541829295
840.0,-5417125.65492679,-148735.911961008,4038441.41462094,-2405426.77194363,-4854344.63194301,4040500.22042338,4039.38358616868,-5238.41631975528,-3901.62171297128,3.10593503833543,6.26802663725425,-5.21717449618087,6758662.11722895,1.08457321569067,-0.0101984152611626,-0.201785405826093,-0.0163768847648758,-2.23907185201206,0.652200499964049,-0.71787323806903,-2.41747350201E-5,-0.001134029666123,-4.68141237082E-5,387950.698134415,6.0029E-12,1105.68096071401,3.10593503833543,6.26802663725425,-5.21717449618087
900.0,-5570473.01547434,-485339.412664834,3795318.94930193,-2157662.60064381,-5157127.29514867,3797196.34098099,4216.22838203827,-4850.41563555375,-4205.37577765728,2.7865854336178,6.66034429835598,-4.90401604458787,6758662.11722896,1.08894848494105,-0.012504573597883,-0.20167762578742,-0.0183182345823849,-2.19603846560858,0.690897369724399,-0.646273555555516,-2.70655600399E-5,-0.001133908372861,-5.01774585723E-5,386599.138079688,6.3018E-12,1113.80733938154,2.7865854336178,6.66034429835598,-4.90401604458787
960.0,-5700967.97210349,-818454.597994031,3534557.63232429,-1899870.64890394,-5435941.96416277,3536244.88459677,4373.51205128819,-4439.79130921346,-4489.6449535128,2.45414859808208,7.02185138672565,-4.56792699598511,6758662.11722897,1.09332375419143,-0.0151175912746989,-0.201563070051994,-0.0202677094254314,-2.14811012464414,0.726836396504885,-0.570048609285883,-3.01084586058E-5,-0.0011337694993105,-5.3538936122E-5,385246.980300878,6.6025E-12,1121.46132185438,2.45414859808208,7.02185138672565,-4.56792699598511
1020.0,-5807964.78941524,-1146741.69620263,3257366.03479903,-1633247.22489765,-5689487.72776838,3258855.30447371,4510.49549342916,-4008.44411566244,-4753.09960275437,2.11017766399626,7.35083138937314,-4.21047073344577,6758662.9796688,1.09769902344753,-0.0180311579075715,-0.201440736768354,-0.022202997065194,-2.0951023141754,0.759635595422994,-0.488967367204439,-3.13287379716E-5,-0.0011334621612064,-5.68336344602E-5,383912.991237537,6.9017E-12,1128.61758943988,2.11016166099294,7.3508399039704,-4.21045351701413
1080.0,-5890914.74667023,-1468887.94633735,2965029.60267319,-1359030.16173165,-5916580.71642492,2966313.96546164,4626.53357140475,-3558.37281204781,-4994.5059844061,1.75623431785402,7.64574409326044,-3.83326181334242,6758665.56707221,1.10207429269791,-0.0210004182200795,-0.201291467975343,-0.0241032522284995,-2.0367368853756,0.788878917248548,-0.40295082993143,-2.87599424532E-5,-0.0011328472728723,-6.0013472435E-5,382615.697325641,7.1959E-12,1135.25254438207,1.75621811272837,7.64575100111458,-3.83324407424849
1140.0,-5949369.02840283,-1783612.76922556,2658904.79989876,-1078493.14986884,-6116159.67263051,2659978.28302453,4721.07730225341,-3091.66452208911,-5212.73110917526,1.39397689030475,7.90517738593986,-3.43806023602651,6758668.15460503,1.10644956193401,-0.023953872316499,-0.201109906266118,-0.0259680149434652,-1.97307890542477,0.814128766642191,-0.312078191168104,-2.63539878431E-5,-0.0011322298369129,-6.32141417023E-5,381373.091104252,7.4812E-12,1141.34373991227,1.39396055674446,7.90518265548074,-3.43804205783223
1200.0,-5982981.2059761,-2089672.87208208,2340412.82321159,-792939.810694737,-6287291.00804266,2341270.43359658,4793.6781765517,-2610.48598864294,-5406.74991502619,1.02508950128452,8.12789321512235,-3.02669639545089,6758670.74227077,1.11082483119011,-0.026898539961305,-0.200896836915453,-0.0278001335361026,-1.90450318157673,0.834952738369814,-0.216659240442192,-2.41110196375E-5,-0.0011316098965085,-6.64348649269E-5,380202.310203636,7.7535E-12,1146.86955701003,1.02507311327273,8.12789682235662,-3.02667786383114
1260.0,-5991509.28545325,-2385867.16605215,2011033.00628055,-503697.623353425,-6429173.2660667,2011670.75417161,4843.98978179239,-2117.07315668193,-5575.64956480041,0.651289936017442,8.31282389181823,-2.60107929104929,6758673.33007207,1.11520010044049,-0.0298417297466781,-0.200653104727676,-0.029601883333346,-1.83166186742139,0.850949420697931,-0.11728363211602,-2.20311449102E-5,-0.0011309874290676,-6.96748685746E-5,379119.336892639,8.0086E-12,1151.80898481731,0.65127356750525,8.31282582042788,-2.60106049338259
1320.0,-5974817.31090545,-2671041.46454304,1672295.95462513,-212111.743136424,-6541140.96386301,1672710.87255273,4871.76958174575,-1613.72078021165,-5718.63389989928,0.274321594643367,8.45907766557863,-2.16318770431865,6758675.91801078,1.11957536967945,-0.0327909998358535,-0.200379609012982,-0.0313749563279589,-1.75549550188527,0.861778768985474,-0.0148314375618736,-2.01144325106E-5,-0.0011303623458547,-7.29333823433E-5,378138.721855384,8.2422E-12,1156.14133478356,0.274305319223349,8.4590779069842,-2.16316872927118
1380.0,-5932876.51263132,-2944092.95963668,1325776.42953088,80461.2722906861,-6622667.80122263,1325966.58650382,4876.88020745981,-1102.77171920361,-5835.0273526322,-0.104054729517485,8.565943476126,-1.71506098466705,6758678.50608791,1.12395063893269,-0.0357541173521616,-0.20007729795239,-0.0331204537930696,-1.6772014314414,0.867192858706692,0.0895588926491663,-1.8360913183E-5,-0.0011297344917031,-7.62096385795E-5,377273.333015057,8.4501E-12,1159.84643722471,-0.104070838935275,8.56594202951465,-1.71504192177184
1440.0,-5865765.99114631,-3203974.45875341,973086.014098237,372659.799237761,-6673369.21921542,973050.524960951,4859.29025082044,-586.605976986957,-5924.27829506193,-0.482069202703046,8.63289484786413,-1.2587894875652,6758681.09430341,1.12832590818593,-0.0387390166146239,-0.199747162338577,-0.0348388818648241,-1.59815515511179,0.867061281188548,0.194569623613471,-1.67705796032E-5,-0.0011291036448113,-7.95028716822E-5,376534.134438886,8.6287E-12,1162.90561656334,-0.482085074211215,8.63289172018222,-1.25877042679831
1500.0,-5773672.93064964,-3449698.36349726,615865.595810831,663123.516858445,-6693004.29459941,615604.62571247,4819.07455406188,-67.6295304252247,-5985.96180484916,-0.857951392528218,8.65959289803362,-0.796504710907199,6758683.68265656,1.13270117743631,-0.0417537564282167,-0.199390228677532,-0.036530150099456,-1.51979442252551,0.86138547612658,0.29882006406588,-1.53433863354E-5,-0.0011284695166218,-8.28123174973E-5,375929.999814902,8.7745E-12,1165.30245747757,-0.857966955536894,8.65958810394407,-0.796485742262904
1560.0,-5656892.33682563,-3680340.37611833,255777.701094478,950499.778159795,-6681476.95916938,255292.465042434,4756.41399117348,451.736993178297,-6019.78183143212,-1.22993875564741,8.64588843390414,-0.330369178117643,6758686.27114593,1.13707644668384,-0.0448064766427735,-0.199007551635402,-0.0381935729991629,-1.44348944408925,0.850298433218354,0.400996774492036,-1.40792497075E-5,-0.0011278317517848,-8.61372127022E-5,375467.564329843,8.8848E-12,1167.02336121925,-1.22995394119245,8.64588199570886,-0.330350391184329
1620.0,-5515826.29664083,-3895042.91881709,-105501.281751031,1233449.95261088,-6638836.53650036,-106208.524257159,4671.59473977628,969.069737173391,-6025.57274886216,-1.59628512698386,8.59182311933964,0.137433881097517,6758688.85976944,1.14145171592279,-0.0479053541994495,-0.198600205816392,-0.0398278744893811,-1.37042802589276,0.834049834129337,0.499968848755116,-1.29780476055E-5,-0.0011271899282036,-8.94767941854E-5,375151.118012117,8.9575E-12,1168.05797336662,-1.59629986802705,8.59181506686728,0.137452397558694
1680.0,-5350982.76012992,-4093018.25255266,-466288.954137597,1510655.70980262,-6565277.59189122,-467214.909371888,4565.00704472305,1481.95307835647,-6003.3002847327,-1.95526916550304,8.49762969630077,0.60471099940433,6758691.44852452,1.14582698517889,-0.0510585588867393,-0.198169276861161,-0.0414311953189642,-1.30153858762746,0.812980313479055,0.594865316977211,-1.20396191893E-5,-0.0011265435571643,-9.28302984203E-5,374982.542753198,8.9914E-12,1168.39952300865,-1.95528339722298,8.49762006676052,0.604729157876234
1740.0,-5162973.84564104,-4273551.28455188,-824904.795644843,1780825.21376782,-6461139.09471326,-826045.150777461,4437.14347739134,1987.99107446435,-5953.06181787,-2.30520271107427,8.36373125232181,1.06926903522886,6758694.03740815,1.15020225442927,-0.0542742090300136,-0.197715851860734,-0.0430011033436681,-1.23746032407118,0.78749058188716,0.685105415289144,-1.1263764528E-5,-0.0011258920835477,-9.61969608372E-5,374961.294306242,8.986E-12,1168.04509990097,-2.30521637114667,8.36372009012381,1.06928674984875
1800.0,-4952513.67403747,-4436002.05275412,-1179678.05135862,2042699.19789019,-6326902.89580218,-1181027.49436788,4288.59669737158,2484.81883899905,-5875.08604077631,-2.64443900686026,8.19073953066957,1.52892577485855,6758696.62641714,1.15457752367966,-0.057560327338822,-0.197241009088494,-0.0445346066428892,-1.17855559214017,0.758011111720114,0.770386646894125,-1.06502441583E-5,-0.001125234886126,-9.95760151945E-5,375084.429607851,8.942E-12,1166.99588864293,-2.64445203572639,8.19072688721289,1.52894296182019
1860.0,-4720415.73756899,-4579807.87992578,-1528955.57996483,2295056.89081554,-6163191.52597566,-1530507.82424882,4120.05672598012,2970.11378599114,-5769.73198620835,-2.97138074190816,7.97945228571142,1.98152051627444,6758699.21554813,1.15895279293004,-0.0609247971349298,-0.196745807062396,-0.0460281694093653,-1.1249508757398,0.724976470412136,0.850644289080951,-1.01987785666E-5,-0.0011245712779424,-1.02966692952E-4,375346.678804572,8.8606E-12,1165.25737363961,-2.97139308303031,7.97943821914047,1.9815370942202
1920.0,-4467589.81301678,-4704485.18944931,-1871109.62453692,2536721.76442513,-5970765.32519541,-1872857.43811159,3932.30774373155,3441.60668763746,-5637.48742071157,-3.28448786919633,7.73084969193206,2.42492457718081,6758701.80479805,1.16332806216899,-0.0643753191812335,-0.196231272960639,-0.0474777305417165,-1.07659089567767,0.688806239923695,0.925997786363153,-9.9090475954E-6,-0.0011239005067756,-1.063682226467E-4,375740.560417823,8.7441E-12,1162.83952461523,-3.28449946929913,7.73083426686266,2.42494046758197
1980.0,-4195038.43063563,-4809630.97708867,-2204545.46822783,2766567.07573939,-5750518.91529591,-2206480.70737619,3726.22442656269,3897.09248843443,-5478.96661138857,-3.58228515532198,7.44608982099553,2.8570516695755,6758704.39416393,1.16770333142223,-0.0679193693272286,-0.19569839042683,-0.0488787248602211,-1.03329350338296,0.649892647388388,0.996696399183212,-9.7806897782E-6,-0.001123221755689,-1.097798292757E-4,376256.537174209,8.5951E-12,1159.75696937832,-3.58229596461854,7.44607310821179,2.85706679709902
2040.0,-3903852.92771436,-4894923.9333143,-2527708.92582939,2983521.16730878,-5503477.04647205,-2529822.57303757,3502.76742819681,4334.44011946083,-5294.90689279879,-3.86337937533151,7.126485290912,3.27588235639619,6758705.25731117,1.17207860067547,-0.0716429419081323,-0.195154221268954,-0.0502270596249,-0.994873778753183,0.60858948730458,1.06307692562404,-1.37601279156E-5,-0.00112282835351,-1.133262474248E-4,376883.21244838,8.4172E-12,1156.02915884856,-3.86337937533151,7.126485290912,3.27588235639619
2100.0,-3595209.09279163,-4960125.21600499,-2839093.64489448,3186572.50774568,-5230789.82856762,-2841375.8508957,3262.97991934517,4751.60435713273,-5086.16671706997,-4.12642542037227,6.77356754467705,3.67941589638029,6758705.25731118,1.17645386991157,-0.0758108479314217,-0.194618965319157,-0.0515082111259252,-0.961274603544935,0.565212815885013,1.12553887474286,-1.98642615791E-5,-0.0011225454219786,-1.169236485143E-4,377607.555183736,8.2141E-12,1151.68052579214,-4.12642542037227,6.77356754467705,3.67941589638029
2160.0,-3270362.30726011,-5005078.88508549,-3137248.25729019,3374774.50088687,-4933727.2720381,-3139688.38706293,3007.9819617361,5146.6346394624,-4853.72066047504,-4.37019531838639,6.38897556586081,4.06576839037059,6758705.25731117,1.1808291391591,-0.0804521703735237,-0.19409351723484,-0.0526909140660253,-0.93219546977881,0.520065065268727,1.18449131196828,-2.61163230476E-5,-0.0011222183014501,-1.205040739822E-4,378415.137192217,7.9901E-12,1146.7406347846,-4.37019531838639,6.38897556586081,4.06576839037059
2220.0,-2930642.43630157,-5029711.96774458,-3420783.1755248,3547249.91936366,-4613673.36587605,-3423369.85797016,2738.96501419873,5517.6839788303,-4598.65454312569,-4.59354180255618,5.97451601980546,4.43312225122769,6758705.25731116,1.18520440840948,-0.085574125708063,-0.193576825440553,-0.0537429984955106,-0.90732405311478,0.473415580916037,1.24034231422021,-3.25146021643E-5,-0.0011218446350082,-1.240663147539E-4,379290.426683138,7.7494E-12,1141.24432992121,-4.59354180255618,5.97451601980546,4.43312225122769
2280.0,-2577448.3266707,-5034034.18267597,-3688377.12694908,3703195.03095511,-4272119.57964377,-3691098.3080301,2457.18648492055,5863.01809937082,-4322.16057454521,-4.79541472184987,5.53213777683298,4.77975019359363,6758705.25731118,1.18957967766558,-0.0911816272262277,-0.193067379159527,-0.0546322704253272,-0.886368462613683,0.425502771278244,1.29348787818481,-3.90573074381E-5,-0.001121422052832,-1.276091401938E-4,380217.085574813,7.4963E-12,1135.23186392269,-4.79541472184987,5.53213777683298,4.77975019359363
2340.0,-2212241.96891182,-5018137.32161221,-3938783.36624897,3841883.37759746,-3910657.85038785,-3941626.36534109,2163.96374858381,6181.02368806187,-4025.53168086352,-4.97486615361709,5.06392242193408,5.10402364358148,6758705.25731117,1.1939549469131,-0.0972772541175388,-0.192563142893586,-0.0553266768677801,-0.869064968630773,0.376538128669357,1.34430528855149,-4.57425643973E-5,-0.0011209481760631,-1.311312986012E-4,381178.277655522,7.2352E-12,1128.74899181247,-4.97486615361709,5.06392242193408,5.10402364358148
2400.0,-1836542.35419936,-4982194.29272125,-4170835.53299636,3962669.18652794,-3530973.09198325,-4173787.10218066,1860.6678722504,6470.21605593228,-3710.15534232969,-5.13105499494281,4.57207409142926,5.40442064436784,6758705.25731119,1.19833021615206,-0.103861230838316,-0.19206149570995,-0.055794472412459,-0.855181985425107,0.326710275997271,1.39315036372969,-5.25684140445E-5,-0.0011204206207886,-1.34631517785E-4,382156.982635777,6.9699E-12,1121.846993125,-5.13105499494281,4.57207409142926,5.40442064436784
2460.0,-1451919.05252442,-4926457.83328937,-4383453.12582535,4064990.39704135,-3134835.2634773,-4386499.51184204,1548.71708203312,6729.24617068158,-3377.50697269883,-5.26325100789534,4.05890869314027,5.67953321455292,6758705.25731118,1.2027054854053,-0.110931416563526,-0.191559177338147,-0.0560043866178571,-0.84452162394084,0.27618883093783,1.44035727896261,-5.95328114253E-5,-0.0011198370021352,-1.381085057192E-4,383136.310096549,6.7043E-12,1114.58256018096,-5.26325100789534,4.05890869314027,5.67953321455292
2520.0,-1059985.5405727,-4851258.90030479,-4575646.56676836,4148371.28830305,-2724091.03522326,-4578773.5753352,1229.57000397853,6956.90702551437,-3029.1428745336,-5.37083829729242,3.52684257037009,5.92807411968673,6758705.25731117,1.20708075465283,-0.1184833044603,-0.191052243020834,-0.0559257914201364,-0.836919773700076,0.225127992703937,1.48624002317293,-6.66336243173E-5,-0.0011191949384705,-1.415609512799E-4,384099.807460035,6.4419E-12,1107.01745526984,-5.37083829729242,3.52684257037009,5.92807411968673
2580.0,-662392.310202454,-4757004.74862725,-4746521.83139677,4212424.69570359,-2300655.09359414,-4749714.89358568,904.718713761036,7152.1393127097,-2666.69280672364,-5.45331820324742,2.9783806732705,6.14888302118356,6758705.2573112,1.21145602389464,-0.12651003048395,-0.190536028958528,-0.0555288676707084,-0.832245381250252,0.17366982768995,1.53109483619163,-7.38686320521E-5,-0.0011184920557066,-1.44987525065E-4,385031.75634045,6.1857E-12,1099.21780220524,-5.45331820324742,2.9783806732705,6.14888302118356
2640.0,-260819.787585178,-4644176.70851696,-4895284.62264932,4256853.80534617,-1866501.12683952,-4898528.86300478,575.681630740053,7314.03637434671,-2291.85220255168,-5.51031159450723,2.41610430395046,6.34093197091802,6758705.25731124,1.21583129314788,-0.135002391381534,-0.190005130041453,-0.0547847698173795,-0.830399371326305,0.121947272223645,1.57520319139081,-8.12355244794E-5,-0.0011177259917002,-1.483868802956E-4,385917.451960213,5.9383E-12,1091.25285342894,-5.51031159450723,2.41610430395046,6.34093197091802
2700.0,143028.904846264,-4513327.67498084,-5021244.06858374,4281453.51841388,-1423652.53618288,-5024524.37465858,243.996292656861,7441.8484066595,-1906.37407841013,-5.54156055241717,1.84265850392381,6.50333022407343,6758705.25731128,1.22020656239826,-0.143948871595253,-0.189453391373658,-0.0536657876429432,-0.831313496246187,0.0700868936767682,1.6188350437856,-8.87319010823E-5,-0.0011168944007423,-1.517576538011E-4,386743.460728166,5.7021E-12,1083.1930916184,-5.54156055241717,1.84265850392381,6.50333022407343
2760.0,547435.310144147,-4365079.32270322,-5123815.92673909,4286111.37935632,-974172.91754316,-5127117.01971651,-88.7879522579179,7534.98589866302,-1512.06067478518,-5.54692943920712,1.26073915419578,6.6353283472527,6758705.25731129,1.22458183164864,-0.153335678788056,-0.188873914867742,-0.0521455038755835,-0.834949285076093,0.0182114624898239,1.66225216799232,-9.6355270254E-5,-0.0011159949581318,-1.550984670862E-4,387497.851558536,5.4787E-12,1075.1076221186,-5.54692943920712,1.26073915419578,6.6353283472527
2820.0,950673.089608113,-4200119.06159746,-5202525.28032974,4270808.06405056,-520156.360298931,-5205831.78639596,-421.11729873284,7593.02228994737,-1110.75487236893,-5.52640534815029,0.673079859436293,6.73632160341655,6758705.25731128,1.22895710090188,-0.163146787765497,-0.188259081926714,-0.050198946391486,-0.841297183056544,-0.0335576079987556,1.70571147577932,-1.04103048745E-4,-0.0011150253648239,-1.584079274811E-4,388170.397048223,5.2694E-12,1067.06101461337,-5.52640534815029,0.673079859436293,6.73632160341655
2880.0,1351015.53234284,-4019196.74879303,-5257008.71409238,4235617.42631542,-63717.6102906357,-5260305.23622112,-751.44084639467,7615.69583684587,-704.331427127056,-5.48009793696387,0.0824386882849025,6.80585259983981,6758705.25731129,1.23333237013798,-0.17336399263816,-0.187600592936476,-0.0478027336483081,-0.850375911805648,-0.0850978967859882,1.74946823841265,-1.119725612905E-4,-0.0011139833521454,-1.616846293721E-4,388752.741213821,5.0752E-12,1059.110032651,-5.48009793696387,0.0824386882849025,6.80585259983981
2940.0,1746743.08701483,-3823121.1740467,-5287015.9602576,4180706.10337724,393017.855226027,-5290287.15006612,-1078.21793332725,7602.91068050819,-294.688068839394,-5.40823864956216,-0.50841515811988,6.84361318992433,6758705.25731131,1.23770763938837,-0.183966967154121,-0.186889523973232,-0.0449352119237705,-0.862232032033004,-0.136283630706474,1.79377915062231,-1.199610404249E-4,-0.0011128666865678,-1.649271555136E-4,389238.531108092,4.8964E-12,1051.30093594524,-5.40823864956216,-0.50841515811988,6.84361318992433
3000.0,2136150.88262675,-3612756.33589728,-5292411.00780039,4106332.68308637,847923.792703646,-5295641.63713742,-1399.92540479586,7554.7371147244,116.26349195927,-5.3111793349051,-1.09671467777836,6.8494456243344,6758705.25731133,1.24208290863875,-0.194933333225352,-0.186116400790391,-0.0415765828927898,-0.876939644561541,-0.186983309864862,1.83890516396721,-1.280656264936E-4,-0.0011116731745293,-1.681340784191E-4,389623.510277636,4.7331E-12,1043.66808070327,-5.3111793349051,-1.09671467777836,6.8494456243344
3060.0,2517556.202778,-3389017.52721707,-5273172.67082371,4012846.43785269,1298883.1495309,-5276347.70275143,-1715.06478131268,7471.41105561408,526.606603575532,-5.18939027517514,-1.67970832902622,6.82334295148179,6758705.25731129,1.2464581778777,-0.206238737769403,-0.185271289795199,-0.0377090200654252,-0.894600114967892,-0.237057259640907,1.88511398832317,-1.362833678691E-4,-0.0011104006672939,-1.713039618289E-4,389905.572681563,4.5847E-12,1036.23426114849,-5.18939027517514,-1.67970832902622,6.82334295148179
3120.0,2889305.88017216,-3152867.24900627,-5229394.61462807,3900685.63239409,1743797.96564504,-5232499.27346401,-2022.16929105361,7353.33271948948,934.42871436447,-5.04345763883597,-2.25467315217122,6.76544867184249,6758705.2573113,1.25083344713094,-0.217856938080964,-0.184343905363217,-0.033316772631033,-0.915341645203538,-0.286355076669153,1.93268210975924,-1.44611221378E-4,-0.0011090470658371,-1.744353622539E-4,390084.776356886,4.4507E-12,1029.0127047983,-5.04345763883597,-2.25467315217122,6.76544867184249
3180.0,3249783.5781155,-2905310.97145618,-5161284.84070357,3770375.41446136,2180599.17231137,-5164304.68079389,-2319.81073266439,7201.06451929189,1337.83037101995,-4.87408037724911,-2.81892768440056,6.67605565489537,6758705.25731133,1.25520871638133,-0.229759896029104,-0.183323732475962,-0.028386255316672,-0.939318435602794,-0.334712952909221,1.98189609835151,-1.530460529469E-4,-0.0011076103257478,-1.775268305922E-4,390163.316784738,4.3303E-12,1022.01011928935,-4.87408037724911,-2.81892768440056,6.67605565489537
3240.0,3597416.92517878,-2647392.76268734,-5069164.63453291,3622525.29970515,2607256.24159536,-5072085.60743502,-2606.6061357032,7015.32819396203,1734.93413007283,-4.68206658642913,-3.36984460316286,6.55560433160053,6758705.25731134,1.25958398563171,-0.24191788143776,-0.182200163311097,-0.0229061229733325,-0.966709077043165,-0.381950887819922,2.03305287727444,-1.615846384719E-4,-0.0011060884621321,-1.805769138156E-4,390145.460575476,4.2224E-12,1015.22995727717,-4.68206658642913,-3.36984460316286,6.55560433160053
3300.0,3930684.47161551,-2380190.80465453,-4953466.98269865,3457826.2637753,3021786.64103009,-4956275.50245997,-2881.2241873426,6797.00118891166,2123.89333961551,-4.46832935818444,-3.90486303598786,6.40468017925012,6758705.25731137,1.26395925488209,-0.254299585041759,-0.180962646073308,-0.0168673287538676,-0.997713682478655,-0.427869838118421,2.08645849317059,-1.702236649182E-4,-0.0011044795545079,-1.835841567228E-4,390037.440744937,4.1261E-12,1008.67518675613,-4.46832935818444,-3.90486303598786,6.40468017925012
3360.0,4248122.43587055,-2104812.81662921,-4814734.46833338,3277047.45658069,3422265.04918104,-4817417.47456278,-3142.39139548227,6547.11230939444,2502.90074939254,-4.23388214730519,-4.4215004778089,6.22401051919742,6758705.25731135,1.26833452412105,-0.26687224141165,-0.179600844035126,-0.0102631649428554,-1.03254911220548,-0.472248913093695,2.14242477093305,-1.789597316539E-4,-0.0011027817516769,-1.865471037568E-4,389847.315493339,4.0405E-12,1002.35018218744,-4.23388214730519,-4.4215004778089,6.22401051919742
3420.0,4548331.21086524,-1822391.40674182,-4653616.65642226,3081032.55537879,3806832.28922279,-4656161.67486211,-3388.89796009001,6266.83667200968,2870.19690873113,-3.97983368360958,-4.91736426025484,6.01446065138056,6758705.25731137,1.27270979337429,-0.279601762203645,-0.178104802468601,-0.0030892857395758,-1.07144148241025,-0.514842806847298,2.20126306863971,-1.877893520212E-4,-0.0011009932765593,-1.894643008815E-4,389584.793015563,3.9645E-12,996.261682852623,-3.97983368360958,-4.91736426025484,6.01446065138056
3480.0,4829981.60138157,-1534079.37099422,-4470866.98285287,2870695.77500254,4173703.93925364,-4473262.18317232,-3619.60332637411,5957.48998279595,3224.0783133157,-3.70738245954033,-5.39016252103185,5.77702935268487,6758705.25731139,1.27708506262181,-0.292452880011639,-0.176465120898149,0.0046562884231267,-1.11461500720648,-0.555379771841321,2.26327420625767,-1.967089551491E-4,-0.0010991124309786,-1.923342975134E-4,389261.025460345,3.8971E-12,990.418976857426,-3.70738245954033,-5.39016252103185,5.77702935268487
3540.0,5091820.76416186,-1241044.96095539,-4267339.16339568,2647017.55505941,4521178.57987273,-4269573.41393967,-3833.4413952819,5620.52217336944,3562.9052635196,-3.41781082560789,-5.83771462537526,5.51284376901802,6758705.25731142,1.28146033186077,-0.305389302976372,-0.174673127899205,0.0129731851229024,-1.1622761790314,-0.593560580798847,2.32873359365917,-2.057148880089E-4,-0.0010971376003808,-1.951556485042E-4,388888.375709181,3.8374E-12,984.83354792797,-3.41781082560789,-5.83771462537526,5.51284376901802
3600.0,5332677.82486094,-944467.139149949,-4043983.14097823,2411039.94534908,4847645.64151578,-4046046.06022201,-4029.42536879816,5257.51042932342,3885.1093988768,-3.11247872731111,-6.25796099557181,5.22315373349759,6758705.25731145,1.28583560110829,-0.318373880143045,-0.172721055512856,0.0218587125080931,-1.21459245384295,-0.629059085803783,2.39787074247385,-2.148034177138E-4,-0.0010950672584739,-1.979269161699E-4,388480.161152714,3.7846E-12,979.518410621654,-3.11247872731111,-6.25796099557181,5.22315373349759
3660.0,5551469.14689763,-645530.841617143,-3801840.59168159,2163861.71203612,5151592.81617495,-3803722.59615654,-4206.65220956825,4870.15164762136,4189.20087528866,-2.7928171182278,-6.64897230868535,4.90932554536486,6758705.25731146,1.29021087036154,-0.331368777357511,-0.170602210248592,0.0313079095627061,-1.27166513356976,-0.661525134738027,2.47084286995221,-2.239707340625E-4,-0.0010928999717736,-2.006466723593E-4,388050.379095755,3.7377E-12,974.487308353996,-2.7928171182278,-6.64897230868535,4.90932554536486
3720.0,5747203.22888957,-345422.267215418,-3542040.01182636,1906633.18828032,5431613.00040192,-3543732.36030018,-4364.30669647736,4460.25436198266,4473.7751536958,-2.46032108477031,-7.0089580268213,4.57283524614044,6758705.25731146,1.29458613960906,-0.344335663257895,-0.168311137609541,0.0413136130938217,-1.33349720119156,-0.690590688017393,2.54770336381743,-2.332129523266E-4,-0.0010906344040376,-2.033135005582E-4,387613.418809879,3.6959E-12,969.753890386809,-2.46032108477031,-7.0089580268213,4.57283524614044
3780.0,5918985.20930263,-45324.2121930316,-3265791.41032474,1640550.8940644,5686410.73889448,-3267286.24403726,-4501.66505996531,4029.73017727267,4737.51937118593,-2.11654271864969,-7.33627422849457,4.21526143113355,6758705.25731144,1.29896140886516,-0.357235904662791,-0.165843777099729,0.051866540094598,-1.39995856594832,-0.715879902973716,2.62836757732428,-2.425261162787E-4,-0.0010882693205769,-2.05925998023E-4,387183.765564011,3.6582E-12,965.330935613627,-2.11654271864969,-7.33627422849457,4.21526143113355
3840.0,6066020.95864726,253588.532668806,-2974380.6321466,1366851.95086743,5914808.14048192,-2975671.01092114,-4618.09818302887,3580.58475566851,4979.21826783522,-1.76308377340358,-7.62943071388307,3.83827763571105,6758705.2573114,1.30333667810126,-0.370030770388127,-0.163197604761505,0.0629553837924039,-1.47075339576547,-0.737023610489669,2.71258064168036,-2.519062014594E-4,-0.0010858035924257,-2.084827779362E-4,386775.702188102,3.624E-12,961.229656334334,-1.76308377340358,-7.62943071388307,3.83827763571105
3900.0,6187620.74133583,550153.703303128,-2669163.34027699,1086808.31760952,6115750.24093734,-2670243.27434708,-4713.07435604885,3114.90839887979,5197.75964497674,-1.40158814142924,-7.88709736091698,3.44364433673823,6758705.25731138,1.30771194735164,-0.382681642254296,-0.16037176044213,0.0745669213829923,-1.54539642202574,-0.753677915109156,2.79989418958367,-2.613491186779E-4,-0.001083236200357,-2.109824715797E-4,386403.013852329,3.5923E-12,957.459093248619,-1.40158814142924,-7.88709736091698,3.44364433673823
3960.0,6283202.43132589,843225.987555542,-2351558.68492751,801720.874939562,6288309.78974038,-2352423.16233879,-4786.16157576286,2634.86627196277,5392.13933303789,-1.03373418784364,-8.10810971324198,3.03320061033478,6758705.25731136,1.31208721660202,-0.395150231785204,-0.157367157199115,0.0866861311928075,-1.6232062868902,-0.765545624808798,2.88966006744174,-2.708507177425E-4,-0.0010805662387277,-2.134237305169E-4,386078.701764991,3.5623E-12,954.025600337292,-1.03373418784364,-8.10810971324198,3.03320061033478
4020.0,6352294.26758809,1131681.33609167,-2023042.69000047,512913.38545338,6431691.44067859,-2023687.69946836,-4837.02938087603,2142.68831528507,5561.46564957191,-0.661226977183929,-8.29147378507256,2.60885548756137,6758705.25731131,1.31646248583812,-0.407398800862542,-0.15418657051859,0.0992963168146392,-1.70332292179535,-0.772398063235336,2.98104803116312,-2.80406791413E-4,-0.0010777929191395,-2.158052287786E-4,385814.711399472,3.5335E-12,950.93241195133,-0.661226977183929,-8.29147378507256,2.60885548756137
4080.0,6394537.1375536,1414421.14473738,-1685141.38789146,221726.357815343,6545235.3289929,-1685563.93701643,-4865.45021894869,1640.65889198022,5704.96333061485,-0.285790428484052,-8.43637007179605,2.17257904988609,6758705.25731124,1.3208377550885,-0.419390384392759,-0.150834705334162,0.112379235638763,-1.7847518186407,-0.77409393868036,3.07309029233796,-2.900130795686E-4,-0.0010749155739006,-2.181256650446E-4,385621.680649373,3.505E-12,948.179281680797,-0.285790428484052,-8.43637007179605,2.17257904988609
4140.0,6409686.37841133,1690376.29466377,-1339423.73465294,-70489.1569851197,6628420.02063154,-1339621.86341634,-4871.3003413145,1131.10621878862,5821.97692101052,0.0908405663632943,-8.54215675887873,1.72639330629406,6758705.25731122,1.32521302433889,-0.43108901287939,-0.147318239186729,0.125915229159852,-1.86643144607059,-0.77059181607708,-3.11843613550955,-2.996652735826E-4,-0.0010719336592743,-2.203837648138E-4,385508.712980258,3.4762E-12,945.762181604681,0.0908405663632943,-8.54215675887873,1.72639330629406
4200.0,6397613.08869023,1958511.03513008,-987494.338326779,-362377.808878585,6680864.82206133,-987467.127812361,-4854.56022485475,616.391628521823,5911.97361185434,0.466928026805931,-8.60837212514736,1.2723628937214,6758705.25731127,1.32958829359213,-0.442459932676369,-0.143645840250222,0.139883352485149,-1.94731320672927,-0.76195364509152,-3.02818804792904,-3.093590208938E-4,-0.0010688467585019,-2.225782825565E-4,385483.180197917,3.4466E-12,943.673050067569,0.466928026805931,-8.60837212514736,1.2723628937214
4260.0,6358304.94410368,2217826.69758826,-630986.033890348,-652586.203089095,6702331.44198478,-630733.610197746,-4815.31452147833,98.8987125213333,5974.54551569684,0.840738737104111,-8.63473613986027,0.812585642136846,6758705.25731129,1.33396356284251,-0.453469821632104,-0.139828159354088,0.154261500602336,-2.0264392538161,-0.748338584829493,-2.94028990413514,-3.190899297652E-4,-0.0010656545845856,-2.247080038405E-4,385550.558894136,3.4156E-12,941.899575306695,0.840738737104111,-8.63473613986027,0.812585642136846
4320.0,6291866.51406512,2467365.22865644,-271552.338747521,-939769.137373225,6692724.99921291,-271075.872086301,-4753.75153812622,-418.977608577182,6009.41137261375,1.21055203674088,-8.62115125613697,0.349183045085559,6758705.25731131,1.33833883208147,-0.464086997820654,-0.135877795551052,0.169026529184202,-2.10300420430426,-0.729988430982731,-2.85553074178902,-3.288535742162E-4,-0.0010623569828212,-2.267717474237E-4,385714.303970655,3.3829E-12,940.425000345193,1.21055203674088,-8.62115125613697,0.349183045085559
4380.0,6198519.07727146,2706212.53116178,89140.1769629215,-1222595.79408869,6652094.37383548,89838.4779886316,-4670.16225202838,-934.842037707453,6016.4176826784,1.57466751646254,-8.56770240628048,-0.115709324129117,6758705.25731128,1.34271410133185,-0.474281619093842,-0.131809235198705,0.184154368004983,-2.17639193642433,-0.707207540064519,-2.77451257018449,-3.386454991176E-4,-0.0010589539330665,-2.287683673066E-4,385975.761895448,3.3483E-12,939.232579627479,1.57466751646254,-8.56770240628048,-0.115709324129117
4440.0,6078599.93643344,2933501.60415974,449419.570773267,-1499755.85939577,6580631.90170325,450336.469657869,-4564.938867788,-1446.30983021339,5995.53926276213,1.93141258972052,-8.47465620730229,-0.579951411196953,6758705.25731125,1.34708937058509,-0.484025871271663,-0.127638764936359,0.199620125410028,-2.24618574854925,-0.680340761206453,-2.697640120275,-3.484612254347E-4,-0.0010554455517385,-2.306967547364E-4,386334.125531039,3.3118E-12,938.318173436004,1.93141258972052,-8.47465620730229,-0.579951411196953
4500.0,5932561.23505312,3148415.47175881,807616.224484597,-1769965.54234316,6478672.41507894,808747.472038809,-4438.57292464762,-1951.01765159383,5946.87922792861,2.27914991040423,-8.3424593875528,-1.04140825588993,6758705.25731123,1.35146463983547,-0.493294142912678,-0.123384359337165,0.215398182703314,-2.31215622206402,-0.64975251045215,-2.62513291530256,-3.582962556042E-4,-0.0010518320935254,-2.325558401559E-4,386786.431511737,3.2737E-12,937.676826215188,2.27914991040423,-8.3424593875528,-1.04140825588993
4560.0,5760968.28044309,3350189.89356882,1162070.52251825,-2031973.46714274,6346691.63511703,1163410.87673758,-4291.65296400463,-2446.63431780542,5870.66839997736,2.616284608896,-8.17173644777684,-1.4979595057955,6758705.25731118,1.35583990908586,-0.50206318476336,-0.119065544392369,0.231462277780442,-2.37423438006248,-0.615809121878006,-2.55705206986476,-3.681460790292E-4,-0.0010481139528091,-2.3434459509E-4,387327.600259837,3.2341E-12,937.298890214553,2.616284608896,-8.17173644777684,-1.4979595057955
4620.0,5564497.37938257,3538115.8497281,1511140.47780324,-2284566.41259157,6185303.92458816,1512683.72829251,-4124.86176888735,-2930.87137264564,5767.26414792501,2.94127131963399,-7.96328657216553,-1.94750883195233,6758705.2573112,1.36021517832195,-0.510312252167922,-0.114703238334859,0.247785577820381,-2.4324780573678,-0.578865461231304,-2.49333390213484,-3.780061776768E-4,-0.0010442916647864,-2.360620339628E-4,387950.517842736,3.1936E-12,937.170115116523,2.94127131963399,-7.96328657216553,-1.94750883195233
4680.0,5343933.1952147,3711541.79374142,1853209.27133412,-2526574.87334947,5995259.41196255,1854948.2681733,-3938.97318867606,-3401.49345773538,5637.14866738762,3.25262097452421,-7.71807980707561,-2.38799321063431,6758705.25731128,1.36459044757234,-0.518023228920332,-0.110319571628862,0.264340741339228,-2.48703779778678,-0.539255844129797,-2.43382404410633,-3.87872031761E-4,-0.0010403659062861,-2.377072158379E-4,388646.158008195,3.1523E-12,937.271190498078,3.25262097452421,-7.71807980707561,-2.38799321063431
4740.0,5100165.6359102,3869875.66929688,2186692.67201504,-2756878.41862344,5777440.5006037,2188619.358932,-3734.84856385967,-3856.32843174096,5480.9267079427,3.54890733769266,-7.43725252704947,-2.81739203653684,6758705.25731128,1.36896571681986,-0.52518073125129,-0.105937688239206,0.281099970384305,-2.5381263014795,-0.49728870842275,-2.37830802839212,-3.97739125494E-4,-0.0010363374962735,-2.392792460762E-4,389403.741916651,3.1107E-12,937.57505613114,3.54890733769266,-7.43725252704947,-2.81739203653684
4800.0,4834186.28630484,4012586.68516947,2510046.30401127,-2974410.82474061,5532857.77938804,2512151.7557084,-3513.43276705414,-4293.27719670883,5299.3227596038,3.82877325820556,-7.12210220961089,-3.23373603363927,6758705.2573113,1.37334098605596,-0.531772190859407,-0.101581530545688,0.298035054089283,-2.58599334069124,-0.453244230988257,-2.32653643546084,-4.076029528862E-4,-0.0010322073960402,-2.407772779048E-4,390210.932337635,3.0692E-12,938.046838370281,3.82877325820556,-7.12210220961089,-3.23373603363927
4860.0,4547084.39801516,4139206.84588693,2821772.72955749,-3178164.95910678,5262645.35355405,2824047.19302037,-3275.74987787756,-4710.32319072728,5093.17771153313,4.09093661850835,-6.77408154205058,-3.63511593104017,6758705.2573113,1.37771625531206,-0.537787916114246,-0.0972756104850874,0.315117405203436,-2.63090654341228,-0.407374056446709,-2.2782442047135,-4.174590235794E-4,-0.0010279767090755,-2.422005138902E-4,391054.058410094,3.029E-12,938.734150563983,4.09093661850835,-6.77408154205058,-3.63511593104017
4920.0,4240042.45233766,4249332.23617821,3120428.31601658,-3367197.39414242,4968055.6169894,3122861.25561598,-3022.89851057883,-5105.54150757278,4863.4449980495,4.33419595743701,-6.39479188506613,-4.01969087208046,6758705.25731132,1.38209152455673,-0.543221130777233,-0.0930447696855083,0.332318091535687,-2.67313755112849,-0.359902412947027,-2.23316460721028,-4.27302868692E-4,-0.0010236466806173,-2.435482073109E-4,391918.366499388,2.9921E-12,939.701703136625,4.33419595743701,-6.39479188506613,-4.01969087208046
4980.0,3914331.31509442,4342624.05598506,3404629.85694205,-3540632.73095929,4650453.48947873,3407210.00312354,-2756.04681455255,-5477.10760553757,4611.18624885961,4.55743574774404,-5.98597611970593,-4.38569652608366,6758705.25731134,1.38646679380997,-0.548067989805288,-0.0889139315049841,0.349607864504417,-2.71295265382722,-0.311028047056951,-2.19103878207915,-4.37130046658E-4,-0.001019218696883,-2.448196634239E-4,392788.292224599,2.9597E-12,941.000432505304,4.55743574774404,-5.98597611970593,-4.38569652608366
5040.0,3571305.00094743,4418809.40730873,3673060.91796651,-3697667.61378436,4311310.14465488,3675776.3193061,-2476.42716904426,-5823.30556926889,4337.56646225047,4.75963130915441,-5.54951090559846,-4.7314528730483,6758705.25731136,1.39084206306035,-0.552327572022233,-0.084907847999311,0.366957187146936,-2.75060691884457,-0.26092656655864,-2.15162182673372,-4.46936149041E-4,-0.0010146942839804,-2.460142406208E-4,393647.74838741,2.9334E-12,942.676157278402,4.75963130915441,-5.54951090559846,-4.7314528730483
5100.0,3212395.06926602,4477681.8315775,3924477.87951461,-3837574.41744932,3952196.25651497,3927315.95790444,-2185.33059445703,-6142.53589017358,4043.84872173089,4.93985333903049,-5.08739837994484,-5.05537163263054,6758705.25731136,1.3952173322993,-0.556001849667968,-0.0810508449221533,0.38433626401229,-2.78634091384075,-0.209752913182193,-2.11468634923215,-4.567168063036E-4,-0.0010100751065022,-2.471313514675E-4,394480.423308565,2.9143E-12,944.772629536759,4.93985333903049,-5.08739837994484,-5.05537163263054
5160.0,2839104.67338867,4519101.59912999,4157715.64961842,-3959704.59164048,3574774.7943758,4160663.25833218,-1884.10090371409,-6433.32273275557,3731.38847829911,5.09727204378545,-4.60175732822829,-5.35596330975678,6758705.25731137,1.39959260154969,-0.55909563506744,-0.0773665679036451,0.401715075333965,-2.8203792786208,-0.157643790079986,-2.0800242391043,-4.664676935135E-4,-0.0010053629658058,-2.481704636263E-4,395270.083969049,2.9039E-12,947.333379781584,5.09727204378545,-4.60175732822829,-5.35596330975678
5220.0,2453002.2866691,4542995.75278364,4371693.02149173,-4063491.6470405,3180793.39804406,4374736.50586695,-1574.12861811183,-6694.32065615409,3401.62742214384,5.23116085524839,-4.09481385906117,-5.6318438302155,6758705.25731138,1.40396787080293,-0.561616504903664,-0.0738777329605798,0.419063417756251,-2.85293056777406,-0.104719942870366,-2.04744724883719,-4.761845359669E-4,-0.0010005597979849,-2.491311006538E-4,396000.878355376,2.9032E-12,950.402978207825,5.23116085524839,-4.09481385906117,-5.6318438302155
5280.0,2055715.1312628,4549357.9074198,4565417.65199455,-4148453.76998763,2772076.36676211,4568542.91245728,-1256.84467301297,-6924.32076214042,3056.08696915346,5.340899717261,-3.56889161705903,-5.88174074060141,6758705.2573114,1.40834314003902,-0.563574702833099,-0.0706058844603246,0.436350953673279,-2.88418793777416,-0.0510882435449117,-2.01678683059672,-4.858631147106E-4,-9.956676715384E-4,-2.500128426747E-4,396657.631514987,2.9137E-12,954.027703536534,5.340899717261,-3.56889161705903,-5.88174074060141
5340.0,1648922.33597127,4538247.80916089,4737990.63868587,-4214196.05382475,2350516.29715196,4741183.19583249,-933.713939580401,-7122.25624290845,2696.36138911524,5.42597792888531,-3.02640156910988,-6.10449894803561,6758705.2573114,1.41271840928941,-0.564983021447761,-0.0675711635900306,0.453547270941166,-2.91433037782844,0.0031564407504825,-1.98789355244307,-4.954992719448E-4,-9.906887847436E-4,-2.508153269265E-4,397226.130028147,2.9368E-12,958.255321935886,5.42597792888531,-3.02640156910988,-6.10449894803561
5400.0,1234347.84991593,4509790.65853481,4888610.67481837,-4260412.33670632,1918065.40691612,4891855.73626005,-606.228589535272,-7287.20730416098,2324.11060392795,5.48599653173351,-2.46983140090024,-6.29908597617349,6758705.25731135,1.41709367853979,-0.565856664864618,-0.064792090270822,0.470621954351942,-2.94352428258473,0.0579295919368248,-1.96063632654335,-5.050889162889E-4,-9.856254627438E-4,-2.515382481758E-4,397693.389888018,2.9737E-12,963.133481553028,5.48599653173351,-2.46983140090024,-6.29908597617349
5460.0,813753.142319095,4464176.20162517,5016577.76336784,-4286886.63727249,1476726.5824562,5019860.29203496,-275.901330637504,-7418.40544125081,1941.05268552722,5.52067023010684,-1.90173456206915,-6.46459671515014,6758705.25731134,1.42146894779017,-0.566213093504946,-0.0622853613015354,0.487544669827523,-2.97192524039293,0.113155584517101,-1.93490161576303,-5.146280278921E-4,-9.804801543575E-4,-2.521813590024E-4,398047.903138283,3.026E-12,968.706148244866,5.52067023010684,-1.90173456206915,-6.46459671515014
5520.0,388929.717197218,4401657.59515278,5121296.47301131,-4293494.18128048,1028544.18983467,5124601.2566083,55.7414587710736,-7515.23704848337,1548.9560845276,5.52982883386081,-1.32471899988731,-6.60025764431813,6758705.25731132,1.4258442170377,-0.566071852907446,-0.0600656673176979,0.504285261818987,-2.99967996830772,0.168766408605048,-1.91059274034814,-5.241126633732E-4,-9.752554286231E-4,-2.527444699527E-4,398279.859037519,3.095E-12,975.007678423671,5.52982883386081,-1.32471899988731,-6.60025764431813
5580.0,-38308.5257958976,4322550.05132308,5202278.72086296,-4280202.01400212,575594.689626293,5205590.44215847,387.166667254253,-7577.24634412797,1149.63162181675,5.51341821521017,-0.74143562289404,-6.70543050791299,6758705.25731128,1.43021948627666,-0.56545438869073,-0.0581455309086284,0.520813863899612,-3.02692836968753,0.224700549988902,-1.88762937928997,-5.335389605739E-4,-9.699539710893E-4,-2.532274495611E-4,398381.335991112,3.1822E-12,982.05471207882,5.51341821521017,-0.74143562289404,-6.70543050791299
5640.0,-466133.052678079,4227229.26918319,5259146.06874585,-4247069.19494464,119977.097177062,5262449.37637867,716.841430406523,-7604.13759621649,744.924276487494,5.47150077205755,-0.154566537464246,-6.77961542516027,6758705.25731127,1.4345947555299,-0.564383850031688,-0.0565351679504378,0.537101022038817,-3.05380572704795,0.280902003944102,-1.86594734846123,-5.429031431089E-4,-9.645785798636E-4,-2.536302242398E-4,398346.46100483,3.2886E-12,989.837118024494,5.47150077205755,-0.154566537464246,-6.77961542516027
5700.0,-892708.54679672,4116129.65976139,5291631.52181069,-4194246.57322901,-336196.669394268,5294911.10128931,1043.24012382082,-7595.77663683257,336.704804559253,5.40425539188691,0.433186898191704,-6.82245341781964,6758705.25731129,1.43897002478028,-0.562884884245586,-0.0552423738882727,0.553117829557913,-3.08044507640771,0.337319399568949,-1.84549873809672,-5.522015247008E-4,-9.591321614348E-4,-2.539527780384E-4,398171.533961383,3.4149E-12,998.310429063299,5.40425539188691,0.433186898191704,-6.82245341781964
5760.0,-1316200.81691092,3989742.37285505,5299580.82040871,-4121976.14375706,-790811.510460248,5302821.46498042,1364.85133879251,-7552.19165531045,-73.1387760870774,5.3119769118121,1.01911615658481,-6.83372833976737,6758705.25731129,1.44334529401923,-0.560983425228409,-0.0542724363419766,0.568836072316579,-3.10697984438147,0.393905211611182,-1.82625250555354,-5.614305132856E-4,-9.536177262826E-4,-2.541951522749E-4,397855.114594501,3.5615E-12,1007.39281860893,5.3119769118121,1.01911615658481,-6.83372833976737
5820.0,-1734784.72888002,3848613.13400029,5282953.21827645,-4030589.98611166,-1241758.89193147,5286139.89934223,1680.18481043774,-7473.57326356717,-482.709798264292,5.19507507201998,1.6005177125832,-6.81336819495642,6758705.25731128,1.44772056326676,-0.558706478641146,-0.0536280750221664,0.584228382278212,-3.13354687097228,0.45061503649856,-1.8081956472631,-5.705866148763E-4,-9.480383842899E-4,-2.543574450402E-4,397398.070628919,3.7281E-12,1016.96886716106,5.19507507201998,1.6005177125832,-6.81336819495642
5880.0,-2146652.12728175,3693339.90040303,5241821.74229027,-3920508.78995843,-1686946.57428274,5244939.67904243,1987.77826779039,-7360.27382968279,-890.111618463514,5.05407296160211,2.17470525524316,-6.76144583197413,6758705.25731135,1.45209583251429,-0.556081906769461,-0.0533094095360985,0.599268397267342,3.1228953110681,0.507406908024054,-1.79133512056899,-5.796664371749E-4,-9.423973399746E-4,-2.544398105774E-4,396803.586163486,3.9141E-12,1026.90004978645,5.05407296160211,2.17470525524316,-6.76144583197413
5940.0,-2550019.71218083,3524570.34553194,5176372.93128989,-3792239.97254326,-2124308.27961119,5179407.65925266,2286.20417543723,-7212.80607881677,-1293.45631256129,4.88960495763222,2.73902188963001,-6.67817900545351,6758705.25731131,1.45647110176467,-0.553138215972965,-0.0533139552441456,0.613930924474547,3.09582084113789,0.564240625196402,-1.77570075950487,-5.886666929211E-4,-9.366978875567E-4,-2.544424585418E-4,396077.129993459,4.1186E-12,1037.03916455441,4.88960495763222,2.73902188963001,-6.67817900545351
6000.0,-2943136.83748776,3342999.18215545,5086906.05374874,-3646375.39570442,-2551813.25281505,5089843.4919056,2574.07633636077,-7031.84096359846,-1690.87335602245,4.70241416031714,3.29085227721161,-6.56392979678691,6758705.25731126,1.46084637101505,-0.549904349541911,-0.0536366469080837,0.628192105090807,3.0682427758692,0.621077059190016,-1.76134954193174,-5.975842029712E-4,-9.309434058783E-4,-2.543656531419E-4,395226.384194395,4.3403E-12,1047.24448961222,4.70241416031714,3.29085227721161,-6.56392979678691
6060.0,-3324293.1964582,3149365.33432063,4973831.80637194,-3483588.69163105,-2967475.67320374,4976658.32256949,2850.05632589053,-6818.20480924616,-2080.51824998888,4.49334932912914,3.82763466233262,-6.41920338894904,6758705.25731123,1.46522164025686,-0.546409488605219,-0.0542698894621963,0.642029577367213,3.03996452205069,0.677877396588757,-1.74837174166345,-6.06415899098E-4,-9.251373531944E-4,-2.542097121684E-4,394261.133917465,4.5779E-12,1057.390119559,4.49334932912914,3.82763466233262,-6.41920338894904
6120.0,-3691826.36036463,2944448.96917955,4837670.49802684,-3304632.20839594,-3369363.87325955,4840372.97235146,3112.8597270235,-6572.87574184865,-2460.58105440761,4.26336132700945,4.34687273136821,-6.24464619275794,6758705.25731123,1.46959690949868,-0.542682863485114,-0.0552036348475804,0.655422635396089,3.01075523830653,0.734602259643806,-1.73689977740055,-6.151588265056E-4,-9.19283261851E-4,-2.539750059131E-4,393193.119971978,4.83E-12,1067.37100223867,4.26336132700945,4.34687273136821,-6.24464619275794
6180.0,-4044129.13689936,2729068.39969637,4679049.72574307,-3110333.58806063,-3755609.32187466,4681615.61157535,3361.26213786722,-6296.9794114684,-2829.29478927102,4.01349908201241,4.84614725044317,-6.04104332458706,6758705.25731122,1.47397217874906,-0.538753577577832,-0.0564254834886946,0.668352380990546,2.98033608792154,0.791210616554459,-1.72712101877798,-6.238101460557E-4,-9.133847328697E-4,-2.536619559846E-4,392035.856388779,5.0951E-12,1077.1032591765,4.01349908201241,4.84614725044317,-6.04104332458706
6240.0,-4379656.71499939,2504076.86986638,4498701.55185176,-2901591.99188742,-4124415.33018369,4501118.93431323,3594.10492259218,-5991.78402498899,-3184.94366512746,3.74490507812662,5.32312742711324,-5.80931543838349,6758705.2573112,1.47834744799087,-0.534650445466942,-0.0579208086673141,0.680801866192791,2.9483606355291,0.847658347690732,-1.71929655079562,-6.323671361994E-4,-9.074454304555E-4,-2.532710340255E-4,390804.415761872,5.3715E-12,1086.52147344255,3.74490507812662,5.32312742711324,-5.80931543838349
6300.0,-4696933.56332297,2270359.23478936,4297459.19365599,-2679373.98888692,-4474065.43910647,4299716.84517375,3810.30067805698,-5658.69470691353,-3525.87110428037,3.45881038945099,5.77558194117336,-5.55051491783815,6758705.2573112,1.4827227172384,-0.530401846559289,-0.0596729017693693,0.692756224155469,2.91438611613503,0.903896251999369,-1.71378915613506,-6.408271946137E-4,-9.01469076448E-4,-2.528027603352E-4,389515.185747475,5.6576E-12,1095.57470343899,3.45881038945099,5.77558194117336,-5.55051491783815
6360.0,-4994560.05113402,2028828.54706355,4076253.2393253,-2444709.12557341,-4802931.44890638,4078340.67205254,4008.83838919536,-5299.24720961088,-3850.48751453875,3.15652927440633,6.20138958980803,-5.26582143767975,6758705.25731118,1.48709798648878,-0.526035595088748,-0.0616631361499423,0.704202786401533,2.87783010393522,0.959867132133195,-1.71110597708541,-6.491878395409E-4,-8.954594447303E-4,-2.522577024065E-4,388185.600650383,5.9512E-12,1104.22248468011,3.15652927440633,6.20138958980803,-5.26582143767975
6420.0,-5271218.76029589,1780422.56264708,3836107.40597641,-2198685.19638277,-5109481.05245825,3838014.92082074,4188.78824733134,-4915.10099778474,-4157.27777801587,2.83945334920724,6.59854949266128,-4.95653690631142,6758705.25731117,1.49147325573631,-0.521578826876318,-0.0638711471833743,0.715131184762645,2.83790312564856,1.01550132786646,-1.71196530271281,-6.574467108306E-4,-8.894203556174E-4,-2.516364733807E-4,386833.852536355,6.2498E-12,1112.43148056295,2.83945334920724,6.59854949266128,-4.95653690631142
6480.0,-5525680.45884675,1526100.17868578,3578133.85812714,-1942443.2357221,-5392285.03550335,3579852.59015305,4349.30610681869,-4508.03173518624,-4444.80841830733,2.50904536238739,6.96519080310262,-4.62407980535654,6758705.25731117,1.49584852498669,-0.517057902783462,-0.0662750259403311,0.72553343660955,2.79350029520738,1.07070955056803,-1.71740439589765,-6.656015706855E-4,-8.833556702374E-4,-2.509397304275E-4,385478.586764102,6.5507E-12,1120.17298611683,2.50904536238739,6.96519080310262,-4.62407980535654
6540.0,-5756809.70773951,1266837.81593786,3303528.1068791,-1677172.25405543,-5650024.0089471,3305050.06686771,4489.63755678626,-4079.92320478465,-4711.73441041517,2.16683259473832,7.2995818730232,-4.269978945105,6758705.25731117,1.50022379422564,-0.512498328365024,-0.0688515238606056,0.735404012307049,2.74302050756027,1.12537083239106,-1.72895981497991,-6.736503041142E-4,-8.772692849259E-4,-2.501681730569E-4,384138.587218908,6.8507E-12,1127.42122759453,2.16683259473832,7.2995818730232,-4.269978945105
6600.0,-5963570.07345634,1003625.75957021,3013563.51228579,-1404103.74177767,-5881494.64022142,3014881.62425158,4609.12158630838,-3632.75869672924,-4956.80559902877,1.81439991156648,7.60013881993206,-3.89586665832817,6758705.25731109,1.50459906347603,-0.507924688833584,-0.0715762657668088,0.744739884139693,2.68405234330402,1.1793112055786,-1.74898107173052,-6.81590919093E-4,-8.711651256475E-4,-2.493225413697E-4,382832.45683774,7.1463E-12,1134.152291598,1.81439991156648,7.60013881993206,-3.89586665832817
6660.0,-6145028.92130741,737464.470255397,2709585.41338224,-1124505.96587975,-6085615.35288502,2710693.54786527,4707.19382300895,-3168.61190145681,-5178.87269222614,1.45338249666636,7.86543344695148,-3.50347145842986,6758705.25731112,1.50897433272355,-0.503360598100927,-0.0744239685860653,0.753540556252641,2.61280454713461,1.23226381319082,-1.78119975694757,-6.894215464422E-4,-8.650471424622E-4,-2.484036142525E-4,381578.299230363,7.4336E-12,1140.34349695512,1.45338249666636,7.86543344695148,-3.50347145842986
6720.0,-6300361.76523947,469360.880212353,2393004.91227865,-839678.085553226,-6261431.46596364,2393897.91524973,4783.38932694488,-2689.63734819774,-5376.89279932201,1.08545829982433,8.09420046854433,-3.09461019139011,6758705.25731112,1.51334960196536,-0.498828660375305,-0.0773686632093295,0.761808075428429,2.52303006605341,1.28378953847161,-1.83180514280094,-6.971404394225E-4,-8.5891930405E-4,-2.474122075249E-4,380393.407308938,7.7087E-12,1145.97304052017,1.08545829982433,8.09420046854433,-3.09461019139011
6780.0,-6428856.15245173,200324.686508425,2065292.34054099,-550944.113913069,-6408119.74703137,2065966.05777769,4837.34492359343,-2198.06043188691,-5549.93448346055,0.712340231977302,8.28534399744722,-2.67117971440344,6758705.25731109,1.51772487121575,-0.494350442572217,-0.080383917015632,0.769547022770447,2.40394132690523,1.33310856768426,-1.91152857810754,-7.047459730569E-4,-8.527855923111E-4,-2.463491720464E-4,379293.964830813,7.9672E-12,1151.01977092203,0.712340231977302,8.28534399744722,-2.67117971440344
6840.0,-6529915.06275659,-68635.3452687422,1727970.43778375,-259646.753925117,-6524992.35569229,1728421.73459591,4868.8010618807,-1696.16707406758,-5697.18230162555,0.335768144326309,8.43794325133707,-2.23514813748018,6758705.2573111,1.52210014046327,-0.489946455646545,-0.0834430547156664,0.776764486585677,2.23633160932262,1.37872340286153,-2.03952181685549,-7.122366431872E-4,-8.466499970529E-4,-2.452153917878E-4,378294.766624787,8.2049E-12,1155.4629161549,0.335768144326309,8.43794325133707,-2.23514813748018
