time,gePosition_m_X,gePosition_m_Y,gePosition_m_Z,eiPosition_m_X,eiPosition_m_Y,eiPosition_m_Z,eiVelocity_m_s_X,eiVelocity_m_s_Y,eiVelocity_m_s_Z,eiAccel_m_s2_X,eiAccel_m_s2_Y,eiAccel_m_s2_Z,semiMajorAxis_m,gast_rad,eulerAngle_rad_Roll,eulerAngle_rad_Pitch,eulerAngle_rad_Yaw,eulerAngleWrtEi_rad_Roll,eulerAngleWrtEi_rad_Pitch,eulerAngleWrtEi_rad_Yaw,bodyAngularRateWrtEi_rad_s_Roll,bodyAngularRateWrtEi_rad_s_Pitch,bodyAngularRateWrtEi_rad_s_Yaw,altitudeMsl_m,airDensity_kg_m3,ambientTemperature_dgK,eiGravitation_m_s2_X,eiGravitation_m_s2_Y,eiGravitation_m_s2_Z
0.0,-1428622.33421605,4163200.23408807,5136049.85325658,-4292653.41,955168.470000001,5139356.57,109.64966300148,-7527.72649000027,1484.52148900137,5.52898656935719,-1.23026788740986,-6.61954989994584,6758662.11722982,1.02331933954551,0.0,-0.202458193231342,0.0,-2.47159390535496,-0.0371889644762902,-1.42899313488834,0.0,-0.0011344542745508,0.0,398254.54116932,3.4018E-12,990.9677734375,5.52898656935719,-1.23026788740986,-6.61954989994584
60.0,-1789712.66688801,3920255.07286153,5213136.77866225,-4276130.76360603,501640.150638707,5216447.94770985,440.899504427431,-7584.04304560393,1084.18939672429,5.50841669093311,-0.646201702281487,-6.719712406156,6758662.11722981,1.02769460895833,-2.3649933813E-6,-0.202456042614911,-1.006005802222E-4,-2.47205929657805,0.016120423673933,-1.3866611796641,-7.049133021E-7,-0.0011344779883362,-3.3028527039E-6,398336.992349355,3.2024E-12,984.492431640625,5.50841669093311,-0.646201702281487,-6.719712406156
120.0,-2144732.04662905,3662345.06425589,5266057.40817693,-4239785.46485052,45786.4492663021,5269357.68010088,770.149856362154,-7605.2077588941,678.777242700872,5.46236021841777,-0.058989324126963,-6.78881750197518,6758662.11722981,1.03206987837114,-2.51197970277E-5,-0.202449046803757,-4.002575139566E-4,-2.47030794948929,0.0692802951959352,-1.34410218239053,-1.5682337123E-6,-0.0011344959092939,-6.615081428E-6,398282.351312264,3.31E-12,992.429565429687,5.46236021841777,-0.058989324126963,-6.78881750197518
180.0,-2492166.13162718,3390598.74813122,5294563.01581385,-4183783.25764123,-410279.480789338,5297837.0895684,1095.87688043119,-7591.11290731518,270.1592543332,5.39101509822649,0.528665740843096,-6.82652947798967,6758662.11722984,1.03644514778395,-9.17988451877E-5,-0.202436413625704,-8.945341370665E-4,-2.46631584767121,0.122194573081339,-1.30107628417491,-2.589767053E-6,-0.0011345075710701,-9.9359410654E-6,398087.267115198,3.4386E-12,1001.05029296875,5.39101509822649,0.528665740843096,-6.82652947798967
240.0,-2830524.93703077,3106195.59239715,5298517.77706277,-4108380.89026428,-864442.894077582,5301750.47079932,1416.57209400392,-7541.81319429672,-139.774483846494,5.29469509567205,1.11405482451913,-6.8326557264296,6758662.11722987,1.04082041719676,-2.259053144173E-4,-0.202417401914554,-0.0015773854823156,-2.46003131551215,0.174763491844175,-1.25733917128852,-3.7692822606E-6,-0.0011345124462374,-1.32646798766E-5,397750.659501357,3.5884E-12,1010.26550292968,5.29469509567205,1.11405482451913,-6.8326557264296
300.0,-3158349.27065452,2810360.86253624,5277899.46242089,-4013924.98616862,-1314597.20057474,5281075.7837958,1730.74928790111,-7457.5256937731,-549.126655786194,5.17382866282707,1.69447627941298,-6.80714795491118,6758662.11722986,1.04519568660958,-4.50797388064E-4,-0.202391344152062,-0.0024411867660691,-2.45137464563152,0.226881529601637,-1.21263857844627,-5.1065108489E-6,-0.0011345099468991,-1.66005389141E-5,397273.760669469,3.7594E-12,1019.95324707031,5.17382866282707,1.69447627941298,-6.80714795491118
360.0,-3474217.08356248,2504360.33240143,5232799.61189834,-3900850.50203059,-1758653.68795009,5235904.82755119,2036.95136094596,-7338.62906255893,-956.001393644212,5.0289572988201,2.26724769265309,-6.75010277495491,6758662.11722984,1.04957095602238,-7.895747310468E-4,-0.202357666624309,-0.0034767694934713,-2.44023743940519,0.278435209190912,-1.16671093034125,-6.6011463063E-6,-0.0011344994253703,-1.99427514561E-5,396660.117186776,3.9509E-12,1029.97082519531,5.0289572988201,2.26724769265309,-6.75010277495491
420.0,-3776749.70791139,2189494.85846839,5163423.18837942,-3769678.77900081,-2194551.17459288,5166442.89226219,2333.75704093164,-7185.66202019759,-1358.51297383502,4.8607334037903,2.82971808104518,-6.66176165594942,6758662.11722984,1.0539462254352,-0.0012649656658181,-0.202315906339464,-0.0046734650107374,-2.42648179092002,0.329300716765412,-1.11927819399975,-8.25284343E-6,-0.0011344801749376,-2.32905424503E-5,395915.551844032,4.162E-12,1040.1689453125,4.8607334037903,2.82971808104518,-6.66176165594942
480.0,-4064617.95455067,1867094.84019274,5070087.71000333,-3621015.19485857,-2620265.54951372,5073007.89024537,2619.78746171101,-6999.32109896113,-1754.79449109273,4.66991762971271,3.37928001560925,-6.54251023745121,6758662.11722982,1.05832149484801,-0.00189921555671,-0.202265724027095,-0.0060191552899964,-2.40993951105976,0.379341293355958,-1.07004508673881,-1.00612175976E-5,-0.001134451430697,-2.66431279689E-5,395048.085877479,4.3915E-12,1050.40612792968,4.66991762971271,3.37928001560925,-6.54251023745121
540.0,-4336548.04310486,1538514.58951118,4953221.86403547,-3455546.42660893,-3033819.15548765,4956028.96803487,2893.71256636928,-6780.45766980717,-2143.00647189824,4.45737573340016,3.91338162296542,-6.39287699509382,6758662.11722981,1.06269676426082,-0.0027139769245974,-0.202206912629505,-0.0075003306926896,-2.39041168720881,0.428404367937058,-1.0186968894401,-1.202584398E-5,-0.001134412370472,-2.99997146785E-5,394067.822610533,4.6383E-12,1060.55859375,4.45737573340016,3.91338162296542,-6.39287699509382
600.0,-4591327.33761593,1205126.63283089,4813363.60702585,-3274037.33484955,-3433289.97225013,4816044.60446501,3154.25730682394,-6530.07425328243,-2521.34538840811,4.22407493918241,4.42953841007267,-6.21353125792628,6758662.11722981,1.06707203367362,-0.0037302018258212,-0.202139400800967,-0.0091021544224583,-2.36766901631604,0.476318424105451,-0.964898263033981,-1.41462566979E-5,-0.0011343621158125,-3.33594993257E-5,392986.794192961,4.901E-12,1070.52355957031,4.22407493918241,4.42953841007267,-6.21353125792628
660.0,-4827809.86129808,868315.969071724,4651157.75838314,-3077327.48299857,-3816820.55719292,4653700.20187493,3400.20761071461,-6249.32012759444,-2888.05203397277,3.97107982105355,4.92534485815665,-6.00528057770799,6758662.11722982,1.07144730308643,-0.0049680370374619,-0.202063251049477,-0.010808533348684,-2.34145354562885,0.522889633074972,-0.908293668095506,-1.64219479237E-5,-0.0011342997330758,-3.67216682397E-5,391818.773731068,5.1781E-12,1080.21948242187,3.97107982105355,4.92534485815665,-6.00528057770799
720.0,-5044921.56455813,529474.307458965,4467353.0968242,-2866327.30620439,-4182626.70183835,4469745.17990494,3630.41608710393,-5939.48624933605,-3241.41972144849,3.6995477164527,5.3984857312233,-5.76906745354909,6758662.11722981,1.07582257249925,-0.0064467225938457,-0.20197865228513,-0.0126021948572383,-2.31148271250442,0.567898352242352,-0.848510249397067,-1.88523669335E-5,-0.0011342242345904,-4.0085396856E-5,390579.055703467,5.4681E-12,1089.58361816406,3.6995477164527,5.3984857312233,-5.76906745354909
780.0,-5241665.32116445,189994.308806901,4262798.97147704,-2642013.94644313,-4529005.76339754,4265029.58367401,3843.80744331334,-5601.99950563128,-3579.80226580021,3.41072368628999,5.846747044375,-5.50596541829331,6758662.1172298,1.08019784191205,-0.0081844942159145,-0.20188590667692,-0.014464769366159,-2.27745688458722,0.611095692257017,-0.78516436137589,-2.14369191117E-5,-0.001134134579904,-4.34498492607E-5,389284.208134281,5.7689E-12,1098.56665039062,3.41072368628999,5.846747044375,-5.50596541829331
840.0,-5417125.62830558,-148736.146016441,4038441.44171074,-2405426.77194258,-4854344.63194323,4040500.22042439,4039.38358616932,-5238.41631975566,-3901.62171297017,3.10593503833352,6.26802663725345,-5.21717449618125,6758662.1172298,1.08457311132487,-0.010198490164688,-0.201785410862984,-0.0163768781301441,-2.2390719255787,0.652200508187226,-0.717873238056855,-2.41749649113E-5,-0.0011340296771168,-4.68141777596E-5,387951.800540123,6.0783E-12,1107.12976074218,3.10593503833352,6.26802663725345,-5.21717449618125
900.0,-5570472.98726818,-485339.636897017,3795318.96202706,-2157662.60064273,-5157127.29514892,3797196.34098206,4216.2283820388,-4850.41563555417,-4205.37577765619,2.78658543361583,6.66034429835499,-4.90401604458825,6758662.1172298,1.08894838073768,-0.01250466303217,-0.20167763170477,-0.0183182259486191,-2.19603855333332,0.690897380047393,-0.646273555586397,-2.7065818775E-5,-0.0011339083843006,-5.01775224717E-5,386600.112168255,6.3938E-12,1115.24084472656,2.78658543361583,6.66034429835499,-4.90401604458825
960.0,-5700967.94258045,-818454.811245904,3534557.63056348,-1899870.64890283,-5435941.96416304,3536244.88459791,4373.51205128858,-4439.79130921397,-4489.64495351173,2.45414859808007,7.02185138672442,-4.56792699598553,6758662.11722981,1.09332365015049,-0.015117696957206,-0.201563076920629,-0.0202676983868705,-2.14811022807553,0.726836409316631,-0.570048609223547,-3.01087480198E-5,-0.0011337695110054,-5.35390109515E-5,385247.825488108,6.7121E-12,1122.87268066406,2.45414859808007,7.02185138672442,-4.56792699598553
1020.0,-5807964.75883025,-1146741.8974116,3257366.0184992,-1633247.22489651,-5689487.72776866,3258855.3044749,4510.49549342993,-4008.44411566333,-4753.09960275388,2.11017766401997,7.35083138935801,-4.21047073347448,6758662.97967099,1.0976989195633,-0.0180312508959384,-0.201440742284837,-0.0222029825522763,-2.09510240622703,0.759635610533748,-0.4889673700604,-3.13276184908E-5,-0.0011334620644098,-5.68336756132E-5,383913.709339182,7.0298E-12,1130.00073242187,2.11016166099095,7.350839903969,-4.21045351701464
1080.0,-5890914.71528137,-1468888.13444222,2965029.57184993,-1359030.16173042,-5916580.71642529,2966313.96546281,4626.53357140695,-3558.37281204953,-4994.50598440737,1.75623431787796,7.64574409324768,-3.83326181337191,6758665.56707861,1.10207418897612,-0.0210004624894769,-0.201291469374466,-0.0241032371124478,-2.03673693177043,0.788878931219522,-0.402950837185764,-2.87594683537E-5,-0.0011328472258161,-6.00135499631E-5,382616.292530016,7.3429E-12,1136.60229492187,1.75621811272629,7.64575100111305,-3.83324407424895
1140.0,-5949368.99647928,-1783612.94318531,2658904.75463666,-1078493.14986743,-6116159.67263101,2659978.28302558,4721.07730225706,-3091.66452209151,-5212.73110917832,1.3939768903288,7.90517738592967,-3.43806023605653,6758668.15461565,1.10644945838892,-0.0239539059118798,-0.201109906471975,-0.0259680033339822,-1.97307894094903,0.814128777289285,-0.312078197009862,-2.63541599138E-5,-0.001132229837809,-6.32142520005E-5,381373.56989956,7.6471E-12,1142.65649414062,1.39396055674222,7.90518265547913,-3.43804205783258
1200.0,-5982981.17371761,-2089673.03113679,2340412.76366412,-792939.810693071,-6287291.00804332,2341270.43359739,4793.67817655678,-2610.48598864587,-5406.74991503108,1.02508950130848,8.12789321511484,-3.02669639548116,6758670.74228559,1.11082472780174,-0.0268986017296901,-0.200896838834968,-0.0278001265978359,-1.90450324220751,0.8349527454308,-0.216659240774943,-2.4111838508E-5,-0.0011316099433938,-6.6435004448E-5,380202.681261309,7.9379E-12,1148.142578125,1.02507311327023,8.12789682235495,-3.02667786383122
1260.0,-5991509.25309049,-2385867.30937163,2011032.93266965,-503697.623351412,-6429173.26606757,2011670.75417208,4843.98978179891,-2117.07315668523,-5575.64956480712,0.65128993604105,8.31282389181335,-2.6010792910795,6758673.33009115,1.11519999721455,-0.0298418591293366,-0.200653111234122,-0.0296018792856016,-1.83166198980965,0.850949426048927,-0.117283623886411,-2.20326110525E-5,-0.0011309875198022,-6.96750338271E-5,379119.610908632,8.2104E-12,1153.04113769531,0.651273567502389,8.31282582042597,-2.60106049338221
1320.0,-5974817.27867602,-2671041.59134918,1672295.86724051,-212111.743133976,-6541140.9638641,1672710.87255274,4871.76958175369,-1613.72078021517,-5718.63389990781,0.274321594666321,8.45907766557629,-2.16318770434861,6758675.91803409,1.11957526662736,-0.0327912366575878,-0.200379622927925,-0.0313749504587958,-1.75549572251893,0.861778776776682,-0.0148314177725659,-2.01165462411E-5,-0.0011303624781215,-7.29335698898E-5,378138.911352316,8.4599E-12,1157.33276367187,0.274305319220044,8.45907790698194,-2.16316872927023
1380.0,-5932876.48069224,-2944093.06939527,1325776.32872891,80461.2722936499,-6622667.80122393,1325966.58650326,4876.88020746908,-1102.7717192072,-5835.0273526425,-0.104054729495518,8.565943476126,-1.71506098469659,6758678.50611537,1.12395053604017,-0.0357545016087221,-0.200077322025939,-0.0331204384876006,-1.67720178560168,0.867192875368858,0.0895589281299286,-1.83636746638E-5,-0.0011297346630062,-7.62098450344E-5,377273.452109115,8.6818E-12,1160.99865722656,-0.104070838939074,8.56594202951177,-1.71504192177018
1440.0,-5865765.95967363,-3203974.55093779,973085.900300576,372659.79924132,-6673369.21921691,973050.52495973,4859.29025083099,-586.605976990494,-5924.27829507399,-0.482069202682418,8.63289484786617,-1.25878948759422,6758681.09433504,1.12832580545299,-0.0387395882593002,-0.19974719922785,-0.0348388466475617,-1.59815567584228,0.867061315283562,0.194569681227319,-1.67739888437E-5,-0.0011291038524756,-7.95030937101E-5,376534.198575817,8.8718E-12,1164.02111816406,-0.482085074215517,8.63289172017839,-1.25877042679586
1500.0,-5773672.89981349,-3449698.43766017,615865.469502671,663123.516862674,-6693004.29460112,615604.625710475,4819.07455407362,-67.6295304285893,-5985.96180486294,-0.857951392509279,8.65959289803724,-0.796504710935691,6758683.68269235,1.13270107486579,-0.0417545551586518,-0.199390280923172,-0.0365300816904542,-1.51979513987629,0.861385538052831,0.298820153463416,-1.53474431931E-5,-0.001128469757793,-8.28125518108E-5,375930.025480252,9.0261E-12,1166.38513183593,-0.857966955541651,8.65958810393887,-0.796485742259616
1560.0,-5656892.30678192,-3680340.43191141,255777.562822543,950499.77816476,-6681476.95917127,255292.465039561,4756.41399118629,451.736993175184,-6019.7818314476,-1.22993875563049,8.64588843390885,-0.33036917814569,6758686.27118586,1.1370763442786,-0.0448075416890858,-0.199007621636054,-0.0381934553836357,-1.44349038483784,0.850298534820335,0.400996908954833,-1.4083953889E-5,-0.0011278320234292,-8.61374560598E-5,375467.568738903,9.1417E-12,1168.07788085937,-1.22995394119754,8.64588199570183,-0.330350391180223
1620.0,-5515826.26755271,-3895042.95596176,-105501.431380821,1233449.95261663,-6638836.53650243,-106208.52426101,4671.59473979003,969.069737170577,-6025.57274887929,-1.59628512696928,8.59182311934489,0.137433881069706,6758688.8598135,1.14145161369142,-0.047906724114654,-0.198600295801056,-0.0398276890004888,-1.3704292137978,0.834049988284388,0.499969045085699,-1.29833986672E-5,-0.0011271902271086,-8.94770433896E-5,375151.118785663,9.2163E-12,1169.08959960937,-1.5962998680323,8.59181506685794,0.137452397563511
1680.0,-5350982.73204311,-4093018.27101361,-466289.114462764,1510655.70980923,-6565277.59189343,-467214.909376817,4565.00704473759,1481.95307835397,-6003.30028475149,-1.95526916549106,8.49762969630595,0.604710999376424,6758691.44857271,1.14582688310422,-0.051060271340548,-0.198169388859352,-0.0414309207333313,-1.30154004411206,0.812980533732709,0.594865594960934,-1.20456165375E-5,-0.0011265438799388,-9.28305503152E-5,374982.55758519,9.2485E-12,1169.41381835937,-1.9552833972281,8.49762006674836,0.60472915788157
1740.0,-5162973.81867189,-4273551.28426865,-824904.965949259,1780825.21377532,-6461139.09471561,-826045.150783564,4437.14347740654,1987.99107446214,-5953.06181789046,-2.30520271106512,8.3637312523263,1.06926903520038,6758694.03746048,1.15020215251704,-0.0542763006070187,-0.197715987670423,-0.0430007159892026,-1.23746206913619,0.787490882185771,0.685105796928671,-1.12704074194E-5,-0.0011258924266235,-9.61972123067E-5,374961.340629838,9.238E-12,1169.0478515625,-2.3052163711513,8.36372009010835,1.06928674985431
1800.0,-4952513.64826277,-4436002.0337998,-1179678.2308757,2042699.19789861,-6326902.89580463,-1181027.49437526,4288.59669738724,2484.81883899707,-5875.08604079848,-2.64443900685412,8.1907395306728,1.52892577482891,6758696.62647359,1.15457742192984,-0.0575628333420453,-0.197241170241879,-0.0445340805184243,-1.17855764530078,0.758011506258742,0.770387155624032,-1.06575316999E-5,-0.0011252352457587,-9.957626316E-5,375084.524266218,9.1855E-12,1167.99255371093,-2.64445203573009,8.1907268871937,1.52894296182559
1860.0,-4720415.71304859,-4579807.84247487,-1528955.76788097,2295056.89082491,-6163191.52597826,-1530507.82425758,4120.05672599607,2970.11378598929,-5769.73198623235,-2.9713807419051,7.9794522857127,1.98152051624285,6758699.21560882,1.15895269134266,-0.0609277513956937,-0.196745994789582,-0.0460274763155747,-1.12495325683767,0.724976973589788,0.850644949110733,-1.02067097151E-5,-0.0011245716502129,-1.029669343702E-4,375346.83773289,9.0926E-12,1166.2529296875,-2.97139308303248,7.97943821911706,1.98153709422493
1920.0,-4467589.78984724,-4704485.13372583,-1871109.81999518,2536721.76443545,-5970765.32519811,-1872857.43812185,3932.30774374759,3441.60668763562,-5637.48742073755,-3.28448786919646,7.73084969193098,2.42492457714643,6758701.8048629,1.16332796075546,-0.0643787538762632,-0.196231488151368,-0.0474768402227585,-1.07659362550061,0.688806866383584,0.925998622217525,-9.9176211573E-6,-0.0011239008875923,-1.063684545079E-4,375740.798342389,8.9618E-12,1163.83813476562,-3.2844994692992,7.73083426683481,2.42494046758545
1980.0,-4195038.40877718,-4809630.90353276,-2204545.67033182,2766567.07575068,-5750518.91529873,-2206480.70738807,3726.22442657862,3897.09248843245,-5478.96661141671,-3.5822851553253,7.44608982099165,2.8570516695373,6758704.39423299,1.16770323016828,-0.0679233148038889,-0.195698633590514,-0.0488776051554629,-1.03329660408837,0.649893412117341,0.996697435443836,-9.7899044087E-6,-0.0011232221407894,-1.097800486011E-4,376256.867334974,8.7965E-12,1160.76196289062,-3.58229596461579,7.44607310817932,2.85706679710058
2040.0,-3903852.90717687,-4894923.84239549,-2527709.13364741,2983521.16732102,-5503477.04647506,-2529822.57305117,3502.76742821287,4334.44011945735,-5294.9068928277,-3.86337937532511,7.12648529087482,3.27588235639495,6758705.25738169,1.17207849958109,-0.0716474841683452,-0.195154496950219,-0.0502256767679458,-0.994877329382481,0.608590402968275,1.06307819107068,-1.3771220073E-5,-0.0011228288279001,-1.133264888529E-4,376883.646349905,8.6004E-12,1157.04284667968,-3.86337937532511,7.12648529087482,3.27588235639495
2100.0,-3595209.07365478,-4960125.10822543,-2839093.8574637,3186572.50775891,-5230789.8285709,-2841375.85091105,3262.97991936175,4751.60435712689,-5086.16671709906,-4.12642542036147,6.77356754463539,3.67941589637528,6758705.25738169,1.1764537689939,-0.0758160123198918,-0.194619272727696,-0.0515065245223452,-0.961278626540301,0.565213902446961,1.12554039681508,-1.98753813435E-5,-0.0011225458400758,-1.169238497262E-4,377608.10237954,8.3781E-12,1152.70361328125,-4.12642542036147,6.77356754463539,3.67941589637528
2160.0,-3270362.28944863,-5005078.76114854,-3137248.47362123,3374774.50090111,-4933727.2720418,-3139688.38708005,3007.98196175348,5146.63463945395,-4853.72066050458,-4.37019531837032,6.38897556581508,4.06576839036065,6758705.25738169,1.18082903840671,-0.0804579444723881,-0.194093852276417,-0.0526888831116565,-0.932199956120907,0.520066344040619,1.18449311507648,-2.61274696453E-5,-0.0011222186616664,-1.205042364189E-4,378415.805106968,8.1342E-12,1147.77319335937,-4.37019531837032,6.38897556581508,4.06576839036065
2220.0,-2930642.41976779,-5029711.82840519,-3420783.39460634,3547249.91937898,-4613673.36588035,-3423369.85798906,2738.96501421725,5517.68397881898,-4598.65454315602,-4.59354180253403,5.97451601975638,4.43312225121166,6758705.25738168,1.18520430781953,-0.0855804940628546,-0.193577183408459,-0.0537405841956668,-0.907328996292653,0.473417072220209,1.24034442142521,-3.25257748571E-5,-0.0011218449357521,-1.240664399031E-4,379291.220475786,7.8735E-12,1142.28466796875,-4.59354180253403,5.97451601975638,4.43312225121166
2280.0,-2577448.31133939,-5034034.02877717,-3688377.34775262,3703195.03097158,-4272119.57964882,-3691098.30805087,2457.1864849406,5863.01809935648,-4322.16057457673,-4.79541472182094,5.53213777678151,4.77975019357044,6758705.25738171,1.18957957723233,-0.0911885714292179,-0.193067754682082,-0.0546294355931463,-0.886373858600212,0.425504494801077,1.2934903111924,-3.90685055242E-5,-0.0011214222925079,-1.276092295893E-4,380218.008045422,7.6008E-12,1136.27783203125,-4.79541472182094,5.53213777678151,4.77975019357044
2340.0,-2212241.95476799,-5018137.15403817,-3938783.58773365,3841883.37761518,-3910657.85039386,-3941626.36536379,2163.96374860581,6181.0236880444,-4025.53168089667,-4.97486615358075,5.06392242188149,5.10402364355007,6758705.25738169,1.19395484664514,-0.0972847529038499,-0.192563529894118,-0.055323386315974,-0.869070815744881,0.376540103788602,1.34430806779824,-4.57537872119E-5,-0.0011209483530706,-1.311313538223E-4,381179.329197401,7.3208E-12,1129.79650878906,-4.97486615358075,5.06392242188149,5.10402364355007
2400.0,-1836542.34121657,-4982194.11243981,-4170835.7541139,3962669.18654705,-3530973.0919904,-4173787.10220542,1860.66787227482,6470.21605591165,-3710.155342365,-5.13105499489857,4.57207409137701,5.40442064432724,6758705.25738169,1.19833011605796,-0.103869260194048,-0.192061887381352,-0.0557906931373745,-0.855188284127428,0.326712522081201,1.39315350850544,-5.25796609615E-5,-0.0011204207335217,-1.346315404558E-4,382158.161233549,7.0379E-12,1122.89221191406,-5.13105499489857,4.57207409137701,5.40442064432724
2460.0,-1451919.04055226,-4926457.64138032,-4383453.34552502,4064990.39706202,-3134835.26348577,-4386499.51186899,1548.71708206045,6729.24617065789,-3377.50697273687,-5.26325100784286,4.0589086930901,5.67953321450232,6758705.25738171,1.20270538547076,-0.110939949845065,-0.191559566133891,-0.0560000879748267,-0.844528376590325,0.276191367617751,1.4403608075318,-5.95440818576E-5,-0.0011198370489809,-1.381084975075E-4,383137.611369779,6.7562E-12,1115.62048339843,-5.26325100784286,4.0589086930901,5.67953321450232
2520.0,-1059985.52955193,-4851258.6978732,-4575646.78400198,4148371.28832545,-2724091.03523325,-4578773.57536452,1229.57000400926,6956.9070254878,-3029.14287457499,-5.37083829723153,3.52684257032395,5.92807411962547,6758705.25738169,1.20708065488357,-0.118492312523965,-0.191052620663981,-0.0559209452889143,-0.836926984284475,0.225130840123244,1.48624395286856,-6.66449177179E-5,-0.001119194917808,-1.41560913897E-4,384101.2247512,6.4792E-12,1108.04345703125,-5.37083829723153,3.52684257032395,5.92807411962547
2580.0,-662392.300065117,-4757004.53684191,-4746522.04512375,4212424.69572793,-2300655.0936058,-4749714.8936176,904.718713795673,7152.1393126805,-2666.69280676904,-5.4533182031781,2.9783806732305,6.14888302111119,6758705.25738167,1.21145592429638,-0.126519481825222,-0.190536386469928,-0.0555234486097569,-0.832253055092741,0.173673006733276,1.53109918346259,-7.38799479151E-5,-0.001118491965906,-1.449874602639E-4,385033.280845043,6.2103E-12,1100.22705078125,-5.4533182031781,2.9783806732305,6.14888302111119
2640.0,-260819.7781755,-4644176.48860867,-4895284.8318416,4256853.80537272,-1866501.12685301,-4898528.86303956,575.681630779094,7314.03637431532,-2291.85220260176,-5.51031159442973,2.41610430391883,6.3409319708343,6758705.25738166,1.2158311937092,-0.135012252283103,-0.190005457787933,-0.0547787552056847,-0.830407514762387,0.121950804729178,1.57520797178621,-8.12468623405E-5,-0.0011177258311214,-1.483867898708E-4,385919.072895935,5.9521E-12,1092.24072265625,-5.51031159442973,2.41610430391883,6.3409319708343
2700.0,143028.913620364,-4513327.44821253,-5021244.27223077,4281453.51844292,-1423652.53619831,-5024524.37469651,243.996292700786,7441.84840662652,-1906.37407846556,-5.54156055233196,1.84265850390291,6.50333022397841,6758705.25738164,1.220206463122,-0.143959106283268,-0.189453679136551,-0.05365915780804,-0.831322116258523,0.0700908026337171,1.61884027186039,-8.87432605195E-5,-0.0011168941677337,-1.51757539587E-4,386745.165539634,5.707E-12,1084.15576171875,-5.54156055233196,1.84265850390291,6.50333022397841
2760.0,547435.318391759,-4365079.09037676,-5123816.12385275,4286111.37938815,-974172.917560593,-5127117.01975792,-88.7879522086637,7534.98589862915,-1512.06067484665,-5.54692943911486,1.26073915418797,6.63532834714665,6758705.25738161,1.22458173253482,-0.153346249596025,-0.188874151931733,-0.0521382422063022,-0.83495838886901,0.0182157722215492,1.66225785711645,-9.63666508884E-5,-0.001115994651029,-1.550983309562E-4,387499.626153251,5.4766E-12,1076.04223632812,-5.54692943911486,1.26073915418797,6.63532834714665
2820.0,950673.097452584,-4200118.82504183,-5202525.4699491,4270808.06408554,-520156.360318401,-5205831.78644126,-421.117298677861,7593.02228991349,-1110.75487243708,-5.52640534805184,0.673079859443951,6.73632160329999,6758705.25738161,1.22895700194763,-0.163157655305409,-0.188259257188441,-0.0501910394341004,-0.841306777546154,-0.0335528716674497,1.7057176378287,-1.041144502415E-4,-0.0011150249819479,-1.584077713461E-4,388172.226059084,5.2622E-12,1067.96533203125,-5.52640534805184,0.673079859443951,6.73632160329999
2880.0,1351015.53982658,-4019196.50938341,-5257008.89528837,4235617.42635388,-63717.610312114,-5260305.23627073,-751.440846333626,7615.69583681297,-704.331427202504,-5.48009793686037,0.0824386883103541,6.80585259971365,6758705.25738164,1.23333227136044,-0.173375115978519,-0.187600695031916,-0.0477941711846441,-0.850386002995186,-0.0850927063814277,1.7494748833152,-1.119839833577E-4,-0.0011139828918013,-1.616844551797E-4,388754.608283306,5.0646E-12,1059.98315429687,-5.48009793686037,0.0824386883103541,6.80585259971365
2940.0,1746743.09430997,-3823120.93313893,-5287016.13213755,4180706.10341955,393017.855202632,-5290287.15012048,-1078.21793325987,7602.9106804774,-294.68806892267,-5.40823864945496,-0.508415158074426,6.84361318978973,6758705.25738164,1.23770754077325,-0.183978304004734,-0.186889541422429,-0.0449259870299287,-0.862242624235983,-0.136277956985868,1.79378628572534,-1.199724828161E-4,-0.0011128661470436,-1.649269652463E-4,389240.419188984,4.884E-12,1052.14306640625,-5.40823864945496,-0.508415158074426,6.84361318978973
3000.0,2136150.88984397,-3612756.09486848,-5292411.16951246,4106332.68313292,847923.792678499,-5295641.63719703,-1399.92540472198,7554.73711469699,116.263491867699,-5.31117933479573,-1.09671467771085,6.84944562419281,6758705.25738166,1.24208281018606,-0.194944840128785,-0.186116322157648,-0.04156669197736,-0.87695073942761,-0.18697712173489,1.83891279318461,-1.280770890069E-4,-0.001111672554094,-1.681338740928E-4,389625.401945047,4.7204E-12,1044.48059082031,-5.31117933479573,-1.09671467771085,6.84944562419281
3060.0,2517556.20998653,-3389017.2874732,-5273172.82156105,4012846.43790387,1298883.14950424,-5276347.70281681,-1715.06478123222,7471.41105559141,526.606603475299,-5.18939027506535,-1.67970832893482,6.82334295133495,6758705.25738163,1.24645807959887,-0.206250370299142,-0.185271103862449,-0.0376984628860224,-0.894611710258255,-0.237050524132192,1.8851221110126,-1.362948503476E-4,-0.0011103999641957,-1.713037454916E-4,389907.450450881,4.5732E-12,1037.01953125,-5.18939027506535,-1.67970832893482,6.82334295133495
3120.0,2889305.88752653,-3152867.01188436,-5229394.75363279,3900685.6324503,1743797.9656172,-5232499.27353568,-2022.16929096659,7353.33271947305,934.428714255321,-5.0434576387277,-2.25467315205436,6.76544867169243,6758705.25738163,1.25083334901168,-0.217868651046326,-0.184343601313867,-0.0333055522883323,-0.915353733255481,-0.28634775899083,1.93269071927187,-1.4462272371E-4,-0.0011090462783023,-1.744351359842E-4,390086.623002434,4.4417E-12,1029.77392578125,-5.0434576387277,-2.25467315205436,6.76544867169243
3180.0,3249783.58570534,-2905310.73831818,-5161284.9672706,3770375.414523,2180599.17228275,-5164304.68087239,-2319.81073257098,7201.06451928325,1337.83037090175,-4.87408037714442,-2.81892768425697,6.67605565474432,6758705.25738167,1.2552086184245,-0.229771643687033,-0.183323300086204,-0.0283743782253746,-0.939331001418458,-0.334705016616695,1.98190518019197,-1.530575750658E-4,-0.0011076094519786,-1.775265964973E-4,390165.115653907,4.3249E-12,1022.75115966796,-4.87408037714442,-2.81892768425697,6.67605565474432
3240.0,3597416.93309748,-2647392.53486551,-5069164.74801344,3622525.29977257,2607256.24156651,-5072085.60752087,-2606.60613560368,7015.32819396282,1734.9341299456,-4.68206658633023,-3.36984460299171,6.55560433145102,6758705.25738166,1.2595838878373,-0.241929617711576,-0.18219959314536,-0.0228935988096747,-0.966722095939718,-0.381942295139587,2.03306240681023,-1.615961803565E-4,-0.001106087500305,-1.805766740296E-4,390147.195892871,4.2218E-12,1015.95544433593,-4.68206658633023,-3.36984460299171,6.55560433145102
3300.0,3930684.47994952,-2380190.58345149,-4953467.08250352,3457826.26384886,3021786.64100162,-4956275.50255374,-2881.22418723736,6797.00118892355,2123.89333947943,-4.46832935809358,-3.90486303578863,6.40468017910483,6758705.25738167,1.26395915725012,-0.254311263746815,-0.180961929680309,-0.0168541703797113,-0.997727117251408,-0.427860550485415,2.08646843284464,-1.702352265922E-4,-0.0011044785027722,-1.83583913405E-4,390039.097901676,4.1312E-12,1009.3901977539,-4.46832935809358,-3.90486303578863,6.40468017910483
3360.0,4248122.44467453,-2104812.60335921,-4814734.55393601,3277047.45666072,3422265.04915365,-4817417.47466499,-3142.39139537187,6547.11230941912,2502.90074924795,-4.2338821472247,-4.42150047758153,6.22401051905916,6758705.25738165,1.26833442666293,-0.266883816487853,-0.179599974140796,-0.0102493883068631,-1.03256290979156,-0.472238891971539,2.1424350669682,-1.789713131857E-4,-0.0011027806081528,-1.865468590898E-4,389848.881316162,4.052E-12,1003.05987548828,-4.2338821472247,-4.42150047758153,6.22401051905916
3420.0,4548331.22024189,-1822391.20256846,-4653616.72736136,3081032.55546557,3806832.28919731,-4656161.67497322,-3388.89795997515,6266.83667204883,2870.19690857853,-3.97983368354184,-4.91736425999976,6.0144606512523,6758705.25738163,1.27270969607574,-0.279613187954494,-0.17810377316209,-0.0030749097560735,-1.07145557011021,-0.514832014908675,2.20127364729415,-1.878009535235E-4,-0.0011009920393363,-1.894640570691E-4,389586.256010971,3.983E-12,996.971618652343,-3.97983368354184,-4.91736425999976,6.0144606512523
3480.0,4829981.61138146,-1534079.17711448,-4470867.03873492,2870695.77509632,4173703.93923097,-4473262.18329281,-3619.60332625562,5957.4899828512,3224.07831315578,-3.70738245948764,-5.39016252074993,5.77702935256965,6758705.25738161,1.27708496548855,-0.292464111349288,-0.176463927807064,0.0046712420161704,-1.11462928864008,-0.555368174593352,2.26328496980846,-1.967205767786E-4,-0.0010991110981136,-1.923340567787E-4,389262.376029277,3.9233E-12,991.13427734375,-3.70738245948764,-5.39016252074993,5.77702935256965
3540.0,5091820.77482719,-1241044.77852822,-4267339.20389697,2647017.5551604,4521178.57985389,-4269573.41406995,-3833.44139516076,5620.52217344235,3562.90526335322,-3.41781082557251,-5.83771462506784,5.51284376891886,6758705.25738159,1.28146023490136,-0.305400295671899,-0.174671768350317,0.0129886919252928,-1.1622905301858,-0.593548148725836,2.32874441647306,-2.057265299655E-4,-0.0010971361698966,-1.951554130875E-4,388889.606327787,3.8717E-12,985.559387207031,-3.41781082557251,-5.83771462506784,5.51284376891886
3600.0,5332677.83624734,-944466.969185656,-4043983.16584668,2411039.94545737,4847645.64150187,-4046046.06036246,-4029.42536867548,5257.51042941549,3885.10939870503,-3.11247872729514,-6.25796099524073,5.22315373341753,6758705.2573816,1.28583550431417,-0.318384591080959,-0.172719528674666,0.0218747456360963,-1.21460671982093,-0.629045797065607,2.39788146777374,-2.1481508024E-4,-0.0010950657283577,-1.979266883264E-4,388481.266515567,3.8272E-12,980.259399414062,-3.11247872729514,-6.25796099524073,5.22315373341753
3660.0,5551469.15904052,-645530.685066332,-3801840.60073815,2163861.71215178,5151592.81616716,-3803722.59630743,-4206.65220944524,4870.15164773396,4189.20087511272,-2.79281711823326,-6.64897230833298,4.90932554530681,6758705.25738161,1.29021077372699,-0.331379164792988,-0.170600517252332,0.0313244398426097,-1.27167912694141,-0.661510978390247,2.47085330818334,-2.239824174427E-4,-0.0010928983399747,-2.006464543571E-4,388051.356218442,3.7888E-12,975.247619628906,-2.79281711823326,-6.64897230833298,4.90932554530681
3720.0,5747203.24180421,-345422.125016128,-3542040.0049661,1906633.18840334,5431613.00040154,-3543732.36046172,-4364.30669635536,4460.25436211699,4473.77515351711,-2.46032108479901,-7.00895802645041,4.57283524610719,6758705.25738162,1.29458604313979,-0.344345687075201,-0.168309281645528,0.0413306092676137,-1.33351070312787,-0.690575667600036,2.54771329379213,-2.332246568858E-4,-0.0010906326684669,-2.033132946759E-4,387614.267088579,3.7554E-12,970.536743164062,-2.46032108479901,-7.00895802645041,4.57283524610719
3780.0,5918985.2229987,-45324.0851222992,-3265791.38751766,1640550.89419467,5686410.73890285,-3267286.24420956,-4501.66505984576,4029.73017742972,4737.51937100607,-2.11654271870321,-7.33627422810841,4.21526143112773,6758705.25738161,1.29896131255261,-0.357245526632823,-0.165841763486342,0.0518839690347667,-1.39997133143534,-0.71586404014996,2.62837675144456,-2.425378423818E-4,-0.0010882674791044,-2.059258065475E-4,387184.486790431,3.726E-12,966.139099121093,-2.11654271870321,-7.33627422810841,4.21526143112773
3840.0,6066020.97312256,253588.643749039,-2974380.59343798,1366851.95100476,5914808.14050043,-2975671.01110423,-4618.09818291333,3580.58475584911,4979.21826765589,-1.76308377348327,-7.62943071348533,3.83827763573507,6758705.2573816,1.30333658196542,-0.370039954422847,-0.163195440984472,0.0629732107226095,-1.47076516397308,-0.737006948226972,2.71258879631257,-2.519179495098E-4,-0.0010858016428798,-2.084826031603E-4,386776.300519296,3.6997E-12,962.064514160156,-1.76308377348327,-7.62943071348533,3.83827763573507
3900.0,6187620.75657567,550153.797823952,-2669163.28578745,1086808.31775361,6115750.24096739,-2670243.27454086,-4713.0743559389,3114.90839908449,5197.75964479984,-1.40158814153614,-7.88709736051171,3.44364433679424,6758705.25738158,1.30771185137822,-0.38269035465558,-0.160369456162363,0.0745851101013541,-1.5454069321504,-0.753660519740081,2.79990106090483,-2.613608891165E-4,-0.0010832341405225,-2.109823157997E-4,386403.495735678,3.6754E-12,958.321655273437,-1.40158814153614,-7.88709736051171,3.44364433679424
3960.0,6283202.44730362,843226.064955642,-2351558.61485269,801720.875090051,6288309.78978346,-2352423.16254306,-4786.16157566016,2634.86627219191,5392.13933286536,-1.0337341879785,-8.10810971283356,3.03320061042457,6758705.25738158,1.31208712079104,-0.395158441485454,-0.157364724227788,0.0867046442944292,-1.62321529846544,-0.765527586272789,2.88966541175175,-2.708625110461E-4,-0.001080564066345,-2.134235960304E-4,386079.07581966,3.6523E-12,954.91552734375,-1.0337341879785,-8.10810971283356,3.03320061042457
4020.0,6352294.28428205,1131681.39581455,-2023042.60461038,512913.385609768,6431691.44073616,-2023687.6996828,-4837.02938078227,2142.68831553871,5561.46564940583,-0.661226977347148,-8.29147378466564,2.60885548768641,6758705.25738157,1.31646239020385,-0.407406479654287,-0.154184022758806,0.0993151159102433,-1.70333023683302,-0.772379492970945,2.98105164702577,-2.80418608093E-4,-0.0010777906319033,-2.158051178819E-4,385814.988256499,3.6294E-12,951.848388671875,-0.661226977347148,-8.29147378466564,2.60885548768641
4080.0,6394537.15490296,1414421.18650575,-1685141.28752946,221726.357977045,6545235.32906644,-1685563.93724058,-4865.45021886558,1640.65889225811,5704.96333045735,-0.285790428675675,-8.43637007139547,2.17257905004742,6758705.25738156,1.32083765961666,-0.41939750714441,-0.150832058689056,0.112398281566378,-1.78475730164382,-0.774074965037985,3.07309204059188,-2.900249201692E-4,-0.0010749131694586,-2.181255800302E-4,385621.872753565,3.606E-12,949.119689941406,-0.285790428675675,-8.43637007139547,2.17257905004742
4140.0,6409686.39635681,1690376.31821083,-1339423.61973436,-70489.1568187921,6628420.02072249,-1339621.86364964,-4871.30034124374,1131.10621909023,5821.97692086384,0.0908405661435815,-8.5421567584896,1.72639330649235,6758705.25738159,1.32521292902947,-0.431095557734426,-0.147315511434535,0.125934482186927,-1.86643503768944,-0.770572577674393,-3.11843631809837,-2.996771386793E-4,-0.0010719311352266,-2.203837079681E-4,385508.834357579,3.5813E-12,946.724365234375,0.0908405661435815,-8.5421567584896,1.72639330649235
4200.0,6397613.10715687,1958511.04030951,-987494.209337226,-362377.808708423,6680864.82217104,-987467.128054088,-4854.56022479798,616.391628846313,5911.97361172066,0.466928026558825,-8.60837212477492,1.27236289395689,6758705.25738159,1.32958819844228,-0.442465881233205,-0.143643050887295,0.13990277249877,-1.94731492802461,-0.761934283050773,-3.02819014440916,-3.093709110918E-4,-0.0010688441123999,-2.225782561574E-4,385483.246193116,3.5547E-12,944.654052734375,0.466928026558825,-8.60837212477492,1.27236289395689
4260.0,6358304.96301761,2217826.6843201,-630985.891383638,-652586.202915987,6702331.4421146,-630733.610447045,-4815.31452143719,98.8987128675391,5974.54551557841,0.840738736830698,-8.63473613950972,0.81258564240927,6758705.25738158,1.33396346785509,-0.453475159102175,-0.13982532940753,0.154281047285794,-2.02643920043853,-0.748319235108016,-2.94029382319695,-3.191018456973E-4,-0.0010656518139313,-2.247080101548E-4,385550.585883572,3.5256E-12,942.895751953125,0.840738736830698,-8.63473613950972,0.81258564240927
4320.0,6291866.53336701,2467365.1969109,-271552.183343336,-939769.137198158,6692724.99936411,-271075.872342194,-4753.75153810224,-418.977608210728,6009.41137251276,1.21055203644261,-8.62115125581345,0.349183045394167,6758705.25738157,1.33833873726791,-0.464091713162422,-0.135874947363077,0.169046162178699,-2.10300253244057,-0.729969217923885,-2.85553633182671,-3.288655165409E-4,-0.0010623540850664,-2.267717887046E-4,385714.309055746,3.4936E-12,941.432678222656,1.21055203644261,-8.62115125581345,0.349183045394167
4380.0,6198519.09684021,2706212.48115772,89140.3445817349,-1222595.79391273,6652094.37400924,89838.4777272558,-4670.16225202303,-934.842037322525,6016.41768259698,1.57466751614122,-8.56770240598896,-0.115709323785538,6758705.25738158,1.34271400668071,-0.474285705120728,-0.131806392185309,0.184174047055787,-2.17638884406229,-0.707188571909044,-2.77451963804096,-3.386574685175E-4,-0.001058950905613,-2.287684457917E-4,385975.762582744,3.4583E-12,940.248229980468,1.57466751614122,-8.56770240598896,-0.115709323785538
4440.0,6078599.95615765,2933501.53616366,449419.749863687,-1499755.85922008,6580631.90190062,450336.469392246,-4564.93886780258,-1446.30982981205,5995.53926270232,1.93141258937833,-8.47465620704765,-0.579951410820084,6758705.25738156,1.34708927609353,-0.484029324732231,-0.127635951323364,0.1996398104971,-2.24618145595703,-0.680322127791322,-2.69764845077409,-3.484732226139E-4,-0.001055442391937,-2.306968726448E-4,386334.139404835,3.42E-12,939.338439941406,1.93141258937833,-8.47465620704765,-0.579951410820084
4500.0,5932561.25483105,3148415.38610408,807616.414246706,-1769965.54216897,6478672.41530083,808747.471770293,-4438.57292468328,-1951.01765117843,5946.87922789235,2.27914991004366,-8.34245938733965,-1.04140825548192,6758705.25738154,1.35146454550634,-0.493296964541736,-0.123381599877009,0.215417834156977,-2.31215095456378,-0.64973428287752,-2.62514228848867,-3.583082812866E-4,-0.001051828798676,-2.325559996863E-4,386786.475905539,3.3789E-12,938.69873046875,2.27914991004366,-8.34245938733965,-1.04140825548192
4560.0,5760968.30015971,3350189.79070689,1162070.7220988,-2031973.46697135,6346691.63536422,1163410.87646764,-4291.65296406242,-2446.63431737859,5870.66839996645,2.61628460851986,-8.17173644760945,-1.49795950535893,6758705.25738153,1.35583981491915,-0.502065379303013,-0.119062864065333,0.231481856383239,-2.37422835481941,-0.615791353656329,-2.55706227422904,-3.681581339563E-4,-0.0010481105201608,-2.34344798418E-4,387327.691932749,3.3355E-12,938.320007324218,2.61628460851986,-8.17173644760945,-1.49795950535893
4620.0,5564497.39896885,3538115.73012881,1511140.68629948,-2284566.41242433,6185303.92486122,1512683.72802271,-4124.8617689681,-2930.87137221023,5767.26414794107,2.94127131924539,-7.96328657204788,-1.94750883149025,6758705.25738152,1.36021508433196,-0.510313828357967,-0.114700662038687,0.247805044896852,-2.43247147462236,-0.578848190357885,-2.49334474340022,-3.780182626054E-4,-0.0010442880915376,-2.360622832388E-4,387950.672666844,3.29E-12,938.188842773437,2.94127131924539,-7.96328657204788,-1.94750883149025
4680.0,5343933.21449939,3711541.65813208,1853209.48779788,-2526574.87318778,5995259.41226191,1854948.2679053,-3938.97318878041,-3401.49345729449,5637.14866743207,3.25262097412651,-7.71807980701117,-2.38799321015016,6758705.25738155,1.36459035374478,-0.518024199457773,-0.110317123860876,0.26436005883571,-2.48703083606954,-0.539239095576664,-2.43383535003229,-3.878841474614E-4,-0.0010403621895847,-2.377075131849E-4,388646.390672967,3.2431E-12,938.286743164062,3.25262097412651,-7.71807980701117,-2.38799321015016
4740.0,5100165.65477841,3869875.51839996,2186692.89545698,-2756878.41846873,5777440.5009296,2188619.35866757,-3734.84856398808,-3856.32843129788,5480.92670801676,3.54890733728937,-7.43725252704116,-2.81739203603439,6758705.25738155,1.36896562315758,-0.525181112719096,-0.105935392775166,0.281119100941271,-2.53811911592073,-0.497272496685318,-2.37831965048722,-3.977512727472E-4,-0.0010363336332175,-2.392795935878E-4,389404.065655752,3.1952E-12,938.587890625,3.54890733728937,-7.43725252704116,-2.81739203603439
4800.0,4834186.30467583,4012586.51975631,2510046.5334054,-2974410.82459433,5532857.77974049,2512151.75544931,-3513.43276720681,-4293.27719626699,5299.32275970845,3.82877325780042,-7.12210220966117,-3.23373603312264,6758705.25738153,1.37334089257039,-0.531772003624985,-0.101579410119658,0.298053961108976,-2.58598606346237,-0.453228562450481,-2.32654824856636,-4.076151324822E-4,-0.0010322033836786,-2.407776776427E-4,390211.358683385,3.1469E-12,939.058166503906,3.82877325780042,-7.12210220966117,-3.23373603312264
4860.0,4547084.41568188,4139206.66696574,2821772.96384587,-3178164.9589704,5262645.35393288,2824047.19276848,-3275.74987805451,-4710.32319029026,5093.17771166909,4.09093661810518,-6.77408154216128,-3.63511593051371,6758705.25738153,1.37771616198321,-0.53778718419841,-0.0972736864746216,0.315136052915661,-2.63089928546108,-0.407358931443758,-2.2782561052966,-4.174712363149E-4,-0.0010279725444086,-2.422009678826E-4,391054.596980381,3.0995E-12,939.741088867187,4.09093661810518,-6.77408154216128,-3.63511593051371
4920.0,4240042.46921986,4249332.04468557,3120428.5541142,-3367197.39401738,4968055.61739422,3122861.25537322,-3022.89851077982,-5105.54150714426,4863.44499821722,4.3341959570397,-6.39479188523844,-4.01969087154878,6758705.25738157,1.38209143139601,-0.543219881694837,-0.0930430618063513,0.332336445064685,-2.67313040457063,-0.359887827484907,-2.23317651100453,-4.273151153679E-4,-0.0010236423605982,-2.435487175503E-4,391919.02482088,3.0551E-12,940.702392578125,4.3341959570397,-6.39479188523844,-4.01969087154878
4980.0,3914331.33103032,4342623.85302046,3404630.09774178,-3540632.73084702,4650453.48990892,3407210.00289178,-2756.04681477711,-5477.10760512126,4611.18624905924,4.55743574735655,-5.98597611994049,-4.38569652555154,6758705.25738156,1.38646670080883,-0.548066254378922,-0.0889124575194615,0.349625889939546,-2.71294569455751,-0.311013994198196,-2.19105062150977,-4.371423280778E-4,-0.0010192142184184,-2.448202318655E-4,392789.075595706,3.0153E-12,941.99365234375,4.55743574735655,-5.98597611994049,-4.38569652555154
5040.0,3571305.01582627,4418809.19399068,3673061.16034424,-3697667.61368623,4311310.14510959,3675776.31908728,-2476.42716929167,-5823.30556886849,4337.56646248192,4.75963130878063,-5.54951090589519,-4.73145287252064,6758705.25738153,1.39084197022164,-0.552325384170693,-0.0849066234423188,0.366974851619741,-2.75060020909639,-0.260913037509264,-2.15163354839958,-4.469484660081E-4,-0.0010146896439323,-2.460148691804E-4,393648.659783554,2.9815E-12,943.661499023437,4.75963130878063,-5.54951090589519,-4.73145287252064
5100.0,3212395.08301984,4477681.6090623,3924478.12233449,-3837574.41736671,3952196.25699314,3927315.95770047,-2185.33059472636,-6142.53588979283,4043.84872199372,4.93985333867427,-5.08739838030298,-5.05537163211226,6758705.25738153,1.39521723963445,-0.55599924617167,-0.0810498828485146,0.384353535782106,-2.78633450454399,-0.209739898125489,-2.11469791159517,-4.567291596198E-4,-0.0010100703016891,-2.471320420203E-4,394481.463331311,2.9552E-12,945.750122070312,4.93985333867427,-5.08739838030298,-5.05537163211226
5160.0,2839104.68585263,4519101.3687075,4157715.89173814,-3959704.59157467,3574774.79487614,4160663.2581449,-1884.10090400418,-6433.32273239812,3731.38847859263,5.09727204345055,-4.60175732864647,-5.35596330925282,6758705.25738155,1.39959250904726,-0.559092655312781,-0.0773658786603589,0.40173192388386,-2.82037321149047,-0.157631278803722,-2.08003561045503,-4.664800839767E-4,-0.0010053579930046,-2.481712180049E-4,395271.250839816,2.9377E-12,948.304565429687,5.09727204345055,-4.60175732864647,-5.35596330925282
5220.0,2453002.29772173,4542995.5157592,4371693.26176785,-4063491.64699268,3180793.39856506,4374736.50569818,-1574.12861842128,-6694.32065582346,3401.62742246705,5.23116085493838,-4.09481385953737,-5.63184382973076,6758705.25738153,1.40396777846008,-0.561613190609352,-0.0738773239870917,0.419079813900424,-2.85292487711273,-0.104707925229942,-2.04745840555455,-4.761969643691E-4,-0.0010005546539326,-2.491319206471E-4,396002.167953626,2.9305E-12,951.369750976562,5.23116085493838,-4.09481385953737,-5.63184382973076
5280.0,2055715.14088031,4549357.66509657,4565417.8892879,-4148453.76995892,2772076.36730206,4568542.91230875,-1256.84467334019,-6924.32076184003,3056.08696950506,5.34089971697926,-3.56889161759058,-5.88174074014064,6758705.25738153,1.40834304787288,-0.563571097760947,-0.0706057601197238,0.436366869676591,-2.88418265200076,-0.0510767097990464,-2.01679775569104,-4.858755818362E-4,-9.95662352934E-4,-2.500137300263E-4,396659.037459662,2.9349E-12,954.993225097656,5.34089971697926,-3.56889161759058,-5.88174074014064
5340.0,1648922.34399467,4538247.56294974,4737990.87186696,-4214196.05381615,2350516.29770894,4741183.19570588,-933.713939923599,-7122.25624264155,2696.36138949365,5.42597792863497,-3.02640156969354,-6.10449894760341,6758705.25738153,1.4127183172857,-0.564979171101263,-0.0675713250335536,0.453562680650776,-2.91432552076074,0.0031674997013611,-1.9879042343568,-4.955117785691E-4,-9.906832882505E-4,-2.508162833337E-4,397227.643800373,2.9523E-12,959.223510742187,5.42597792863497,-3.02640156969354,-6.10449894760341
5400.0,1234347.85625967,4509790.40983925,4888610.90277266,-4260412.33671874,1918065.40748804,4891855.73615689,-606.228589892477,-7287.20730393059,2324.11060433133,5.48599653151741,-2.46983140153215,-6.29908597577417,6758705.25738152,1.41709358669851,-0.565852616178565,-0.0647925353377112,0.470636833340363,-2.94351987450863,0.0579401843852986,-1.96064675817851,-5.051014631759E-4,-9.856197849919E-4,-2.515392752884E-4,397695.000992354,2.9841E-12,964.109130859375,5.48599653151741,-2.46983140153215,-6.29908597577417
5460.0,813753.146906914,4464175.95186871,5016577.98500112,-4286886.6373067,1476726.58304078,5019860.29195671,-275.901331006583,-7418.40544105969,1941.05268595346,5.52067022992751,-1.90173456274499,-6.4645967147878,6758705.25738151,1.42146885611132,-0.566208894529619,-0.0622860844557332,0.487558995545838,-2.97192129895274,0.113165717837548,-1.93491179370407,-5.146406157935E-4,-9.804742919455E-4,-2.521824584216E-4,398049.599299021,3.032E-12,969.694580078125,5.52067022992751,-1.90173456274499,-6.4645967147878
5520.0,388929.719975633,4401657.34577012,5121296.68725487,-4293494.18133715,1028544.19042948,5124601.25655625,55.741458392393,-7515.23704833399,1548.95608497439,5.52982883372047,-1.32471900060226,-6.60025764399646,6758705.25738149,1.42584412552413,-0.566067552491068,-0.0600666596223986,0.504299013758316,-2.99967650924967,0.168776089181702,-1.91060266425143,-5.241252930267E-4,-9.752493781215E-4,-2.527456432306E-4,398281.626426156,3.0973E-12,976.014526367187,5.52982883372047,-1.32471900060226,-6.60025764399646
5580.0,-38308.5248456791,4322549.80375719,5202278.9266788,-4280202.01408175,575594.690228763,5205590.44213378,387.166666868367,-7577.24634402255,1149.63162228154,5.51341821511059,-0.741435623642878,-6.70543050763534,6758705.2573815,1.43021939493695,-0.56545003616386,-0.0581467800391502,0.52082702375843,-3.02692540748557,0.224709783171803,-1.88763905141497,-5.335516327021E-4,-9.699477290425E-4,-2.532286981995E-4,398383.159480561,3.1815E-12,983.085815429687,5.51341821511059,-0.741435623642878,-6.70543050763534
5640.0,-466133.053662822,4227229.02487394,5259146.26513165,-4247069.19504756,119977.097784492,5262449.37638236,716.841430015925,-7604.13759615688,744.924276967545,5.47150077200016,-0.1545665382414,-6.77961542492963,6758705.25738149,1.43459466434975,-0.56437949489734,-0.0565366582453295,0.537113573893222,-3.053803275438,0.280910794024182,-1.86595677332263,-5.42915858418E-4,-9.645721427929E-4,-2.536315496899E-4,398348.324445711,3.2857E-12,990.897827148437,5.47150077200016,-0.1545665382414,-6.77961542492963
5700.0,-892708.549736607,4116129.42013422,5291631.70780463,-4194246.57335545,-336196.668784673,5294911.10132217,1043.24012342806,-7595.77663682027,336.704805051669,5.4042553918728,0.433186897392086,-6.82245341763851,6758705.25738145,1.43896993376255,-0.562880575878703,-0.0552440864379773,0.553129760031643,-3.08044314885324,0.337327749765521,-1.84550792222145,-5.522142838798E-4,-9.591255258416E-4,-2.539541817001E-4,398173.420475543,3.4107E-12,999.405639648437,5.4042553918728,0.433186897392086,-6.82245341763851
5760.0,-1316200.82178067,3989742.13933106,5299580.99509425,-4121976.14390705,-790811.509851365,5302821.46504312,1364.85133840023,-7552.19165534666,-73.1387755853321,5.31197691184189,1.0191161557688,-6.83372833963781,6758705.25738145,1.44334520317537,-0.560979212588149,-0.0542743491138569,0.568847370747324,-3.10697845449086,0.393913124066595,-1.82626145733052,-5.614433170053E-4,-9.536108886507E-4,-2.541966354968E-4,397857.006880809,3.557E-12,1008.52581787109,5.31197691184189,1.0191161557688,-6.83372833963781
5820.0,-1734784.73572379,3848612.90795312,5282953.38078683,-4030589.98628512,-1241758.89132623,5286139.89943522,1680.18481004857,-7473.5732636527,-482.709797756359,5.19507507209388,1.60051771175703,-6.81336819487998,6758705.25738146,1.44772047258818,-0.558702409999236,-0.0536301630201158,0.584239040876629,-3.13354603288682,0.45062251227581,-1.80820437687781,-5.705994637889E-4,-9.480313410892E-4,-2.543590091188E-4,397399.951276224,3.7245E-12,1018.1416015625,5.19507507209388,1.60051771175703,-6.81336819487998
5880.0,-2146652.13609592,3693339.68317903,5241821.89181277,-3920508.79015509,-1686946.57368413,5244939.67916599,1987.77826740697,-7360.273829818,-890.111617952617,5.05407296171991,2.1747052544131,-6.76144583195186,6758705.25738147,1.45209574200099,-0.556078029457447,-0.0533116449924755,0.599278411265204,3.12289558229807,0.507413947103849,-1.79134364001878,-5.79679331913E-4,-9.423900876637E-4,-2.544414567575E-4,396805.43796564,3.9127E-12,1028.11291503906,5.05407296171991,2.1747052544131,-6.76144583195186
5940.0,-2550019.72295911,3524570.13842775,5176373.06706993,-3792239.97276269,-2124308.27902218,5179407.65940688,2286.20417506218,-7212.80607900175,-1293.45631205069,4.8896049577933,2.73902188880234,-6.67817900548596,6758705.25738144,1.4564710114138,-0.553134576150785,-0.0533163078412959,0.61394029225857,3.09582052917105,0.564247226470536,-1.77570908269484,-5.88679634098E-4,-9.366904225863E-4,-2.544441880163E-4,396078.936261327,4.1206E-12,1038.29052734375,4.8896049577933,2.73902188880234,-6.67817900548596
6000.0,-2943136.85020016,3342998.98642286,5086906.17509365,-3646375.39594605,-2551813.25223863,5089843.49209039,2574.07633599666,-7031.84096383289,-1690.87335551545,4.70241416052051,3.29085227639254,-6.56392979687414,6758705.25738145,1.46084628082662,-0.549900991989701,-0.0536390840262985,0.628200828318958,3.06824186266783,0.621083220447956,-1.76135768485489,-5.975971911804E-4,-9.309357246948E-4,-2.543674670519E-4,395228.129059675,4.3473E-12,1048.53125,4.70241416052051,3.29085227639254,-6.56392979687414
6060.0,-3324293.21103509,3149365.15118302,4973831.91265448,-3483588.69189413,-2967475.67264284,4976658.32278452,2850.05632553985,-6818.20480952934,-2080.51824948875,4.49334932937345,3.82763466152823,-6.41920338909065,6758705.25738146,1.46522155023942,-0.546406456539684,-0.0542723764506012,0.642037661064573,3.03996298743249,0.67788311449404,-1.74837972267287,-6.064289349131E-4,-9.251294522425E-4,-2.542116116034E-4,394262.802623204,4.5914E-12,1058.70715332031,4.49334932937345,3.82763466152823,-6.41920338909065
6120.0,-3691826.37675436,2944448.79977441,4837670.58868846,-3304632.20867959,-3369363.87271709,4840372.97259621,3112.85972668866,-6572.87574217951,-2460.58105391759,4.26336132729301,4.34687273058441,-6.24464619295303,6758705.25738147,1.46959681965224,-0.54268019840119,-0.0552061353142211,0.655430088027787,3.01075305943309,0.734607529696238,-1.73690761758512,-6.151719104808E-4,-9.192751375775E-4,-2.539769919114E-4,393194.699144769,4.8516E-12,1068.71228027343,4.26336132729301,4.34687273058441,-6.24464619295303
6180.0,-4044129.15506178,2729068.24505584,4679049.80029682,-3110333.58836386,-3755609.32135345,4681615.61184911,3361.26213755052,-6296.97941184553,-2829.29478879429,4.01349908233322,4.84614724968558,-6.04104332483426,6758705.25738147,1.47397208906505,-0.538751319115749,-0.0564279596058524,0.668359214509725,2.98033323870179,0.791215433032907,-1.72712874245593,-6.238232787259E-4,-9.133763817264E-4,-2.53664029534E-4,392037.334287608,5.1266E-12,1078.4619140625,4.01349908233322,4.84614724968558,-6.04104332483426
6240.0,-4379656.73483409,2504076.73101206,4498701.60988495,-2901591.99220904,-4124415.32968646,4501118.93461512,3594.1049222958,-5991.78402541067,-3184.94366466708,3.74490507848236,5.32312742638718,-5.80931543868105,6758705.25738149,1.47834735847786,-0.534648631304156,-0.0579232214879462,0.680808096062094,2.94835708591783,0.847662703569487,-1.71930418614017,-6.32380318081E-4,-9.074368489031E-4,-2.532731960634E-4,390805.782498915,5.4147E-12,1087.88952636718,3.74490507848236,5.32312742638718,-5.80931543868105
6300.0,-4696933.5847566,2270359.11260171,4297459.23483239,-2679373.98922568,-4474065.43863582,4299716.8455027,3810.30067778292,-5658.69470737771,-3525.87110383931,3.45881038983912,5.77558194048375,-5.5505149181839,6758705.2573815,1.48272262789067,-0.530400512326217,-0.0596752115506207,0.692761869340944,2.91438183131669,0.903900138828417,-1.71379673593714,-6.408404262052E-4,-9.014602609587E-4,-2.528050117495E-4,389516.43347644,5.714E-12,1096.94445800781,3.45881038983912,5.77558194048375,-5.5505149181839
6360.0,-4994560.07407276,2028828.44234396,4076253.26338707,-2444709.12592789,-4802931.44846482,4078340.67240731,4008.8383889455,-5299.24721011523,-3850.48751411982,3.15652927482405,6.20138958915942,-5.26582143807115,6758705.25738149,1.48709789730349,-0.526034774306636,-0.0616653026796242,0.70420786933849,2.87782504341549,0.959870539868847,-1.71111353962756,-6.492011213241E-4,-8.954503917918E-4,-2.522600440365E-4,388186.723718395,6.0224E-12,1105.5859375,3.15652927482405,6.20138958915942,-5.26582143807115
6420.0,-5271218.78462354,1780422.47613181,3836107.41274568,-2198685.19675148,-5109481.05204809,3838014.92119992,4188.78824710735,-4915.10099832667,-4157.27777762171,2.83945334965162,6.59854949205778,-4.95653690674564,6758705.25738149,1.49147316671629,-0.521578550915161,-0.0638731301055015,0.715135731293369,2.83789724236481,1.01550424463385,-1.71197289264016,-6.574600432711E-4,-8.894110617357E-4,-2.516389060177E-4,386834.847596021,6.3372E-12,1113.78076171875,2.83945334965162,6.59854949205778,-4.95653690674564
6480.0,-5525680.48444862,1526100.11098469,3578133.84750712,-1942443.23610342,-5392285.03512678,3579852.59055507,4349.30610662208,-4508.03173576293,-4444.80841794044,2.50904536285531,6.96519080254789,-4.62407980583044,6758705.25738151,1.4958484361291,-0.517058200837483,-0.0662767850759243,0.725537475893256,2.79349353500191,1.07071196233171,-1.71741206474006,-6.656149542346E-4,-8.833461319401E-4,-2.50942254816E-4,385479.452843098,6.6555E-12,1121.50122070312,2.50904536285531,6.96519080254789,-4.62407980583044
6540.0,-5756809.73447205,1266837.76763976,3303528.07885495,-1677172.2544477,-5650024.0086061,3305050.06729086,4489.63755661837,-4079.92320539307,-4711.73441007783,2.16683259522661,7.29958187252041,-4.26997894561525,6758705.25738149,1.50022370554192,-0.512499227442981,-0.0688530195202458,0.735407576702911,2.74301280996883,1.12537272250959,-1.72896762037102,-6.736637392101E-4,-8.772594987657E-4,-2.501707898954E-4,384139.325745189,6.9738E-12,1128.72216796875,2.16683259522661,7.29958187252041,-4.26997894561525
6600.0,-5963570.10120034,1003625.73103014,3013563.46692501,-1404103.74217912,-5881494.63991784,3014881.62469403,4609.12158617033,-3632.75869736621,-4956.80559872306,1.81439991207185,7.60013881948377,-3.89586665887117,6758705.25738153,1.50459897495472,-0.507926213760923,-0.0715774590516499,0.744743009064052,2.68404364623955,1.17931255424244,-1.74898907274271,-6.816044061624E-4,-8.711550882051E-4,-2.49325251312E-4,382833.071619562,7.2883E-12,1135.4208984375,1.81439991207185,7.60013881948377,-3.89586665887117
6660.0,-6145028.94991721,737464.461801838,2709585.35083469,-1124505.96628856,-6085615.35262043,2710693.54832507,4707.19382290166,-3168.61190211899,-5178.87269195389,1.45338249718555,7.86543344655992,-3.50347145900202,6758705.25738155,1.50897424436754,-0.503362771530842,-0.0744248216744075,0.753543280011834,2.61279480255668,1.23226459686116,-1.7812079984514,-6.894350859021E-4,-8.650368503492E-4,-2.484064179084E-4,381578.796390772,7.5945E-12,1141.57556152343,1.45338249718555,7.86543344655992,-3.50347145900202
6720.0,-6300361.7945647,469360.892083345,2393004.83277616,-839678.085967539,-6261431.46573945,2393897.91572482,4783.3893268691,-2689.63734888167,-5376.89279908485,1.08545830035408,8.09420046821117,-3.09461019198767,6758705.25738155,1.51334951378035,-0.498831502805695,-0.077369139626097,0.761810439028918,2.52301928675967,1.28378972991404,-1.83181360871242,-6.971540316823E-4,-8.589087539124E-4,-2.474151054622E-4,380393.795176209,7.8881E-12,1147.16577148437,1.08545830035408,8.09420046821117,-3.09461019198767
6780.0,-6428856.1823448,200324.718740647,2065292.24439662,-550944.114330971,-6408119.7468488,2065966.05826593,4837.34492354967,-2198.06043258905,-5549.93448325992,0.712340232514374,8.2853439971736,-2.67117971502256,6758705.25738157,1.51772478319316,-0.494353972365786,-0.0803839818825447,0.769549069708138,2.40392972338273,1.33310813903397,-1.91153705458496,-7.047596185202E-4,-8.527747808318E-4,-2.463521647915E-4,379294.253786326,8.1642E-12,1152.17175292968,0.712340232514374,8.2853439971736,-2.67117971502256
6840.0,-6529915.09306016,-68635.2926796943,1727970.32539062,-259646.754344675,-6524992.3555523,1728421.73509505,4868.80106186931,-1696.16707478434,-5697.18230146263,0.335768144867563,8.43794325112373,-2.23514813811707,6758705.25738157,1.52210005260597,-0.48995068905142,-0.0834426749801569,0.776766262616466,2.23631998487037,1.3787223412437,-2.03952949723466,-7.122503422543E-4,-8.466389209548E-4,-2.452184798273E-4,378294.968911239,8.4181E-12,1156.57409667968,0.335768144867563,8.43794325112373,-2.23514813811707
