time,gePosition_m_X,gePosition_m_Y,gePosition_m_Z,eiPosition_m_X,eiPosition_m_Y,eiPosition_m_Z,eiVelocity_m_s_X,eiVelocity_m_s_Y,eiVelocity_m_s_Z,eiAccel_m_s2_X,eiAccel_m_s2_Y,eiAccel_m_s2_Z,semiMajorAxis_m,gast_rad,eulerAngle_rad_Roll,eulerAngle_rad_Pitch,eulerAngle_rad_Yaw,eulerAngleWrtEi_rad_Roll,eulerAngleWrtEi_rad_Pitch,eulerAngleWrtEi_rad_Yaw,bodyAngularRateWrtEi_rad_s_Roll,bodyAngularRateWrtEi_rad_s_Pitch,bodyAngularRateWrtEi_rad_s_Yaw,altitudeMsl_m,airDensity_kg_m3,ambientTemperature_dgK,eiGravitation_m_s2_X,eiGravitation_m_s2_Y,eiGravitation_m_s2_Z
0.0,-1428622.31101,4163200.46562,5136049.67203,-4292653.41,955168.47,5139356.57,109.649663,-7527.72649,1484.521489,5.52898656936,-1.23026788741,-6.61954989995,6758662.11723,1.02334780893,5.666859310097427E-17,-0.2024581932313422,-1.0271182499535224E-16,-2.471593905353287,-0.03718896447605677,-1.4289931348888525,0.0,0.0,0.0,398252.763838,3.11591362917E-12,976.47737094,5.52898656936,-1.23026788741,-6.61954989995
60.0,-1789712.64868,3920255.31305,5213136.6043,-4276130.76361,501640.150639,5216447.94771,440.899504426,-7584.0430456,1084.18939672,5.50841669093,-0.646201702282,-6.71971240616,6758662.11723,1.02772307802,-2.3648081763345727E-6,-0.20245604259998598,-1.0060057579448604E-4,-2.4720592963860404,0.01612042366569264,-1.3866611796765804,-7.049068603766561E-7,-0.001134477987848274,-3.302852372534542E-6,398335.16147,3.20687244874E-12,983.702829946,5.50841669093,-0.646201702282,-6.71971240616
120.0,-2144732.03326,3662345.31178,5266057.24147,-4239785.46485,45786.4492663,5269357.6801,770.149856361,-7605.20775889,678.7772427,5.46236021842,-0.058989324127,-6.78881750198,6758662.11723,1.03209834711,-2.5118996464676512E-5,-0.20244904674264,-4.002575026466601E-4,-2.470307948697733,0.06928029515548614,-1.3441021824376438,-1.5682193695747527E-6,-0.0011344959082205722,-6.615080444266568E-6,398280.483171,3.31726588913E-12,991.661468685,5.46236021842,-0.058989324127,-6.78881750198
180.0,-2492166.12293,3390599.00166,5294562.85755,-4183783.25764,-410279.480789,5297837.08957,1095.87688043,-7591.11290731,270.159254332,5.39101509823,0.528665740843,-6.82652947799,6758662.11723,1.0364736162,-9.17969090786012E-5,-0.20243641348053673,-8.945341280171851E-4,-2.4663158457375527,0.12219457297341439,-1.3010762842746364,-2.5897433371880404E-6,-0.0011345075693185744,-9.935939052561712E-6,398085.378679,3.44775481373E-12,1000.300609,5.39101509823,0.528665740843,-6.82652947799
240.0,-2830524.93281,3106195.85057,5298517.62797,-4108380.89026,-864442.894078,5301750.4708,1416.572094,-7541.8131943,-139.774483848,5.29469509567,1.11405482452,-6.83265572643,6758662.11723,1.04084888529,-2.2590163205729109E-4,-0.20241740163866534,-0.0015773854989644415,-2.4600313118668202,0.17476349162007102,-1.2573391714524293,-3.7692476844597157E-6,-0.0011345124437282144,-1.3264676401906132E-5,397748.768109,3.59852917815E-12,1009.53002767,5.29469509567,1.11405482452,-6.83265572643
300.0,-3158349.2707,2810361.12396,5277899.32319,-4013924.98617,-1314597.20057,5281075.7838,1730.7492879,-7457.52569377,-549.126655788,5.17382866283,1.69447627941,-6.80714795491,6758662.11723,1.04522415437,-4.5079125779591843E-4,-0.20239134369840017,-0.0024411868488160384,-2.4513746395741123,0.22688152919940394,-1.212638578679881,-5.106463907715847E-6,-0.0011345099435632596,-1.6600533489169586E-5,397271.88372,3.76928395326E-12,1019.22714303,5.17382866283,1.69447627941,-6.80714795491
360.0,-3474217.08765,2504360.5957,5232799.48317,-3900850.50203,-1758653.68795,5235904.82755,2036.95136094,-7338.62906256,-956.001393646,5.02895729882,2.26724769265,-6.75010277495,6758662.11723,1.04959942346,-7.8956535989131E-4,-0.20235766593510943,-0.0034767697023917053,-2.440237430159686,0.27843520853324666,-1.1667109306425738,-6.601085475827106E-6,-0.0011344994211529684,-1.9942743536966846E-5,396658.271822,3.95927497991E-12,1029.24864764,5.02895729882,2.26724769265,-6.75010277495
420.0,-3776749.71579,2189495.12225,5163423.07076,-3769678.779,-2194551.17459,5166442.89226,2333.75704093,-7185.6620202,-1358.51297384,4.86073340379,2.82971808105,-6.66176165595,6758662.11723,1.05397469255,-0.0012649521690328252,-0.2023159053548305,-0.004673465428267019,-2.4264817776195184,0.32930071575502307,-1.1192781943573564,-8.252767163976442E-6,-0.0011344801697995635,-2.3290531437403787E-5,395913.75464,4.16743259548E-12,1039.44538411,4.86073340379,2.82971808105,-6.66176165595
480.0,-4064617.96598,1867095.10307,5070087.60404,-3621015.19486,-2620265.54951,5073007.89024,2619.78746171,-6999.32109896,-1754.79449109,4.66991762971,3.37928001561,-6.54251023745,6758662.11723,1.05834996164,-0.0018991969575552084,-0.20226572268301005,-0.006019156023651889,-2.40993949275919,0.37934129187713267,-1.070045087132488,-1.0061124325786983E-5,-0.0011344514246142464,-2.664311320769178E-5,395046.35254,4.39248786983E-12,1049.67618037,4.66991762971,3.37928001561,-6.54251023745
540.0,-4336548.05782,1538514.85011,4953221.77021,-3455546.42661,-3033819.15549,4956028.96803,2893.71256637,-6780.45766981,-2143.0064719,4.4573757334,3.91338162297,-6.39287699509,6758662.11723,1.06272523073,-0.0027139521540412094,-0.20220691085727635,-0.007500331877758609,-2.3904116628473107,0.42840436585028874,-1.018696889844619,-1.2025732106073805E-5,-0.001134412363442219,-2.9999695459375573E-5,394066.16769,4.63306699777E-12,1059.81737392,4.4573757334,3.91338162297,-6.39287699509
600.0,-4591327.35534,1205126.8898,4813363.52578,-3274037.33485,-3433289.97225,4816044.60446,3154.25730682,-6530.07425328,-2521.34538841,4.22407493918,4.42953841007,-6.21353125793,6758662.11723,1.06710049981,-0.0037301697223824436,-0.20213939852682422,-0.009102156224769098,-2.367668984746518,0.47631842124721674,-0.964898263413571,-1.4146124597064531E-5,-0.001134362107854033,-3.335947488424658E-5,392985.230813,4.88772979641E-12,1069.76694871,4.22407493918,4.42953841007,-6.21353125793
660.0,-4827809.88176,868316.221086,4651157.69009,-3077327.483,-3816820.55719,4653700.20187,3400.20761071,-6249.32012759,-2888.05203397,3.97107982106,4.92534485816,-6.00528057771,6758662.11723,1.0714757689,-0.004967996347008544,-0.20206324820062083,-0.010808535967271361,-2.3414535056176056,0.5228896292502554,-0.908293668414397,-1.642179394093355E-5,-0.0011342997242294386,-3.672163775762219E-5,391817.313346,5.15495300749E-12,1079.44416186,3.97107982106,4.92534485816,-6.00528057771
720.0,-5044921.58748,529474.553225,4467353.04181,-2866327.30621,-4182626.70184,4469745.1799,3630.4160871,-5939.48624934,-3241.41972145,3.69954771645,5.39848573122,-5.76906745355,6758662.11723,1.07585103799,-0.006446671969541185,-0.2019786487843777,-0.012602198527103273,-2.3114826627458736,0.5678983472276622,-0.848510249623177,-1.885218938147738E-5,-0.0011342242249250088,-4.0085359460649106E-5,390577.707882,5.43307543139E-12,1088.78644481,3.69954771645,5.39848573122,-5.76906745355
780.0,-5241665.34627,189994.547074,4262798.92999,-2642013.94644,-4529005.7634,4265029.58367,3843.80744331,-5601.99950563,-3579.8022658,3.41072368629,5.84674704438,-5.50596541829,6758662.11723,1.08022630708,-0.008184432218169377,-0.201885902445203,-0.014464774360976571,-2.277456823660206,0.6110956857896566,-0.7851643614906788,-2.143671626894539E-5,-0.0011341345695115796,-4.344980402669232E-5,389282.980377,5.72022664279E-12,1097.7452932,3.41072368629,5.84674704438,-5.50596541829
840.0,-5417125.65531,-148735.916456,4038441.41394,-2405426.77194,-4854344.63194,4040500.22042,4039.38358617,-5238.41631976,-3901.62171297,3.10593503834,6.26802663725,-5.21717449618,6758662.11723,1.08460157617,-0.010198415261172614,-0.2017854058266225,-0.016376884764919764,-2.239071852014994,0.6522004999647085,-0.7178732380682341,-2.4174735020120254E-5,-0.0011340296661233877,-4.681412370814437E-5,387950.698132,6.01425775883E-12,1106.28229852,3.10593503834,6.26802663725,-5.21717449618
900.0,-5570473.01589,-485339.417195,3795318.94811,-2157662.60064,-5157127.29515,3797196.34098,4216.22838204,-4850.41563555,-4205.37577766,2.78658543362,6.66034429836,-4.90401604459,6758662.11723,1.08897684525,-0.01250457359789321,-0.20167762578675777,-0.01831823458236317,-2.196038465612824,0.6908973697244394,-0.6462735555547374,-2.7065560040001193E-5,-0.0011339083728613177,-5.017745857220708E-5,386599.138075,6.3126881824E-12,1114.36594672,2.78658543362,6.66034429836,-4.90401604459
960.0,-5700967.97255,-818454.602498,3534557.63056,-1899870.6489,-5435941.96416,3536244.8846,4373.51205129,-4439.79130921,-4489.64495351,2.45414859808,7.02185138673,-4.56792699599,6758662.11723,1.09335211434,-0.01511759127471556,-0.20156307005236024,-0.02026770942552324,-2.148110124636627,0.7268363965044108,-0.5700486092861767,-3.0108458605857893E-5,-0.0011337694993095895,-5.353893612198061E-5,385246.980295,6.61267311836E-12,1121.96917921,2.45414859808,7.02185138673,-4.56792699599
1020.0,-5807964.78988,-1146741.70063,3257366.03243,-1633247.22491,-5689487.72776,3258855.30449,4510.4954929,-4008.44411536,-4753.09960219,2.11017767765,7.3508313821,-4.21047074813,6758662.97825,1.09772738343,-0.018031256105942483,-0.20144074433553497,-0.02220299905562037,-2.0951024055897727,0.7596355973874515,-0.4889673567771805,-3.133367107380191E-5,-0.0011334625329614666,-5.683379105866745E-5,383912.991234,6.91099952329E-12,1129.06782627,2.11016166101,7.35083990395,-4.21045351703
1080.0,-5890914.74714,-1468887.9506,2965029.59963,-1359030.16175,-5916580.71641,2966313.96548,4626.53357171,-3558.37281214,-4994.50598474,1.75623433169,7.64574408735,-3.83326182848,6758665.56785,1.10210265252,-0.021000813740831653,-0.20129149811578423,-0.02410324558294339,-2.036737254990217,0.7888789360947542,-0.4029507953047129,-2.876486488998179E-5,-0.0011328476299738573,-6.001360800082809E-5,382615.697319,7.2041097041E-12,1135.63958273,1.75621811275,7.64575100109,-3.83324407427
1140.0,-5949369.02889,-1783612.77322,2658904.79609,-1078493.14985,-6116159.67263,2659978.283,4721.07730339,-3091.66452249,-5212.73111043,1.3939769042,7.9051773815,-3.4380602515,6758668.15759,1.10647792161,-0.023954567494567702,-0.20110995867800374,-0.025967977843992476,-1.9730795558194216,0.8141288197789385,-0.3120781397697415,-2.6358898654396775E-5,-0.001132230178742708,-6.321425620595685E-5,381373.091082,7.48814904156E-12,1141.66340224,1.39396055672,7.90518265553,-3.43804205782
1200.0,-5982981.20643,-2089672.87591,2340412.81855,-792939.810579,-6287291.00808,2341270.43347,4793.67817852,-2610.48598927,-5406.74991722,1.02508951511,8.12789321219,-3.02669641111,6758670.74746,1.11085319069,-0.026899535572390484,-0.20089691120917205,-0.027800044375106383,-1.9045041102911366,0.8349528440934618,-0.21665917419564198,-2.411591786100942E-5,-0.0011316102224509556,-6.64349583347736E-5,380202.310166,7.75904343295E-12,1147.11913137,1.02507311314,8.1278968225,-3.0266778637
1260.0,-5991509.28586,-2385867.16966,2011033.00066,-503697.623095,-6429173.26614,2011670.75388,4843.98978458,-2117.07315744,-5575.64956793,0.651289949638,8.3128238904,-2.60107930674,6758673.33747,1.11522845978,-0.029843025001336856,-0.20065320041199525,-0.0296017208178962,-1.8316630655847448,0.8509495976307923,-0.11728354605500493,-2.2036029580009768E-5,-0.0011309877385140392,-6.967494084915084E-5,379119.336848,8.0125982613E-12,1151.98723938,0.65127356718,8.31282582065,-2.60106049305
1320.0,-5974817.31127,-2671041.46784,1672295.94797,-212111.742686,-6541140.96399,1672710.87205,4871.76958534,-1613.72078101,-5718.63390397,0.274321607928,8.45907766561,-2.16318771986,6758675.92761,1.11960372887,-0.032792592381451,-0.20037972549232122,-0.031374699582183814,-1.7554969533669407,0.8617790353201482,-0.014831319042635101,-2.0119302657131885E-5,-0.0011303626382011649,-7.293343344261265E-5,378138.721824,8.2446126197E-12,1156.24848652,0.274305318643,8.45907790722,-2.16316872864
1380.0,-5932876.51288,-2944092.96267,1325776.42177,80461.2729807,-6622667.80139,1325966.58573,4876.88021184,-1102.77171996,-5835.02735762,-0.104054716688,8.5659434775,-1.7150609999,6758678.5179,1.12397899796,-0.035756003282270174,-0.20007743451125437,-0.03312008245802314,-1.67720311312037,0.8671932313523214,0.08955906373205653,-1.836576783233629E-5,-0.0011297347663543078,-7.620966845739484E-5,377273.333027,8.45101845114E-12,1159.88413952,-0.104070839827,8.56594202965,-1.71504192075
1440.0,-5865765.99124,-3203974.46151,973086.005154,372659.800213,-6673369.21943,973050.523857,4859.29025596,-586.605977623,-5924.27830095,-0.482069190428,8.63289485041,-1.25878950233,6758681.10832,1.12835426705,-0.03874119048617141,-0.19974731813862204,-0.03483837619670106,-1.598157038182758,0.8670617749647129,0.19456987343290394,-1.6775417776863276E-5,-0.001129103901180517,-7.95028802889385E-5,376534.134534,8.6280430621E-12,1162.87689257,-0.482085075451,8.63289172006,-1.25877042531
1500.0,-5773672.93056,-3449698.36592,615865.585624,663123.518164,-6693004.29484,615604.624228,4819.07455991,-67.6295308787,-5985.96181161,-0.857951380878,8.65959290153,-0.796504725079,6758683.69888,1.13272953613,-0.0417562112852262,-0.19939040274670686,-0.03652949106385941,-1.5197964749343802,0.8613861031444918,0.29882042244125034,-1.5348207049878947E-5,-0.0011284697541314888,-8.28123047788646E-5,375930.000044,8.7723658214E-12,1165.21156273,-0.857966957136,8.65958810336,-0.79648574026
1560.0,-5656892.33652,-3680340.37816,255777.689613,950499.779837,-6681476.95943,255292.463128,4756.41399771,451.736992957,-6019.78183902,-1.22993874466,8.6458884381,-0.3303691916,6758686.28957,1.13710480522,-0.04480920404850747,-0.19900774285646144,-0.03819274236212023,-1.4434916334494718,0.8502992025787188,0.4009972719588189,-1.4084051973579445E-5,-0.0011278319698651684,-8.613717860079249E-5,375467.564753,8.8812596926E-12,1166.87559045,-1.22995394313,8.64588199442,-0.330350388644
1620.0,-5515826.29611,-3895042.92041,-105501.294569,1233449.9547,-6638836.53677,-106208.526651,4671.59474695,969.069737218,-6025.57275724,-1.59628511666,8.59182312394,0.137433868359,6758688.8804,1.14148007431,-0.047908344274524575,-0.19860041292398936,-0.03982685490488827,-1.3704303222608494,0.834050751975347,0.4999695137694956,-1.2982830428306754E-5,-0.0011271901262998563,-8.947673863917735E-5,375151.118698,8.95270984347E-12,1167.85942388,-1.59629987024,8.5918150646,0.137452400615
1680.0,-5350982.75926,-4093018.25376,-466288.968323,1510655.71234,-6565277.59215,-467214.912291,4565.0070525,1481.95307868,-6003.30029385,-1.9552691558,8.49762970099,0.604710987416,6758691.47136,1.1458553434,-0.051061800355678776,-0.19816949842889356,-0.041429970411834605,-1.3015409655849575,0.812981383341932,0.5948661738238114,-1.2044381567466612E-5,-0.0011265437347328907,-9.283022136413319E-5,374982.543781,8.9855020242E-12,1168.1568278,-1.95528339962,8.49762006324,0.60472916138
1740.0,-5162973.84441,-4273551.28531,-824904.811219,1780825.21679,-6461139.09494,-826045.154265,4437.14348573,1987.99107506,-5953.06182769,-2.30520270189,8.36373125677,1.06926902394,6758694.06245,1.15023061249,-0.05427768927273118,-0.197716086297655,-0.04299965778853684,-1.237462763837799,0.7874918052209722,0.6851064829502356,-1.1268505453575018E-5,-0.0011258922400570657,-9.619686220224162E-5,374961.295763,8.97927515743E-12,1167.76514448,-2.30521637358,8.36372008506,1.06928675368
1800.0,-4952513.67241,-4436002.05305,-1179678.06833,2042699.20143,-6326902.89599,-1181027.49846,4288.59670625,2484.81883985,-5875.08605125,-2.64443899806,8.19073953455,1.52892576416,6758696.65367,1.15460588158,-0.05756403245036449,-0.19724125463411532,-0.044532926237567036,-1.1785580797653992,0.7580124884989728,0.7703879388467266,-1.0654962616480474E-5,-0.0011252350210608324,-9.957589490875704E-5,375084.431589,8.93453505128E-12,1166.6855261,-2.644452038,8.19072688032,1.52894296579
1860.0,-4720415.7355,-4579807.87973,-1528955.59834,2295056.8949,-6163191.52611,-1530507.82899,4120.05673538,2970.11378705,-5769.73199731,-2.97138073331,7.97945228871,1.98152050599,6758699.245,1.15898115066,-0.06092871198973583,-0.19674606177800763,-0.046026241143605866,-1.1249534026146375,0.7249779997044216,0.8506458137666417,-1.0203473535210649E-5,-0.0011245713908017952,-1.0296655093998603E-4,375346.681413,8.85262898551E-12,1164.92315206,-2.97139308491,7.97943821015,1.98153709809
1920.0,-4467589.81053,-4704485.1887,-1871109.6443,2536721.76909,-5970765.32526,-1872857.44354,3932.30775364,3441.60668884,-5637.48743243,-3.28448786056,7.73084969378,2.42492456707,6758701.83646,1.16335641975,-0.06437942750439005,-0.1962315347281877,-0.04747554266032648,-1.076593457668477,0.6888079203650381,0.9259995480467417,-9.913718044909493E-6,-0.0011239005970744625,-1.0636805883020508E-4,375740.563764,8.73568379009E-12,1162.48744042,-3.2844994705,7.73083425556,2.42494047104
1980.0,-4195038.42763,-4809630.97586,-2204545.48937,2766567.08101,-5750518.91528,-2206480.71353,3726.224437,3897.09248971,-5478.96662371,-3.58228514637,7.44608982146,2.85705165933,6758704.42803,1.16773168884,-0.0679236537708925,-0.19569865694627306,-0.048876266920333714,-1.0332960998337073,0.6498944775504427,0.9966983989223999,-9.785334671238482E-6,-0.0011232218229617705,-1.0977964357363924E-4,376256.541375,8.58651260692E-12,1159.39225859,-3.58229596483,7.44607309443,2.85706679978
2040.0,-3903852.92414,-4894923.93161,-2527708.94835,2983521.17324,-5503477.04636,-2529822.57997,3502.76743937,4334.44012098,-5294.906906,-3.86337937421,7.12648527454,3.27588235791,6758705.29408,1.17210695793,-0.0716471870269727,-0.19515447481514628,-0.05022432174402914,-0.9948762224185238,0.6085914757707103,1.0630791479587507,-1.3759815663001662E-5,-0.0011228280382468798,-1.1332588955086009E-4,376883.217623,8.40849707279E-12,1155.65613634,-3.86337937421,7.12648527454,3.27588235791
2100.0,-3595209.08875,-4960125.21377,-2839093.66873,3186572.51435,-5230789.8284,-2841375.85861,3262.97993064,4751.60435759,-5086.16673022,-4.1264254175,6.7735675257,3.67941589619,6758705.29408,1.17648222702,-0.07581493324055681,-0.1946191964846892,-0.05150520319906272,-0.9612768084152561,0.5652149535552732,1.1255412995746974,-1.9863931361124663E-5,-0.001122545109526165,-1.169232888460898E-4,377607.561473,8.20545452003E-12,1151.30248016,-4.1264254175,6.7735675257,3.67941589619
2160.0,-3270362.30275,-5005078.8824,-3137248.28237,3374774.50818,-4933727.27187,-3139688.39557,3007.98197326,5146.6346387,-4853.72067371,-4.3701953133,6.38897554441,4.06576838788,6758705.29408,1.1808574961,-0.08045607419107453,-0.19409372428837976,-0.05268765131558639,-0.9321974470092459,0.52006733690736,1.1844939225236313,-2.611597482513249E-5,-0.0011222179920480665,-1.2050371262901712E-4,378415.144736,7.98150040947E-12,1146.35978351,-4.3701953133,6.38897554441,4.06576838788
2220.0,-2930642.43137,-5029711.96466,-3420783.20178,3547249.92736,-4613673.3658,-3423369.86728,2738.96502611,5517.68397672,-4598.65455659,-4.59354179481,5.97451599617,4.43312224582,6758705.29408,1.18523276519,-0.08557782719127581,-0.19357700656411458,-0.05373949741127027,-0.9073258142430903,0.47341797276022035,1.2403450928435906,-3.251423590693339E-5,-0.0011218443288972734,-1.2406595182838778E-4,379290.435618,7.74090762724E-12,1140.86183631,-4.59354179481,5.97451599617,4.43312224582
2280.0,-2577448.32135,-5034034.17928,-3688377.15431,3703195.03968,-4272119.57974,-3691098.31816,2457.18649739,5863.01809579,-4322.16058844,-4.79541471103,5.53213775144,4.77975018467,6758705.29408,1.18960803428,-0.0911851064662989,-0.19306753249555192,-0.05462854868996645,-0.8863700188022439,0.4255052709219778,1.2934908070389046,-3.9056923123963155E-5,-0.0011214217502604916,-1.2760877581237165E-4,380217.096029,7.48797656281E-12,1134.84791397,-4.79541471103,5.53213775144,4.77975018467
2340.0,-2212241.96331,-5018137.31795,-3938783.39466,3841883.38709,-3910657.85074,-3941626.37632,2163.9637618,6181.02368291,-4025.53169541,-4.97486613935,5.06392239536,5.10402363055,6758705.29408,1.19398330337,-0.09728049223045032,-0.19256326660117826,-0.05532275327620335,-0.8690663301601576,0.37654072490581914,1.3443083500332398,-4.574216201372365E-5,-0.001120947877285366,-1.3113093288353816E-4,381178.28975,7.22691961602E-12,1128.36292571,-4.97486613935,5.06392239536,5.10402363055
2400.0,-1836542.34843,-4982194.28889,-4170835.5624,3962669.19684,-3530973.09269,-4173787.11406,1860.66788643,6470.21604917,-3710.1553578,-5.13105497691,4.57207406438,5.40442062669,6758705.29408,1.19835857246,-0.10386421004955897,-0.19206158801779435,-0.05579036678556982,-0.8551831613777453,0.3267129586608702,1.3931535407014457,-5.256799358829367E-5,-0.0011204203260633237,-1.3463115085446585E-4,382156.996485,6.96176346814E-12,1121.45748277,-5.13105497691,4.57207406438,5.40442062669
2460.0,-1451919.04658,-4926457.82944,-4383453.15619,4064990.40824,-3134835.26464,-4386499.52468,1548.71709742,6729.24616231,-3377.50698938,-5.26325098585,4.05890866647,5.67953319175,6758705.29408,1.20273384154,-0.11093412028801744,-0.19155923661172913,-0.056000119710517035,-0.8445226220170663,0.27619159072941435,1.4403605548303384,-5.953237290263549E-5,-0.0011198367117258596,-1.3810813770276438E-4,383136.325805,6.69627039824E-12,1114.187821,-5.26325098585,4.05890866647,5.67953319175
2520.0,-1059985.53456,-4851258.89657,-4575646.59806,4148371.30047,-2724091.03694,-4578773.58922,1229.57002081,6956.90701557,-3029.14289275,-5.37083827109,3.52684254504,5.92807409136,6758705.29408,1.20710911063,-0.11848571737644185,-0.191052267827172,-0.055921384822566526,-0.8369206001054778,0.2251308210294052,1.4862433818839391,-6.663316774455059E-5,-0.0011191946526438012,-1.415605823079527E-4,384099.825125,6.43387779029E-12,1106.61547805,-5.37083827109,3.52684254504,5.92807409136
2580.0,-662392.304203,-4757004.74517,-4746521.86362,4212424.70893,-2300655.09595,-4749714.90862,904.718732291,7152.13930132,-2666.69282681,-5.45331817281,2.97838065035,6.14888298703,6758705.29408,1.21148437972,-0.1265121386013245,-0.19053601812690837,-0.05552434370534416,-0.8322460406444472,0.17367271650659635,1.5310982621533173,-7.386815745605891E-5,-0.0011184917747347782,-1.4498715527141453E-4,385031.776049,6.17765315902E-12,1098.80658881,-5.45331817281,2.97838065035,6.14888298703
2640.0,-260819.781596,-4644176.70553,-4895284.6558,4256853.81974,-1866501.12992,-4898528.87931,575.681651222,7314.03636168,-2291.85222487,-5.51031155989,2.41610428459,6.34093193075,6758705.29408,1.21585964881,-0.13500418210339263,-0.19000508273239028,-0.05478015143023489,-0.8303998667866355,0.12195021389009303,1.5752066693584756,-8.123503189719683E-5,-0.0011177257158562182,-1.4838650981803571E-4,385917.473791,5.93026086089E-12,1090.8306396,-5.51031155989,2.41610428459,6.34093193075
2700.0,143028.910772,-4513327.67266,-5021244.1027,4281453.5341,-1423652.54005,-5024524.39238,243.996315338,7441.84839297,-1906.37410332,-5.54156051377,1.84265848933,6.50333017783,6758705.29408,1.2202349179,-0.14395033377487768,-0.18945330713445496,-0.05366109829063392,-0.8313138292485309,0.07008988080951166,1.6188385587113239,-8.873139056165885E-5,-0.0011168941303048058,-1.5175728278022052E-4,386743.48475,5.6939365874E-12,1082.75854104,-5.54156051377,1.84265848933,6.50333017783
2760.0,547435.315984,-4365079.32126,-5123815.96187,4286111.39647,-974172.922259,-5127117.03902,-88.7879271434,7534.98588427,-1512.06070265,-5.54692939681,1.26073914563,6.63532829501,6758705.29408,1.22461018698,-0.15333680277923434,-0.18887379369590548,-0.05214076740744713,-0.8349494554703967,0.018214487824390488,1.6622557048648552,-9.635474185388219E-5,-0.001115994693382262,-1.5509809566638245E-4,387497.87783,5.47046718534E-12,1074.65997898,-5.54692939681,1.26073914563,6.63532829501
2820.0,950673.095372,-4200119.06126,-5202525.31655,4270808.08275,-520156.365889,-5205831.80747,-421.117270971,7593.02227525,-1110.75490354,-5.52640530239,0.673079858149,6.7363215454,6758705.29408,1.22898545607,-0.16314756546728978,-0.18825892431461091,-0.050194186928434116,-0.8412971890397943,-0.03355455174653882,1.7057150194489503,-1.0410250253560293E-4,-0.0011150251060449029,-1.5840755581006903E-4,388170.425617,5.2611763891E-12,1066.6002071,-5.52640530239,0.673079858149,6.7363215454
2880.0,1351015.53798,-4019196.74981,-5257008.75149,4235617.44677,-63717.6167603,-5260305.25927,-751.440815799,7615.69582232,-704.331461943,-5.48009788836,0.0824386955261,6.80585253643,6758705.29408,1.23336072516,-0.17336441753396495,-0.1876003999220527,-0.04779797545881527,-0.8503757498800606,-0.08509481706059625,1.7494717733984722,-1.1197199735340271E-4,-0.0011139830996212646,-1.6168425760076783E-4,388752.772119,5.06692088657E-12,1058.63672605,-5.48009788836,0.0824386955261,6.80585253643
2940.0,1746743.09264,-3823121.17665,-5287015.99894,4180706.12576,393017.847904,-5290287.17532,-1078.21789975,7602.9106667,-294.688107609,-5.40823859874,-0.508415141149,6.84361312166,6758705.29408,1.23773599425,-0.18396703434488196,-0.18688929716812827,-0.04493047929720905,-0.8622316969580631,-0.13628053525769962,1.7937826609642886,-1.1996045885335478E-4,-0.0011128664405855777,-1.649267837960451E-4,389238.564377,4.88810384161E-12,1050.81654043,-5.40823859874,-0.508415141149,6.84361312166
3000.0,2136150.88831,-3612756.34033,-5292411.0479,4106332.70757,847923.78459,-5295641.66484,-1399.92536812,7554.73710226,116.263448965,-5.31117928262,-1.09671464995,6.8494455519,6758705.29408,1.24211126334,-0.19493303945973578,-0.18611614241263907,-0.041571900011520786,-0.8769391292970818,-0.18698020690256711,1.8389086329812965,-1.2806502739306673E-4,-0.0011116729353748776,-1.681337069127477E-4,389623.545927,4.72471218924E-12,1043.17472242,-5.31117928262,-1.09671464995,6.8494455519
3060.0,2517556.2086,-3389017.53375,-5273172.71249,4012846.46463,1298883.14073,-5276347.73317,-1715.06474147,7471.41104517,526.606556132,-5.18939022228,-1.67970828931,6.82334287574,6758705.29408,1.24648653242,-0.2062380814611646,-0.18527100267963406,-0.037704410877013,-0.8945994106144687,-0.23705415799777677,1.885117398469782,-1.3628275135670515E-4,-0.0011104004352567257,-1.713035906937779E-4,389905.610717,4.57637873627E-12,1035.73472592,-5.18939022228,-1.67970828931,6.82334287574
3120.0,2889305.88634,-3152867.25786,-5229394.65802,3900685.66166,1743797.95629,-5232499.30687,-2022.16924805,7353.33271181,934.428662301,-5.04345758629,-2.25467309967,6.76544859378,6758705.29408,1.25086180151,-0.2178559193273553,-0.18434359296548808,-0.03331226071990517,-0.9153407409515253,-0.28635198598447986,1.9326854424891098,-1.4461058758329933E-4,-0.0011090468412021707,-1.7443499165340761E-4,390084.816774,4.44246237074E-12,1028.51036144,-5.04345758629,-2.25467309967,6.76544859378
3180.0,3249783.5848,-2905310.98286,-5161284.886,3770375.4464,2180599.1626,-5164304.71746,-2319.81068654,7201.06451516,1337.83031423,-4.87408032607,-2.81892761837,6.67605557565,6758705.29408,1.2552370706,-0.2297585166250199,-0.18332339886224436,-0.02838186377896646,-0.9393173187164954,-0.33470988381301653,1.981899334000197,-1.5304540201181501E-4,-0.00110761010880234,-1.775264606929301E-4,390163.359567,4.32213377139E-12,1021.50882635,-4.87408032607,-2.81892761837,6.67605557565
3240.0,3597416.9326,-2647392.77686,-5069164.68192,3622525.3345,2607256.23176,-5072085.64765,-2606.60608658,7015.32819422,1734.93406852,-4.68206653773,-3.36984452304,6.55560425242,6758705.29408,1.25961233969,-0.24191614487302984,-0.1821998131331192,-0.02290187429390659,-0.9667077328855123,-0.3819478521503182,2.0330559949603773,-1.6158397055067737E-4,-0.0011060882531623432,-1.8057654478437871E-4,390145.505697,4.21445323261E-12,1014.73395486,-4.68206653773,-3.36984452304,6.55560425242
3300.0,3930684.48005,-2380190.8218,-4953467.03236,3457826.30161,3021786.63137,-4956275.54651,-2881.2241354,6797.00119441,2123.89327335,-4.46832931312,-3.9048629414,6.40468010151,6758705.29408,1.26398760878,-0.2542974965036159,-0.18096228453672739,-0.016863244688038313,-0.9977120946307677,-0.42786684913681133,2.0864614708960234,-1.7022298017785214E-4,-0.0011044793537969204,-1.8358378873261158E-4,390037.488168,4.11843142466E-12,1008.18897411,-4.46832931312,-3.9048629414,6.40468010151
3360.0,4248122.44561,-2104812.83698,-4814734.52046,3277047.49761,3422265.04003,-4817417.52273,-3142.39134097,6547.112321,2502.90067855,-4.23388210707,-4.42150036861,6.22401044436,6758705.29408,1.26836287786,-0.2668698077736899,-0.1796004768457755,-0.01025926640325724,-1.0325472627192702,-0.47224598570688653,2.142427585769595,-1.789590302748006E-4,-0.0011027815595068926,-1.8654673698190167E-4,389847.36517,4.03307010126E-12,1001.87838204,-4.23388210707,-4.42150036861,6.22401044436
3420.0,4548331.22229,-1822391.4304,-4653616.7112,3081032.59975,3806832.28097,-4656161.72741,-3388.89790334,6266.83669061,2870.19683352,-3.97983364942,-4.91736413654,6.01446058098,6758705.29408,1.27273814695,-0.2795989920067707,-0.1781044357703516,-0.003085592690097414,-1.0714393522577537,-0.5148399578290875,2.2012656970694033,-1.8778863419326177E-4,-0.0011009930932084873,-1.894639354967039E-4,389584.844887,3.95738484193E-12,995.808894692,-3.97983364942,-4.91736413654,6.01446058098
3480.0,4829981.61487,-1534079.39811,-4470867.04045,2870695.82283,4173703.93235,-4473262.24036,-3619.60326779,5957.49000924,3224.07823405,-3.70738243259,-5.39016238313,5.7770292883,6758705.29408,1.27711341604,-0.29244978344127553,-0.17646476120097868,0.004659757065580013,-1.1146125770087179,-0.5553770200112973,2.2632766248933063,-1.9670822107981963E-4,-0.0010991122567207774,-1.9233393369547967E-4,389261.079457,3.89041451E-12,989.989622452,-3.70738243259,-5.39016238313,5.7770292883
3540.0,5091820.78015,-1241044.99167,-4267339.22399,2647017.60645,4521178.57481,-4269573.47599,-3833.44133532,5620.5222085,3562.90518061,-3.41781080709,-5.83771447388,5.51284371225,6758705.29408,1.28148868513,-0.3053858918265496,-0.17467278198937625,0.012976411577649246,-1.1622734301257696,-0.5935579471509744,2.328735780259953,-2.057141379149712E-4,-0.0010971374354885404,-1.9515528643513638E-4,388888.431752,3.83122251908E-12,984.431714184,-3.41781080709,-5.83771447388,5.51284371225
3600.0,5332677.84382,-944467.173477,-4043983.20471,2411040.00036,4847645.63884,-4046046.12735,-4029.42530801,5257.51047393,3885.10931283,-3.11247871836,-6.25796083133,5.22315368595,6758705.29408,1.28586395422,-0.3183701677788497,-0.17272073035903823,0.02186168021004057,-1.2145893697826442,-0.629056593511752,2.3978726774217325,-2.148026518251642E-4,-0.0010950671032143645,-1.9792655603037324E-4,388480.219152,3.77889418233E-12,979.147696126,-3.11247871836,-6.25796083133,5.22315368595
3660.0,5551469.16934,-645530.879546,-3801840.65867,2163861.77071,5151592.81648,-3803722.66852,-4206.65214856,4870.15170244,4189.20078671,-2.7928171199,-6.64897213279,4.9093255086,6758705.29408,1.2902392233,-0.33136477865468217,-0.17060191289287074,0.031310603230738566,-1.2716617020694116,-0.6615228090045575,2.4708445381160336,-2.239699526239965E-4,-0.001092899826406975,-2.0064631433236858E-4,388050.438952,3.7325332178E-12,974.150680915,-2.7928171199,-6.64897213279,4.9093255086
3720.0,5747203.25535,-345422.308754,-3542040.08217,1906633.2506,5431613.00432,-3543732.43804,-4364.30663591,4460.25442767,4473.77506327,-2.46032109806,-7.00895784064,4.57283522169,6758705.29408,1.29461449239,-0.34433139454879647,-0.16831087505613046,0.041316018788251065,-1.3334934164680454,-0.6905885556869943,2.547704756938861,-2.3321215559252566E-4,-0.0010906342688196075,-2.0331314482841082E-4,387613.480416,3.69125935516E-12,969.453563158,-2.46032109806,-7.00895784064,4.57283522169
3780.0,5918985.24034,-45324.2572221,-3265791.48408,1640550.95999,5686410.74709,-3267286.32724,-4501.66500057,4029.7302544,4737.5192797,-2.11654274443,-7.33627403362,4.21526142043,6758705.29408,1.29898976148,-0.3572313836593598,-0.1658435561959739,0.051868645262980274,-1.3999544312803238,-0.7158779918533903,2.628368696469429,-2.4252530451788695E-4,-0.0010882691957574799,-2.0592564477469084E-4,387183.828804,3.6542081181E-12,965.068268947,-2.11654274443,-7.33627403362,4.21526142043
3840.00000001,6066020.99484,253588.484145,-2974380.70934,1366852.0203,5914808.15366,-2975671.09962,-4618.09812557,3580.58484471,4979.21817615,-1.76308381242,-7.62943051215,3.83827764008,6758705.29408,1.30336503057,-0.37002601609703556,-0.1631974320744689,0.06295717730302235,-1.4707489259127573,-0.7370219483541198,2.7125814996811957,-2.519053749518233E-4,-0.001085803478247384,-2.0848242735701963E-4,386775.766936,3.62053323393E-12,961.005091415,-1.76308381242,-7.62943051215,3.83827764008
3900.00000001,6187620.78328,550153.651533,-2669163.42088,1086808.39041,6115750.25983,-2670243.36853,-4713.07430134,3114.90850018,5197.75955404,-1.40158819428,-7.88709715435,3.44364435738,6758705.29408,1.30774029966,-0.38267667488656293,-0.16037164213398938,0.07456839354763418,-1.5453916450038467,-0.7536765283983989,2.7998948128172487,-2.613482777153063E-4,-0.0010832360970536887,-2.1098212385678184E-4,386403.079976,3.58941169157E-12,957.272121973,-1.40158819428,-7.88709715435,3.44364435738
3960.00000001,6283202.47961,843225.932751,-2351558.76887,801720.950921,6288309.81508,-2352423.26193,-4786.16152466,2634.86638574,5392.13924385,-1.03373425498,-8.10810950407,3.03320064828,6758705.29408,1.31211556874,-0.3951450726528746,-0.1573670989031796,0.08668727377739802,-1.6232012445151347,-0.7655445371222307,2.8896604963057793,-2.708498626317957E-4,-0.0010805661465267905,-2.1342338583783338E-4,386078.769126,3.56005116413E-12,953.874773943,-1.03373425498,-8.10810950407,3.03320064828
4020.00000001,6352294.32284,1131681.27842,-2023042.77716,512913.464371,6431691.47323,-2023687.80433,-4837.02933423,2142.68844163,5561.4655632,-0.661227058878,-8.29147357569,2.60885554367,6758705.29408,1.31649083783,-0.40739347226038425,-0.15418657721731283,0.09929712304029238,-1.7033176685224543,-0.772397293802334,2.981048318925497,-2.8040592246819223E-4,-0.0010777928382595782,-2.158048873316536E-4,385814.779853,3.53169928413E-12,950.815388789,-0.661227058878,-8.29147357569,2.60885554367
4080.00000001,6394537.20035,1414421.0846,-1685141.4781,221726.439376,6545235.3695,-1685564.04695,-4865.45017765,1640.65903084,5704.96324818,-0.285790524827,-8.43636986472,2.17257912481,6758705.29408,1.32086610692,-0.41938490948034785,-0.15083478124172706,0.11237970017285151,-1.7847464185324744,-0.774093501033057,3.073090502098794,-2.9001219711839276E-4,-0.0010749155045501667,-2.1812532701726158E-4,385621.750044,3.50365408128E-12,948.092912365,-0.285790524827,-8.43636986472,2.17257912481
4140.00000001,6409686.44933,1690376.23242,-1339423.82767,-70489.0731285,6628420.06984,-1339621.97815,-4871.30030623,1131.10636994,5821.97684364,0.0908404554718,-8.54215655673,1.72639340049,6758705.29408,1.32524137601,-0.4310834155430318,-0.14731838763922797,0.1259153480980695,-1.86642596824401,-0.7705917171808242,-3.1184359353764197,-2.996643779666126E-4,-0.0010719336016516996,-2.2038343039240563E-4,385508.783161,3.47527475695E-12,945.70262777,0.0908404554718,-8.54215655673,1.72639340049
4200.00000001,6397613.16828,1958510.9712,-987494.433879,-362377.723125,6680864.8807,-987467.24701,-4854.56019685,616.391791582,5911.97354072,0.466927901662,-8.60837193062,1.27236300739,6758705.29408,1.3296166451,-0.4424542373912841,-0.14364606360317994,0.13988312332743466,-1.9473077200306643,-0.7619538850716198,-3.0281877891264966,-3.0935811246189394E-4,-0.001068846712795259,-2.2257795192904498E-4,385483.251006,3.44599187806E-12,943.635931157,0.466927901662,-8.60837193062,1.27236300739
4260.00000001,6358305.0329,2217826.6324,-630986.13163,-652586.115889,6702331.51075,-630733.733447,-4815.3145014,98.8988869568,5974.54545197,0.840738598204,-8.63473595568,0.812585775251,6758705.29408,1.33399191418,-0.45346405331596257,-0.13982845889182322,0.1542609222220619,-2.0264338216829656,-0.7483391573389795,-2.9402895235683837,-3.190890088776185E-4,-0.0010656545509736674,-2.2470767719217957E-4,385550.630168,3.41531603434E-12,941.880136425,0.840738598204,-8.63473595568,0.812585775251
4320.00000001,6291866.61258,2467365.16262,-271552.438272,-939769.049227,6692725.07876,-271075.998908,-4753.75152678,-418.977423469,6009.41131745,1.21055188478,-8.62115108501,0.349183197367,6758705.29408,1.33836718327,-0.46408118167811535,-0.13587817140741398,0.16902560179373685,-2.102998880842312,-0.7299893241185423,-2.8555301854937327,-3.2885264124380824E-4,-0.0010623569614704672,-2.2677142493948097E-4,385714.375547,3.38284414101E-12,940.41830145,1.21055188478,-8.62115108501,0.349183197367
4380.00000001,6198519.18593,2706212.46488,89140.0761123,-1222595.70554,6652094.46479,89838.3481427,-4670.16225017,-934.841842791,6016.41763721,1.57466735233,-8.56770225089,-0.115709153211,6758705.29408,1.34274245236,-0.47427578046294605,-0.13180968629243664,0.1841530931172836,-2.176386764029064,-0.7072087376164952,-2.7745117957371175,-3.3864455444174103E-4,-0.0010589539241323423,-2.287680491720543E-4,385975.833609,3.34835298924E-12,939.235210114,1.57466735233,-8.56770225089,-0.115709153211
4440.00000001,6078600.0556,2933501.5382,449419.469111,-1499755.77104,6580632.00462,450336.337403,-4564.93887612,-1446.30962651,5995.53922809,1.93141241449,-8.47465607024,-0.579951222426,6758705.29408,1.34711772145,-0.48402003545946853,-0.12763928892075166,0.19961850580265733,-2.2461807572164147,-0.680342244037356,-2.6976390974261655,-3.484602694434295E-4,-0.0010554455553622812,-2.3069644113284037E-4,386334.197217,3.31195375644E-12,938.328072281,1.93141241449,-8.47465607024,-0.579951222426
4500.00000001,5932561.36507,3148415.40669,807616.122578,-1769965.45481,6478672.53046,808747.338053,-4438.57294379,-1951.01744028,5946.8792051,2.27914972534,-8.3424592713,-1.0414080503,6758705.29408,1.35149299054,-0.4932883350342871,-0.12338495256645976,0.2153962223741474,-2.312151430102311,-0.6497542577931016,-2.625131625299856,-3.58295288697707E-4,-0.0010518321098369834,-2.3255553126312964E-4,386786.503007,3.27387263994E-12,937.6922997,2.27914972534,-8.3424592713,-1.0414080503
4560.00000001,5760968.42157,3350189.83001,1162070.42098,-2031973.3811,6346691.76337,1163410.74176,-4291.65299451,-2446.6341002,5870.66838995,2.61628441542,-8.17173635465,-1.49795928466,6758705.29408,1.35586825962,-0.5020574295848775,-0.11906620190501704,0.23145998191493258,-2.3742297956333682,-0.6158111124388098,-2.5570505038778264,-3.6814510161405176E-4,-0.0010481139819258107,-2.3434429108751774E-4,387327.671402,3.23440138739E-12,937.318800547,2.61628441542,-8.17173635465,-1.49795928466
4620.00000001,5564497.53185,3538115.78822,1511140.3773,-2284566.32873,6185304.06605,1512683.59312,-4124.86181122,-2930.8711502,5767.2641516,2.94127111932,-7.96328650429,-1.94750859679,6758705.29408,1.36024352871,-0.5103065739427456,-0.11470395385439175,0.24778295275585566,-2.4324736804946965,-0.5788676740426765,-2.493332059272907,-3.78005190168585E-4,-0.0010442917068095431,-2.360617350255574E-4,387950.588472,3.19388637719E-12,937.194072497,2.94127111932,-7.96328650429,-1.94750859679
4680.00000001,5343933.35908,3711541.73501,1853209.17257,-2526574.79239,5995259.56688,1854948.13365,-3938.97324319,-3401.49323202,5637.14868555,3.25262076909,-7.71807976636,-2.38799296316,6758705.29408,1.3646187978,-0.518017651235954,-0.1103203375824,0.2643377945288596,-2.487033622353699,-0.5392582591366131,-2.4338219294173307,-3.8787103458162644E-4,-0.001040365961305921,-2.3770692214057824E-4,388646.227968,3.1527080208E-12,937.299778256,3.25262076909,-7.71807976636,-2.38799296316
4740.00000001,5100165.8112,3869875.61398,2186692.57573,-2756878.34131,5777440.66912,2188619.22595,-3734.8486308,-3856.32820444,5480.92674127,3.54890712897,-7.43725251516,-2.81739177867,6758705.29408,1.36899406689,-0.525175276874093,-0.10593849579416365,0.28109671037327627,-2.5381223170512137,-0.4972913068526151,-2.3783056509753258,-3.977381190737908E-4,-0.0010363375643635722,-2.3927895778902308E-4,389403.811054,3.11123059663E-12,937.610271471,3.54890712897,-7.43725251516,-2.81739177867
4800.00000001,4834186.47299,4012586.63387,2510046.21096,-2974410.75182,5532857.96154,2512151.6252,-3513.43284657,-4293.2769696,5299.32280867,3.82877304812,-7.12210222792,-3.23373576749,6758705.29408,1.37336933598,-0.5317668815945379,-0.10158236966426237,0.29803149048528177,-2.585989533979012,-0.45324699554302206,-2.3265338070069106,-4.076019376622255E-4,-0.001032207477260979,-2.4077699519647997E-4,390211.000506,3.06976501469E-12,938.090942054,3.82877304812,-7.12210222792,-3.23373576749
4860.00000001,4547084.59585,4139206.79935,2821772.64054,-3178164.89133,5262645.54928,2824047.06594,-3275.74996999,-4710.32296565,5093.17777676,4.09093640906,-6.77408159163,-3.63511565887,6758705.29408,1.37774460506,-0.5377827726641636,-0.09727646999544526,0.3151135486563645,-2.6309028995160397,-0.40737697136262124,-2.27824133825067,-4.1745799999175643E-4,-0.0010279768034720893,-2.4220023692375905E-4,391054.125468,3.02974275206E-12,938.78582618,4.09093640906,-6.77408159163,-3.63511565887
4920.00000001,4240042.66111,4249332.195,3120428.23183,-3367197.33227,4968055.82612,3122861.13294,-3022.89861519,-5105.54128643,4863.44507972,4.33419575067,-6.39479196668,-4.01969059627,6758705.29408,1.38211987415,-0.5432161726186737,-0.09304563737007446,0.3323139537206673,-2.6731340543508826,-0.3599054639668808,-2.2331615162821032,-4.273018371869763E-4,-0.0010236467882195112,-2.4354793624744778E-4,391918.432311,2.99286898796E-12,939.760513316,4.33419575067,-6.39479196668,-4.01969059627
4980.00000001,3914331.53441,4342624.02082,3404629.77839,-3540632.67573,4650453.71171,3407209.88585,-2756.04693144,-5477.10739026,4611.18634713,4.55743554572,-5.98597623378,-4.38569624913,6758705.29408,1.38649514324,-0.5480632350700466,-0.08891479420428842,0.3496034581050838,-2.7129492883067994,-0.31103122134905214,-2.1910354800450205,-4.3712900768862623E-4,-0.0010192188177048232,-2.448193984200388E-4,392788.356661,2.9606226997E-12,941.066640844,4.55743554572,-5.98597623378,-4.38569624913
5040.00000001,3571305.23036,4418809.37876,3673060.84586,-3697667.56593,4311310.37958,3675776.20842,-2476.42729786,-5823.30536181,4337.56657711,4.75963111395,-5.54951105221,-4.7314525975,6758705.29408,1.39087041233,-0.5523230373918611,-0.08490869172953999,0.36695252584179266,-2.7506036689144913,-0.2609298526060969,-2.1516183263874056,-4.46935103062051E-4,-0.0010146944180212337,-2.460139818305738E-4,393647.811326,2.9343786349E-12,942.750795404,4.75963111395,-5.54951105221,-4.7314525975
5100.00000001,3212395.30827,4477681.81018,3924477.81465,-3837574.37767,3952196.5036,3927315.85441,-2185.33073473,-6142.53569248,4043.84885301,4.93985315268,-5.08739855882,-5.0553713611,6758705.29408,1.39524568142,-0.5559975502807541,-0.0810516550067995,0.3843313624605116,-2.7863377643120852,-0.2097563006548484,-2.1146826624871213,-4.5671575377423905E-4,-0.0010100752537451011,-2.471310990396238E-4,394480.484636,2.91545210029E-12,944.857580886,4.93985315268,-5.08739855882,-5.0553713611
5160.00000001,2839104.92129,4519101.58547,4157715.59278,-3959704.56061,3574775.05298,4160663.1632,-1884.10105485,-6433.32254675,3731.38862569,5.09727186827,-4.60175753874,-5.35596304485,6758705.29408,1.39962095051,-0.5590915844418485,-0.07736732911553904,0.4017099491620443,-2.8203762148676743,-0.157647269710112,-2.080020376837503,-4.664666348940681E-4,-0.0010053631262185291,-2.4817021770605905E-4,395270.143579,2.90513117283E-12,947.43143049,5.09727186827,-4.60175753874,-5.35596304485
5220.00000001,2453002.54271,4542995.74737,4371692.97343,-4063491.62538,3180793.66741,4374736.42005,-1574.1287794,-6694.32048371,3401.62758517,5.23116069249,-4.09481410025,-5.63184357452,6758705.29408,1.40399621959,-0.5616127148728782,-0.07387842967479825,0.4190580835403024,-2.8529275758029797,-0.10472350632318342,-2.047443220791065,-4.7618347172099146E-4,-0.0010005599715178033,-2.491308613811736E-4,396000.93615,2.90470565838E-12,950.517816499,5.23116069249,-4.09481410025,-5.63184357452
5280.00000001,2055715.39469,4549357.91069,4565417.61342,-4148453.75829,2772076.64603,4568542.83687,-1256.84484364,-6924.32060505,3056.08714718,5.34089956906,-3.56889188762,-5.88174049666,6758705.29408,1.40837148868,-0.5635711834957613,-0.0706065008136647,0.43634542892101824,-2.884185004154942,-0.05109188330445176,-2.0167826453188544,-4.858620453037696E-4,-9.95667858128614E-4,-2.5001261018412803E-4,396657.687405,2.9154929565E-12,954.163854445,5.34089956906,-3.56889188762,-5.88174049666
5340.00000001,1648922.60581,4538247.82157,4737990.61028,-4214196.05262,2350516.58534,4741183.13136,-933.714118623,-7122.2561029,2696.36158136,5.42597779692,-3.02640186742,-6.1044987183,6758705.29408,1.41274675777,-0.5649797811374352,-0.06757168364741428,0.45354157406422263,-2.9143274896517255,0.0031527314891623896,-1.9878892172501779,-4.954981978422639E-4,-9.906889843088614E-4,-2.5081510134823725E-4,397226.183933,2.93885690714E-12,958.41800499,5.42597779692,-3.02640186742,-6.1044987183
5400.00000001,1234348.12517,4509790.68044,4888610.6572,-4260412.34648,1918065.70295,4891855.68373,-606.228775969,-7287.20718283,2324.11080947,5.48599641756,-2.46983172503,-6.29908576298,6758705.29408,1.41712202686,-0.5658537101288117,-0.06479249819478175,0.4706161046319868,-2.943521427394,0.05792581936497077,-1.960631847540365,-5.050878379565858E-4,-9.856256751879207E-4,-2.5153802963461376E-4,397693.441736,2.97621257769E-12,963.328379772,5.48599641756,-2.46983172503,-6.29908576298
5460.00000001,813753.421924,4464176.23335,5016577.75711,-4286886.65842,1476726.88517,5019860.25221,-275.901523354,-7418.40534009,1941.05290331,5.52067013509,-1.90173490979,-6.4645965207,6758705.29408,1.42149729595,-0.5662104291118449,-0.06228564152295299,0.48753868738310574,-2.971922405997118,0.11315175430050152,-1.9348969978091848,-5.146269457956756E-4,-9.80480379567452E-4,-2.521811476201468E-4,398047.952867,3.02900764662E-12,968.939080372,5.52067013509,-1.90173490979,-6.4645965207
5520.00000001,388930.000039,4401657.63695,5121296.47861,-4293494.21415,1028544.49798,5124601.23018,55.7412609593,-7515.23696883,1548.95631337,5.52982875921,-1.32471936874,-6.60025747065,6758705.29408,1.42587256503,-0.566069481850657,-0.06006580470685802,0.5042791675485078,-2.99967714270747,0.16876252596392713,-1.9105879870262532,-5.241115779765838E-4,-9.752556664708852E-4,-2.527442658423648E-4,398279.906593,3.09867097817E-12,975.284176028,5.52982875921,-1.32471936874,-6.60025747065
5580.00000001,-38308.2408671,4322550.1034,5202278.73875,-4280202.05886,575595.001876,5205590.42976,387.1664656,-7577.24628717,1149.6318604,5.51341816192,-0.741436010172,-6.70543035686,6758705.29408,1.43024783412,-0.5654523122283827,-0.05814551094202883,0.5208076794310238,-3.0269255408315154,0.22469661977040464,-1.8876244928704649,-5.335378723387485E-4,-9.699542214293592E-4,-2.5322725283259646E-4,398381.38133,3.18652356458E-12,982.379521658,5.51341816192,-0.741436010172,-6.70543035686
5640.00000001,-466132.766958,4227229.33168,5259146.09927,-4247069.25199,119977.412137,5262449.37856,716.841226216,-7604.13756298,744.924523419,5.47150074094,-0.154566940272,-6.77961529835,6758705.29408,1.43462310321,-0.5643820677265866,-0.05653497687312886,0.5370947696570486,-3.053802882724532,0.28089803068697583,-1.8659423298288336,-5.429020524940686E-4,-9.645788425372774E-4,-2.5363003499728856E-4,398346.504092,3.29365815486E-12,990.213674676,5.47150074094,-0.154566940272,-6.77961529835
5700.00000001,-892708.261544,4116129.73275,5291631.56525,-4194246.64257,-336196.353173,5294911.1185,1043.23991844,-7595.77662815,336.705058336,5.40425538354,0.433186482913,-6.82245331666,6758705.29408,1.4389983723,-0.5628833940244442,-0.05524199886882254,0.5531115321219081,-3.0804422039619976,0.3373153875685927,-1.8454935866586235,-5.522004321640468E-4,-9.591324362670083E-4,-2.539525963788957E-4,398171.574771,3.42081011641E-12,998.740374921,5.40425538354,0.433186482913,-6.82245331666
5760.00000001,-1316200.53338,3989742.45636,5299580.87694,-4121976.22542,-790811.194472,5302821.49758,1364.85113361,-7552.19167184,-73.1385170399,5.3119769266,1.01911573202,-6.83372826542,6758705.29408,1.44337364139,-0.5609822234543653,-0.054271865617955294,0.5688297531768179,-3.106976930479731,0.39390116497755046,-1.8262472190837098,-5.614294192813137E-4,-9.536180130811285E-4,-2.5419497828936137E-4,397855.15311,3.56825593163E-12,1007.87565167,5.3119769266,1.01911573202,-6.83372826542
5820.00000001,-1734784.44843,3848613.22796,5282953.28801,-4030590.08004,-1241758.5777,5286139.9476,1680.18460684,-7473.57330577,-482.709535584,5.1950751101,1.600517282,-6.81336814832,6758705.29408,1.44774891047,-0.5587055601955957,-0.05362729803455121,0.5842220651689888,-3.1335439012747166,0.45061095921393235,-1.808190221660998,-5.705855198520409E-4,-9.480386828509323E-4,-2.543572788179348E-4,397398.106844,3.73577578112E-12,1017.50179034,5.1950751101,1.600517282,-6.81336814832
5880.00000001,-2146651.85124,3693340.00472,5241821.82523,-3920508.89602,-1686946.26336,5244939.74313,1987.77806717,-7360.27389782,-890.111353832,5.05407302291,2.17470482197,-6.76144581369,6758705.29408,1.45212417956,-0.5560812651396978,-0.05330841705090341,0.5992621062038305,3.1228983523148544,0.5074028040051709,-1.7913295495624635,-5.796653415740095E-4,-9.423976500777207E-4,-2.5443965219587133E-4,396803.62008,3.92269638809E-12,1027.47804535,5.05407302291,2.17470482197,-6.76144581369
5940.00000001,-2550019.44189,3524570.46001,5176373.02735,-3792240.09052,-2124307.97356,5179407.73923,2286.20397919,-7212.80617295,-1293.45604769,4.88960504189,2.739021457,-6.67817901589,6758705.29408,1.45649944865,-0.5531378433565716,-0.053312739459326935,0.6139246836299423,3.095823971580654,0.564236498360555,-1.7756950342349347,-5.8866559718415E-4,-9.366982089674826E-4,-2.5444230807735677E-4,396077.161623,4.12799740337E-12,1037.65526322,4.88960504189,2.739021457,-6.67817901589
6000.00000001,-2943136.57427,3342999.30657,5086906.16276,-3646375.52529,-2551812.95319,5089843.58774,2574.07614585,-7031.84108358,-1690.87309265,4.70241426703,3.29085184854,-6.56392983607,6758705.29408,1.46087471774,-0.549904236946562,-0.05363520154531324,0.6281859386690404,3.0682460157097644,0.621072913530654,-1.7613436503984996,-5.975831075285784E-4,-9.309437383467501E-4,-2.5436551066160653E-4,395226.413559,4.35043859828E-12,1047.89016319,4.70241426703,3.29085184854,-6.56392983607
6060.00000001,-3324292.94157,3149365.46839,4973831.92806,-3483588.83244,-2967475.38155,4976658.43412,2850.05614244,-6818.20495475,-2080.51798983,4.49334945762,3.82763424086,-6.41920345691,6758705.29408,1.46524998683,-0.546409625957732,-0.05426820984205381,0.6420235094750886,3.039967894934218,0.6778732362569888,-1.7483656678957882,-6.064148043778108E-4,-9.251376964597724E-4,-2.542095777364255E-4,394261.161046,4.58866168104E-12,1058.05571777,4.49334945762,3.82763424086,-6.41920345691
6120.00000001,-3691826.11509,2944449.11257,4837670.63204,-3304632.35997,-3369363.59108,4840373.09937,3112.85955191,-6572.87591235,-2460.58079918,4.26336147639,4.34687232025,-6.244646289,6758705.29408,1.46962525591,-0.5426832397436959,-0.055201717947093,0.6554166899034094,3.010758772460932,0.7345980890667478,-1.736893500341982,-6.151577329260753E-4,-9.192836156365345E-4,-2.539748795856319E-4,393193.144905,4.84123856528E-12,1068.04617325,4.26336147639,4.34687232025,-6.244646289
6180.00000001,-4044128.90248,2729068.55197,4679049.87163,-3110333.74986,-3755609.05066,4681615.75372,3361.26197232,-6296.97960625,-2829.29454065,4.01349925123,4.8461468527,-6.04104344845,6758705.29408,1.474000525,-0.5387541808372087,-0.05642332798215707,0.6683465813909814,2.980339817857094,0.7912064405782137,-1.7271145107050219,-6.238090540288246E-4,-9.133850968874732E-4,-2.5366183781095974E-4,392035.879174,5.10666299784E-12,1077.77732369,4.01349925123,4.8461468527,-6.04104344845
6240.00000001,-4379656.49259,2504077.0306,4498701.70909,-2901592.16331,-4124415.07136,4501119.09114,3594.10476776,-5991.78424316,-3184.94342475,3.74490526598,5.32312704561,-5.80931558899,6758705.29408,1.47837579409,-0.5346512630673873,-0.05791841494821258,0.6807962354608266,2.9483646043323057,0.8476541717738688,-1.719289775024488,-6.323660461313242E-4,-9.074458044039437E-4,-2.532709240527328E-4,390804.436457,5.38330063869E-12,1087.18374711,3.74490526598,5.32312704561,-5.80931558899
6300.00000001,-4696933.35407,2270359.40346,4297459.36163,-2679374.16925,-4474065.19405,4299717.01613,3810.30053502,-5658.69494742,-3525.87087371,3.45881059458,5.77558157858,-5.55051509408,6758705.29408,1.48275106318,-0.5304028651876722,-0.05967027195553511,0.6927507846077424,2.9143903789086765,0.9038920824975422,-1.7137820636436185,-6.4082610689879E-4,-9.014694600150555E-4,-2.528026586005825E-4,389515.20442,5.66931919352E-12,1096.21477596,3.45881059458,5.77558157858,-5.55051509408
6360.00000001,-4994559.85609,2028828.72312,4076253.41735,-2444709.31414,-4802931.21892,4078340.85651,4008.83825895,-5299.24747124,-3850.48729528,3.15652949534,6.20138924859,-5.26582163826,6758705.29408,1.48712633227,-0.5260368008819605,-0.06166027407103066,0.704197559556502,2.8778347329640783,0.959862976714415,-1.7110985014143116,-6.491867545655283E-4,-8.954598375903988E-4,-2.52257608943079E-4,388185.617376,5.96261804268E-12,1104.83046664,3.15652949534,6.20138924859,-5.26582163826
6420.00000001,-5271218.58044,1780422.74551,3836107.59329,-2198685.39236,-5109480.83877,3838015.11806,4188.78813078,-4915.10127919,-4157.27757149,2.83945358437,6.59854917505,-4.95653712975,6758705.29408,1.49150160135,-0.521580205506699,-0.06386805835139144,0.7151261912030445,2.837908218298584,1.0154971961419066,-1.711957352043768,-6.57445628973406E-4,-8.894207574357952E-4,-2.5163638821613395E-4,386833.867399,6.26077118344E-12,1112.99822588,2.83945358437,6.59854917505,-4.95653712975
6480.00000001,-5525680.2951,1526100.36772,3578134.05391,-1942443.43826,-5392284.83926,3579852.79937,4349.30600476,-4508.03203489,-4444.80822583,2.50904561012,6.96519051109,-4.62408005003,6758705.29408,1.49587687044,-0.5170594395479977,-0.06627171750500421,0.7255286958546117,2.79350598672725,1.0707054551128443,-1.7173958403660858,-6.656004923153615E-4,-8.833560806680996E-4,-2.509396535833346E-4,385478.599857,6.56099182276E-12,1120.69029303,2.50904561012,6.96519051109,-4.62408005003
6540.00000002,-5756809.5609,1266838.01055,3303528.31025,-1677172.46226,-5650023.8312,3305050.28718,4489.63746993,-4079.9235212,-4711.73423321,2.16683285333,7.29958160834,-4.26997920925,6758705.29408,1.50025213953,-0.5125000082561981,-0.06884800454925842,0.7353995426902127,2.743026992121031,1.1253667904383353,-1.7289504656216659,-6.736492295909351E-4,-8.77269703612694E-4,-2.501681045482105E-4,384138.598644,6.86012297234E-12,1127.8820162,2.16683285333,7.29958160834,-4.26997920925
6600.00000002,-5963569.94428,1003625.95902,3013563.7223,-1404103.95472,-5881494.48191,3014881.85471,4609.12151524,-3632.75902817,-4956.80543821,1.81440017926,7.60013858404,-3.89586694007,6758705.29408,1.50462740862,-0.5079264966149059,-0.07157254581070259,0.74473570268744,2.6840599102921052,1.1793072419962785,-1.7489706442011035,-6.8158984876684E-4,-8.711655522236698E-4,-2.493224812071591E-4,382832.466704,7.15465581715E-12,1134.55075304,1.81440017926,7.60013858404,-3.89586694007
6660.00000002,-6145028.81044,737464.673853,2709585.62907,-1124506.1826,-6085615.21487,2710693.78746,4707.19376824,-3168.61224615,-5178.87254879,1.45338277169,7.86543324104,-3.50347175583,6758705.29408,1.50900267771,-0.503362518359923,-0.07442005963434728,0.7535366785775554,2.612813646052556,1.232259966001146,-1.7811878066812568,-6.894204806495524E-4,-8.650475765528796E-4,-2.484035624412842E-4,381578.307656,7.44077585905E-12,1140.6752079,1.45338277169,7.86543324104,-3.50347175583
6720.00000002,-6300361.67322,469361.087271,2393005.13262,-839678.305065,-6261431.34898,2393898.16291,4783.38928885,-2689.63770433,-5376.89267415,1.0854585804,8.09420029353,-3.09461050244,6758705.29408,1.51337794679,-0.49883067758025934,-0.07736457823141914,0.7618045156333693,2.523041425852191,1.2837858697045057,-1.8317909457019588,-6.971393784943582E-4,-8.589197452713482E-4,-2.4741216406634755E-4,380393.414418,7.71443529498E-12,1146.23503604,1.0854585804,8.09420029353,-3.09461050244
6780.00000002,-6428856.07975,200324.896235,2065292.56449,-550944.335203,-6408119.65171,2065966.31238,4837.34490245,-2198.06079757,-5549.93437731,0.712340516355,8.28534385399,-2.67118003707,6758705.29408,1.51775321588,-0.4943525411157504,-0.08037967019452884,0.7695437933614739,2.403956172366075,1.333105185961557,-1.9115109141676478,-7.047449173107122E-4,-8.527860402727145E-4,-2.463491369338501E-4,379293.970756,7.97144831969E-12,1151.21056854,0.712340516355,8.28534385399,-2.67118003707
6840.00000002,-6529915.00972,-68635.1336078,1727970.66426,-259646.97597,-6524992.28256,1728421.99498,4868.80105787,-1696.1674474,-5697.18221513,0.335768430796,8.43794313985,-2.23514846972,6758705.29408,1.52212848497,-0.48994861988028854,-0.0834386613326105,0.7767615983920446,2.2363519884521916,1.3787205116576366,-2.0394986428157176,-7.122355929302315E-4,-8.466504513569596E-4,-2.4521536501117E-4,378294.771504,8.2076031019E-12,1155.58248723,0.335768430796,8.43794313985,-2.23514846972
6900.00000002,-6603059.77166,-336514.840167,1382607.50189,32858.6408291,-6611500.10637,1382834.31514,4877.60319863,-1186.29344482,-5817.94074069,-0.0424990833804,8.55125736184,-1.78854600731,6758705.29408,1.52650375406,-0.4856383571506645,-0.08651485163262652,0.7834674790653721,1.987582520401835,1.4175832032454452,-2.2483465039791697,-7.196100207989285E-4,-8.405169710171075E-4,-2.4401176341981278E-4,377408.966986,8.41879530337E-12,1159.33186233,-0.0424990833804,8.55125736184,-1.78854600731
6960.00000002,-6647932.38032,-602318.300332,1030809.17662,325211.282969,-6667235.35905,1030810.41676,4863.70263794,-670.813525319,-5911.63794544,-0.42069302784,8.62472976002,-1.33345544286,6758705.29408,1.53087902315,-0.48144012180690626,-0.08958172632223395,0.7896733823486812,1.6200390005655847,1.4437421524217589,-2.575610019308752,-7.268669345320782E-4,-8.343895893533352E-4,-2.427392764649341E-4,376647.836726,8.60118929978E-12,1162.4410449,-0.42069302784,8.62472976002,-1.33345544286
7020.00000002,-6664297.40207,-865061.415746,674212.326748,616049.983669,-6691933.65085,673987.988031,4827.15693046,-152.130228001,-5977.82812117,-0.797042430917,8.65799075725,-0.872002335248,6758705.29408,1.53525429223,-0.4773712046688338,-0.09261315919156671,0.7953935738948171,1.1596483335623193,1.449174149044284,-2.9953095448123603,-7.340051842125212E-4,-8.282722890813322E-4,-2.4139887563868364E-4,376020.597059,8.75137686745E-12,1164.89440955,-0.797042430917,8.65799075725,-0.872002335248
7080.00000002,-6652043.25729,-1123775.43631,314476.485586,904020.414543,-6685475.29625,314027.612523,4768.12973627,367.337407323,-6016.19412473,-1.16978283251,8.65086020505,-0.406344927785,6758705.29408,1.53962956132,-0.4734478160857589,-0.09558360652811336,0.8006445421782892,0.7415808411542493,1.431849799520889,2.910962990056149,-7.410237344830205E-4,-8.221690407099551E-4,-2.399915576270387E-4,375534.246569,8.86652182039E-12,1166.67887942,-1.16978283251,8.65086020505,-0.406344927785
7140.00000002,-6611182.97156,-1377510.4091,-46723.6802434,1187781.23511,-6647885.96207,-47394.9974466,4686.89017534,885.165250083,-6026.54903125,-1.5371647776,8.60334870123,0.0613361438589,6758705.29408,1.54400483041,-0.4696850832137719,-0.09846829021327488,0.8054448877087519,0.444894491420258,1.3988648134684962,2.6559472732411993,-7.47921662402995E-4,-8.160837978428014E-4,-2.3851834231838358E-4,375193.452548,8.94448300928E-12,1167.78432656,-1.5371647776,8.60334870123,0.0613361438589
7200.00000002,-6541854.36976,-1625338.54064,-407706.213034,1466010.38829,-6579336.62919,-408596.847951,4583.81167318,1398.9355397,-6008.83716482,-1.89746227347,8.51565796401,0.528848301649,6758705.29408,1.5483800995,-0.4660970455826047,-0.10124336874211652,0.8098151985000175,0.24602637946799208,1.3576751243385814,2.499318106289192,-7.546981550975633E-4,-8.100204926420985E-4,-2.3698027079463587E-4,375000.480853,8.98390816711E-12,1168.20389152,-1.89746227347,8.51565796401,0.528848301649
7260.00000002,-6444319.71011,-1866357.46091,-766789.749253,1737411.31147,-6480142.86657,-767895.553573,4459.37030134,1906.24834021,-5963.13449881,-2.24898116511,8.38818025297,0.993997578672,6758705.29408,1.55275536859,-0.46269664784727904,-0.10388609512313081,0.8137779130041138,0.10699944610684978,1.3124498271924219,2.403151048735818,-7.613525072320508E-4,-8.03983031444437E-4,-2.3537840336949604E-4,374955.170585,8.98429269557E-12,1167.93425105,-2.24898116511,8.38818025297,0.993997578672
