time,gePosition_m_X,gePosition_m_Y,gePosition_m_Z,eiPosition_m_X,eiPosition_m_Y,eiPosition_m_Z,eiVelocity_m_s_X,eiVelocity_m_s_Y,eiVelocity_m_s_Z,eiAccel_m_s2_X,eiAccel_m_s2_Y,eiAccel_m_s2_Z,semiMajorAxis_m,gast_rad,eulerAngle_rad_Roll,eulerAngle_rad_Pitch,eulerAngle_rad_Yaw,eulerAngleWrtEi_rad_Roll,eulerAngleWrtEi_rad_Pitch,eulerAngleWrtEi_rad_Yaw,bodyAngularRateWrtEi_rad_s_Roll,bodyAngularRateWrtEi_rad_s_Pitch,bodyAngularRateWrtEi_rad_s_Yaw,altitudeMsl_m,airDensity_kg_m3,ambientTemperature_dgK,eiGravitation_m_s2_X,eiGravitation_m_s2_Y,eiGravitation_m_s2_Z
0.0,-1428622.3120664244,4163200.465251461,5136049.672040268,-4292653.410000001,955168.4699999995,5139356.569999999,109.64966299999837,-7527.726490000003,1484.521489,5.528986569357204,-1.230267887409868,-6.619549899945847,6758662.11722885,1.0233194459853856,1.1333718620180008E-16,-0.20245819323134245,-1.0625361206418758E-16,-2.4715939053549034,-0.03718896447613391,-1.4289931348885438,-2.541098841762901E-21,-0.0011344542745508244,6.640738306473715E-19,398252.76383814117,3.1125051777514152E-12,976.2183377126014,5.528986569357204,-1.230267887409868,-6.619549899945847
60.0,-1789712.6496681145,3920255.313015761,5213136.6039791545,-4276130.763606054,501640.15063862986,5216447.9477098975,440.8995044260108,-7584.043045604897,1084.189396723085,5.508416690933042,-0.6462017022813769,-6.719712406155927,6758662.117231132,1.027694715234372,-2.3648093568041306E-6,-0.20245604260131753,-1.0060057541579333E-4,-2.4720592963932067,0.016120423666361756,-1.3866611796764232,-7.049068603709275E-7,-0.0011344779878485578,-3.3028523725411988E-6,398335.1614682008,3.198555110651932E-12,983.0791797564946,5.508416690933042,-0.6462017022813769,-6.719712406155927
120.0,-2144732.034177042,3662345.3121019304,5266057.240880422,-4239785.4648506045,45786.44926615791,5269357.680100528,770.1498563608073,-7605.2077588949,678.7772426996095,5.462360218418421,-0.0589893241267832,-6.788817501975405,6758662.117230327,1.0320699844833425,-2.5118998477049643E-5,-0.20244904674401126,-4.0025750166469503E-4,-2.4703079486914183,0.0692802951568026,-1.3441021824374162,-1.5682193695685132E-6,-0.0011344959082197586,-6.615080444259351E-6,398280.4831678068,3.307822912357512E-12,990.9653252375497,5.462360218418421,-0.0589893241267832,-6.788817501975405
180.0,-2492166.1237604707,3390599.0023339516,5294562.856726825,-4183783.2576413755,-410279.4807895619,5297837.089567908,1095.8768804299507,-7591.112907315994,270.15925433186345,5.391015098227365,0.5286657408434533,-6.826529477989911,6758662.117230273,1.0364452537322815,-9.1796911002482E-5,-0.20243641348101538,-8.945341270021684E-4,-2.466315845746967,0.12219457297474114,-1.3010762842739703,-2.589743337174924E-6,-0.0011345075693188502,-9.935939052553594E-6,398085.3786745361,3.4371444971304578E-12,999.5338718179668,5.391015098227365,0.5286657408434533,-6.826529477989911
240.0,-2830524.9335479126,3106195.851592403,5298517.626972643,-4108380.89026452,-864442.894077885,5301750.470798644,1416.5720940027975,-7541.813194297484,-139.77448384789935,5.294695095673183,1.1140548245196953,-6.832655726429778,6758662.117230166,1.0408205229812044,-2.2590163413313948E-4,-0.20241740164097735,-0.0015773854984823085,-2.4600313118632755,0.1747634916219437,-1.2573391714512552,-3.7692476844588717E-6,-0.0011345124437284059,-1.3264676401911704E-5,397748.7681040413,3.586747472672089E-12,1008.6977258441461,5.294695095673183,1.1140548245196953,-6.832655726429778
300.0,-3158349.2713371646,2810361.125337631,5277899.322075947,-4013924.9861688134,-1314597.2005751184,5281075.7837948585,1730.7492879000874,-7457.525693773901,-549.1266557876678,5.173828662828589,1.6944762794138881,-6.807147954911647,6758662.117229892,1.0451957922300796,-4.50791260055114E-4,-0.20239134369970235,-0.002441186847839494,-2.451374639572097,0.22688152920209717,-1.2126385786787892,-5.106463907712447E-6,-0.0011345099435635122,-1.6600533489172977E-5,397271.8837139019,3.756369397667319E-12,1018.3373329768563,5.173828662828589,1.6944762794138881,-6.807147954911647
360.0,-3474217.0881774067,2504360.5974082234,5232799.4820043035,-3900850.5020308536,-1758653.6879505129,5235904.827550152,2036.9513609450394,-7338.629062559707,-956.0013936457733,5.02895729882166,2.267247692654182,-6.750102774955212,6758662.117229965,1.049571061478955,-7.895653623400814E-4,-0.20235766593827478,-0.003476769702860069,-2.440237430160316,0.2784352085348589,-1.1667109306393293,-6.601085475816175E-6,-0.001134499421152991,-1.9942743537005443E-5,396658.2718158577,3.945309902314007E-12,1028.3119930956166,5.02895729882166,2.267247692654182,-6.750102774955212
420.0,-3776749.7162128375,2189495.124272135,5163423.069595495,-3769678.7790012504,-2194551.1745933644,5166442.892261047,2333.757040930919,-7185.662020198138,-1358.5129738366172,4.860733403791901,2.8297180810463916,-6.661761655949354,6758662.117229895,1.0539463307277828,-0.0012649521694611204,-0.20231590535847793,-0.004673465424961945,-2.4264817776222856,0.3293007157592785,-1.1192781943571837,-8.252767163972656E-6,-0.0011344801697988724,-2.32905314374883E-5,395913.7546336119,4.152540832715E-12,1038.474521348729,4.860733403791901,2.8297180810463916,-6.661761655949354
480.0,-4064617.9662820166,1867095.1053849661,5070087.602939373,-3621015.194859169,-2620265.5495142452,5073007.890244446,2619.7874617104353,-6999.321098961768,-1754.794491094377,4.669917629713851,3.379280015610189,-6.542510237450519,6758662.117230797,1.0583215999766105,-0.0018991969565045155,-0.20226572268492207,-0.006019156015151164,-2.4099394927529385,0.3793412918835518,-1.0700450871382252,-1.0061124325781096E-5,-0.001134451424614465,-2.6643113207727723E-5,395046.35253467853,4.3768301012341495E-12,1048.6850097064514,4.669917629713851,3.379280015610189,-6.542510237450519
540.0,-4336548.058000939,1538514.8526904457,4953221.769247916,-3455546.4266095464,-3033819.1554882424,4956028.96803387,2893.7125663687293,-6780.457669807801,-2143.006471899927,4.457375733401277,3.9133816229664693,-6.392876995092986,6758662.117230922,1.0626968692254064,-0.0027139521547453003,-0.20220691085744,-0.007500331870439626,-2.3904116628451204,0.4284043658556193,-1.0186968898489475,-1.2025732106061898E-5,-0.0011344123634425458,-2.9999695459423416E-5,394066.1676851684,4.616835058273217E-12,1058.820400025268,4.457375733401277,3.9133816229664693,-6.392876995092986
600.0,-4591327.35540523,1205126.8926103525,4813363.525015689,-3274037.3348501767,-3433289.972250808,4816044.60446389,3154.2573068234556,-6530.074253283031,-2521.345388409808,4.224074939183514,4.429538410073858,-6.213531257925263,6758662.117231012,1.0670721384741706,-0.003730169726502972,-0.20213939852740215,-0.00910215622262262,-2.367668984752603,0.4763184212482807,-0.9648982634149745,-1.4146124597064611E-5,-0.001134362107854317,-3.335947488433103E-5,392985.2308096433,4.871141023708183E-12,1068.778739093642,4.224074939183514,4.429538410073858,-6.213531257925263
660.0,-4827809.8817047225,868316.2240864286,4651157.689593122,-3077327.482999257,-3816820.557193752,4653700.201873704,3400.2076107142097,-6249.320127594866,-2888.052033974561,3.9710798210545537,4.925344858157875,-6.005280577706597,6758662.117231151,1.0714474077229348,-0.004967996354777975,-0.20206324819993912,-0.010808535970278511,-2.3414535056302035,0.5228896292488664,-0.9082936684121925,-1.6421793940931916E-5,-0.0011342997242302485,-3.672163775756404E-5,391817.31334439554,5.138245091776412E-12,1078.478937538864,3.9710798210545537,4.925344858157875,-6.005280577706597
720.0,-5044921.587302985,529474.5563799139,4467353.041636347,-2866327.306205034,-4182626.7018392696,4469745.179903598,3630.416087103632,-5939.486249336462,-3241.4197214502065,3.6995477164536172,5.398485731224626,-5.7690674535474935,6758662.117231275,1.075822676973096,-0.006446671978572868,-0.2019786487835485,-0.012602198530917093,-2.3114826627457834,0.5678983472247212,-0.8485102496199957,-1.8852189381517384E-5,-0.0011342242249244286,-4.008535946070084E-5,390577.70788196335,5.416501707056846E-12,1087.8577812111046,3.6995477164536172,5.398485731224626,-5.7690674535474935
780.0,-5241665.345970095,189994.5503270488,4262798.9302105615,-2642013.946443786,-4529005.763398505,4265029.583672515,3843.8074433131505,-5601.9995056314265,-3579.8022658018526,3.4107236862909187,5.846747044376375,-5.505965418291503,6758662.117231064,1.0801979462217968,-0.008184432228874836,-0.20188590244589733,-0.014464774365547044,-2.2774568236658568,0.6110956857855449,-0.7851643614865024,-2.143671626889121E-5,-0.0011341345695120252,-4.3449804026640985E-5,389282.98037794937,5.704051465499471E-12,1096.865897144425,3.4107236862909187,5.846747044376375,-5.505965418291503
840.0,-5417125.65489492,-148735.91315476183,4038441.4146203604,-2405426.7719432428,-4854344.63194421,4040500.220422806,4039.3835861693274,-5238.416319755684,-3901.6217129717684,3.105935038334389,6.268026637254761,-5.21717449617923,6758662.117231229,1.0845732154704657,-0.010198415273108167,-0.20178540582587617,-0.016376884769575946,-2.2390718520227675,0.6522004999603722,-0.7178732380654893,-2.417473502009105E-5,-0.0011340296661229942,-4.6814123708184595E-5,387950.69813479076,5.9987517336294214E-12,1105.4638399706928,3.105935038334389,6.268026637254761,-5.21717449617923
900.0,-5570473.015367546,-485339.4139019548,3795318.949301266,-2157662.600643391,-5157127.295149927,3797196.340980321,4216.22838203887,-4850.415635554101,-4205.375777657795,2.7865854336166915,6.6603442983563035,-4.90401604458601,6758662.117231321,1.0889484847191346,-0.0125045736110111,-0.20167762578750892,-0.01831823458599473,-2.1960384656204974,0.6908973697216588,-0.6462735555525495,-2.706556003992004E-5,-0.0011339083728610644,-5.017745857229289E-5,386599.1380801316,6.2981220326851915E-12,1113.6188774203783,2.7865854336166915,6.6603442983563035,-4.90401604458601
960.0,-5700967.971921227,-818454.599270023,3534557.6323235417,-1899870.6489034924,-5435941.964163894,3536244.884596014,4373.512051288742,-4439.791309213723,-4489.644953513343,2.454148598081066,7.021851386725917,-4.567926995983338,6758662.117231127,1.0933237539677718,-0.015117591288745905,-0.20156307005274274,-0.020267709429883048,-2.1481101246562457,0.726836396501686,-0.5700486092816882,-3.010845860579781E-5,-0.0011337694993104937,-5.35389361219747E-5,385246.9803012615,6.599311924659556E-12,1121.3026278464963,2.454148598081066,7.021851386725917,-4.567926995983338
1020.0,-5807964.789150878,-1146741.6975461699,3257366.0347980713,-1633247.2248970692,-5689487.727769469,3258855.30447275,4510.495493433651,-4008.444115665002,-4753.099602759155,2.1101776639951906,7.350831389373533,-4.210470733443925,6758662.979681652,1.0976990232163775,-0.018031157429686535,-0.201440736732013,-0.022202997060013805,-2.0951023137287645,0.7596355954098903,-0.48896736725137935,-3.1328713306151066E-5,-0.0011334621593477108,-5.683363367722206E-5,383912.9912378531,6.8990955340260646E-12,1128.4894691392783,2.1101616609918787,7.350839903970788,-4.210453517012279
1080.0,-5890914.746328689,-1468887.9477109127,2965029.602671912,-1359030.1617307768,-5916580.716426063,2966313.965460367,4626.533571409257,-3558.3728120502174,-4994.505984410791,1.756234317852663,7.645744093261014,-3.8332618133402905,6758665.567084867,1.1020742924649671,-0.02100041625399403,-0.20129146782622803,-0.02410325226703468,-2.0367368835360837,0.7888789171503701,-0.40295083009900023,-2.8759917841086002E-5,-0.0011328472710868311,-6.001347175721504E-5,382615.6973259075,7.193894934348921E-12,1135.1555466674138,1.7562181127270067,7.645751001115163,-3.8332440742463585
1140.0,-5949369.028010169,-1783612.770538905,2658904.7998972484,-1078493.149867679,-6116159.67263177,2659978.283023019,4721.07730225783,-3091.6645220914365,-5212.731109179801,1.393976890303017,7.905177385940232,-3.4380602360239783,6758668.1546176085,1.1064495617135248,-0.023953868853714408,-0.20110990600450826,-0.025968015132806183,-1.9730789021843416,0.8141287663732377,-0.3120781914219394,-2.6353963289024376E-5,-0.0011322298352038076,-6.321414112984533E-5,381373.09110460785,7.47982788422738E-12,1141.2781969223936,1.3939605567427216,7.905182655481113,-3.4380420578297066
1200.0,-5982981.205500202,-2089672.8734483647,2340412.8232098455,-792939.810693303,-6287291.008044085,2341270.433594831,4793.678176556044,-2610.485988645136,-5406.749915030626,1.0250895012824055,8.127893215122201,-3.02669639544786,6758670.742283456,1.110824830962067,-0.026898534997066965,-0.200896836544127,-0.02780013398495609,-1.9045031769458438,0.8349527378384513,-0.2166592407711032,-2.4110995146428398E-5,-0.0011316098948788975,-6.643486445989982E-5,380202.31020418264,7.752785798205226E-12,1146.835619996632,1.0250731132706097,8.127896822356488,-3.02667786382812
1260.0,-5991509.284905389,-2385867.167431811,2011033.0062785577,-503697.62335172464,-6429173.266068262,2011670.7541696168,4843.989781796662,-2117.073156684164,-5575.649564804575,0.651289936015017,8.312823891817422,-2.6010792910457847,6758673.330084762,1.115200100210593,-0.029841723282950493,-0.20065310424968916,-0.029601884148372264,-1.8316618614416733,0.8509494198110704,-0.11728363254372587,-2.203112048685136E-5,-0.001130987427520424,-6.967486821329126E-5,379119.33689339843,8.008533916649135E-12,1151.8066603169018,0.6512735675028095,8.312825820427078,-2.6010604933790966
1320.0,-5974817.310317537,-2671041.465862153,1672295.954622903,-212111.74313446306,-6541140.9638647195,1672710.8725504985,4871.769581749968,-1613.7207802138537,-5718.633899903189,0.27432159464070854,8.459077665576933,-2.1631877043147276,6758675.918023508,1.1195753694590873,-0.0327909918878492,-0.20037960843035946,-0.03137495761263766,-1.755495494641663,0.8617787676528336,-0.014831438153056159,-2.0114408159933888E-5,-0.0011303623443929948,-7.293338208790281E-5,378138.7218564178,8.24282694982734E-12,1156.1705169245947,0.2743053192206655,8.45907790698252,-2.163168729267277
1380.0,-5932876.511969026,-2944092.9609750006,1325776.4295283935,80461.27229291633,-6622667.801224244,1325966.5865013355,4876.880207463874,-1102.7717192058722,-5835.0273526357505,-0.10405472952030345,8.56594347612382,-1.7150609846629317,6758678.506100011,1.123950638707566,-0.035754107938457944,-0.20007729726883192,-0.03312045564940053,-1.6772014230482648,0.8671928568436293,0.08955889179457203,-1.8360888909781134E-5,-0.0011297344903299486,-7.620963843015985E-5,377273.3330161719,8.451547485562225E-12,1159.9068924718672,-0.10407083893813014,8.565942029512485,-1.7150419217677442
1440.0,-5865765.990410071,-3203974.4601049814,973086.0140955079,372659.79924024944,-6673369.2192170415,973050.52495822,4859.290250824375,-586.6059769892912,-5924.278295065256,-0.4820692027059463,8.632894847861051,-1.2587894875608485,6758681.094315321,1.1283259079560126,-0.03873900576120802,-0.19974716155893596,-0.03483888439268765,-1.5981551457110896,0.8670612787198847,0.19456962236596628,-1.677055541237554E-5,-0.0011291036435295651,-7.950287163924812E-5,376534.1344402321,8.630870619880926E-12,1162.9969637111978,-0.48208507421416513,8.632891720179147,-1.258770426794002
1500.0,-5773672.929850115,-3449698.3648392884,615865.5958078809,663123.5168611797,-6693004.294601144,615604.6257095177,4819.074554065652,-67.6295304277115,-5985.961804852397,-0.857951392531056,8.659592898029258,-0.7965047109026963,6758683.6826686375,1.1327011772044275,-0.04175374416998855,-0.19939022780601043,-0.03653015339429182,-1.5197944122784441,0.8613854729914984,0.298820062275364,-1.53433622319096E-5,-0.0011284695154343887,-8.281231756090875E-5,375929.999816614,8.777423751875913E-12,1165.4241539668374,-0.8579669555397974,8.659588103939722,-0.7964857422584527
1560.0,-5656892.335975916,-3680340.3774285116,255777.70109130908,950499.7781627631,-6681476.959171224,255292.4650392632,4756.413991177122,451.73699317557555,-6019.78183143509,-1.2299387556500228,8.645888433898362,-0.3303691781131395,6758686.271157961,1.1370764464528427,-0.04480646302150803,-0.19900755067713485,-0.03819357715242698,-1.4434894331579446,0.8502984293711472,0.40099677200510225,-1.4079225696180432E-5,-0.001127831750694511,-8.613721287278118E-5,375467.5643319662,8.888431021699503E-12,1167.174692859376,-1.2299539411951455,8.64588199570309,-0.3303503911798885
1620.0,-5515826.295778427,-3895042.920043003,-105501.28175439133,1233449.9526140706,-6638836.536502495,-106208.5242605216,4671.594739779754,969.0697371703242,-6025.572748864971,-1.5962851269859781,8.59182311933196,0.13743388110180438,6758688.859781839,1.1414517157012258,-0.04790533926523663,-0.19860020477691673,-0.03982787958719196,-1.37042801442819,0.8340498295401738,0.49996884542853687,-1.2978023691457665E-5,-0.0011271899272132543,-8.947679446322315E-5,375151.1180148477,8.961834554175352E-12,1168.2380467173568,-1.5962998680292713,8.591815066859608,0.13745239756290403
1680.0,-5350982.7591921,-4093018.253783802,-466288.95414114674,1510655.7098060441,-6565277.591893601,-467214.9093754413,4565.007044726323,1481.9530783529488,-6003.300284735319,-1.955269165504472,8.497629696291277,0.6047109994081521,6758691.448537021,1.1458269849495775,-0.0510585426948471,-0.19816927574807755,-0.04143120144382645,-1.3015385757552551,0.8129803081297204,0.5948653126901631,-1.2039595377465834E-5,-0.0011265435562765366,-9.283029880566453E-5,374982.542756527,8.996385021498657E-12,1168.6072601048318,-1.9552833972245396,8.497620066751029,0.6047291578799638
1740.0,-5162973.844653208,-4273551.285750632,-824904.7956485617,1780825.2137714338,-6461139.094715794,-826045.1507811826,4437.143477394613,1987.991074460274,-5953.061817872459,-2.3052027110748985,8.363731252310837,1.069269035231993,6758694.037420644,1.1502022541979289,-0.054274191642899955,-0.197715850682045,-0.04300111057311105,-1.2374603118899663,0.78749057576965,0.6851054099463605,-1.1263740823392047E-5,-0.0011258920827652665,-9.619696133041317E-5,374961.29431007645,8.991695808840631E-12,1168.2792351542519,-2.3052163711474454,8.36372009011284,1.069286749851772
1800.0,-4952513.673002812,-4436002.053914777,-1179678.0513624882,2042699.197893993,-6326902.89580483,-1181027.4943717525,4288.596697374889,2484.818838994337,-5875.0860407786495,-2.6444390068599697,8.190739530657309,1.5289257748607805,6758696.6264295075,1.154577523446217,-0.0575603088283583,-0.197241007853153,-0.044534615045727276,-1.178555579720561,0.758011104836576,0.7703866404296515,-1.0650220566073479E-5,-0.0011252348854514866,-9.957601579600462E-5,375084.4296121669,8.948257585667612E-12,1167.2549678181413,-2.644452035726267,8.190726887200627,1.5289429618222965
1860.0,-4720415.736491803,-4579807.881042405,-1528955.579968872,2295056.8908195286,-6163191.525978897,-1530507.8242528602,4120.056725983518,2970.113785985697,-5769.731986210678,-2.9713807419062506,7.97945228569707,1.981520516275236,6758699.215561196,1.1589527926945367,-0.060924777574966726,-0.19674580578015702,-0.046028179051735674,-1.1249508631235392,0.7249764627663009,0.8506442814521145,-1.0198755091774341E-5,-0.0011245712773783007,-1.0296669366207831E-4,375346.67880980455,8.867412990394981E-12,1165.5397548645913,-2.97139308302859,7.979438219126117,1.9815370942208577
1920.0,-4467589.811954104,-4704485.190465129,-1871109.6245411602,2536721.7644293588,-5970765.325198855,-1872857.4381158305,3932.3077437351376,3441.6066876311465,-5637.487420714069,-3.284487869193119,7.730849691916546,2.424924577180221,6758701.804811176,1.163328061942793,-0.0643752986550646,-0.19623127164250337,-0.047477741481046436,-1.076590882886127,0.688806231523343,0.9259977775500776,-9.90902424321854E-6,-0.0011239005063243138,-1.063682234658595E-4,375740.56042364315,8.751294075765892E-12,1163.143381428362,-3.284499469296135,7.730834266847136,2.424940467581213
1980.0,-4195038.429525489,-4809630.978064152,-2204545.46823224,2766567.0757438946,-5750518.915299764,-2206480.7073806054,3726.22442656658,3897.0924884272144,-5478.966611390968,-3.5822851553171238,7.446089820978768,2.857051669573084,6758704.394176994,1.1677033311910492,-0.06791934792132523,-0.1956983890843792,-0.04887873714909862,-1.033293490419354,0.6498926382402482,0.9966963891804433,-9.78066655379012E-6,-0.0011232217553528454,-1.0977983020429964E-4,376256.53718078707,8.602727798087598E-12,1160.080295876242,-3.5822959646139187,7.44607310819502,2.8570667970964165
2040.0,-3903852.9265674953,-4894923.934236814,-2527708.925833793,2983521.1673133955,-5503477.04647653,-2529822.5730419722,3502.767428198431,4334.440119448402,-5294.906892797722,-3.8633793753248957,7.126485290894531,3.2758823563912283,6758705.257313536,1.1720786004407024,-0.07164292069693917,-0.1951542199913274,-0.05022707331471357,-0.9948737665519005,0.6085894773639253,1.0630769145079513,-1.3760129476932809E-5,-0.0011228283550864353,-1.1332624921420828E-4,376883.2124557251,8.42511643434687E-12,1156.3697770693016,-3.8633793753248957,7.126485290894531,3.2758823563912283
2100.0,-3595209.091690217,-4960125.216811957,-2839093.6448988584,3186572.507750391,-5230789.828572941,-2841375.8509000875,3262.979919347259,4751.60435711934,-5086.166717069374,-4.126425420363375,6.773567544659271,3.6794158963726136,6758705.257313869,1.176453869688895,-0.07581082752616063,-0.19461896415275856,-0.051508226161392,-0.9612745925417687,0.5652128052022631,1.1255388626174394,-1.986426323027199E-5,-0.0011225454235409106,-1.1692365031265916E-4,377607.5551919246,8.222302710858093E-12,1152.0360955520964,-4.126425420363375,6.773567544659271,3.6794158963726136
2160.0,-3270362.306152684,-5005078.885818366,-3137248.2572946255,3374774.500891743,-4933727.2720441725,-3139688.387067376,3007.981961738788,5146.63463944792,-4853.720660475034,-4.370195318375359,6.388975565843273,4.065768390360218,6758705.257313837,1.180829138937088,-0.08045215087718721,-0.1940935161898809,-0.052690930373343096,-0.9321954599134439,0.5200650539172227,1.1844912989170515,-2.6116324788727568E-5,-0.0011222183029972106,-1.2050407578899303E-4,378415.13720115623,7.998430043964746E-12,1147.1086663087297,-4.370195318375359,6.388975565843273,4.065768390360218
2220.0,-2930642.435178337,-5029711.968409059,-3420783.1755292304,3547249.9193687164,-4613673.36588307,-3423369.8579745935,2738.9650142020096,5517.683978814933,-4598.654543126438,-4.593541802542932,5.974516019788771,4.433122251214346,6758705.257314018,1.1852044081852489,-0.08557410722402065,-0.19357682452637626,-0.053743015992182175,-0.9073240443288931,0.4734155689644355,1.240342300331459,-3.2514603995596147E-5,-0.001121844636538902,-1.240663165684996E-4,379290.42669283686,7.757799720960184E-12,1141.6221997503128,-4.593541802542932,5.974516019788771,4.433122251214346
2280.0,-2577448.32550719,-5034034.183282254,-3688377.1269535986,3703195.030960319,-4272119.579651683,-3691098.308034622,2457.186484924645,5863.018099354616,-4322.160574546771,-4.795414721834595,5.5321377768177875,4.779750193577545,6758705.257313982,1.1895796774333782,-0.09118160985476144,-0.19306737838550803,-0.05463228902107044,-0.8863684548515811,0.4255027587897954,1.2934878635489921,-3.90573093597495E-5,-0.0011214220543449506,-1.2760914201570512E-4,380217.08558515133,7.504739107396997E-12,1135.6168347482094,-4.795414721834595,5.5321377768177875,4.779750193577545
2340.0,-2212241.967755682,-5018137.322132992,-3938783.3662536433,3841883.3776029283,-3910657.850396707,-3941626.3653457672,2163.9637485888306,6181.023688044966,-4025.5316808662124,-4.974866153599926,5.063922421920837,5.1040236435626705,6758705.257314199,1.1939549466814758,-0.09727723794851328,-0.19256314226889484,-0.05532669647221792,-0.86906496183866,0.37653811569762397,1.344305273253658,-4.5742566409228646E-5,-0.0011209481775570557,-1.3113130042982508E-4,381178.2776664895,7.243484656904329E-12,1129.1382370886265,-4.974866153599926,5.063922421920837,5.1040236435626705
2400.0,-1836542.3530980651,-4982194.293138867,-4170835.533001152,3962669.186533759,-3530973.091993156,-4173787.1021854533,1860.667872256487,6470.216055914544,-3710.155342333527,-5.131054994924006,4.572074091418581,5.404420644346315,6758705.257313908,1.1983302159295892,-0.10386121596073206,-0.19206149524413013,-0.05579449292568158,-0.8551819795573958,0.32671026259324293,1.3931503478564478,-5.25684161468741E-5,-0.0011204206222623107,-1.346315196196903E-4,382156.9826473248,6.9780831448761265E-12,1122.237627464805,-5.131054994924006,4.572074091418581,5.404420644346315
2460.0,-1451919.0514108855,-4926457.833629637,-4383453.125830453,4064990.3970475583,-3134835.263488233,-4386499.511847149,1548.7170820403496,6729.246170663206,-3377.5069727039104,-5.263251007875015,4.058908693132528,5.679533214528937,6758705.257313648,1.2027054851776549,-0.11093140306022425,-0.19155917703982928,-0.056004407935578704,-0.8445216189589247,0.2761888171480849,1.4403572625974284,-5.953281361800316E-5,-0.0011198370035873082,-1.3810850755927918E-4,383136.31010866957,6.712312443960792E-12,1114.9716766205884,-5.263251007875015,4.058908693132528,5.679533214528937
2520.0,-1059985.5394797698,-4851258.900556103,-4575646.56677384,4148371.288309734,-2724091.035235344,-4578773.575340687,1229.5700039869596,6956.907025495633,-3029.142874540108,-5.370838297270776,3.5268425703657966,5.928074119660398,6758705.257313633,1.207080754425705,-0.11848329240577914,-0.19105224289638698,-0.055925813435418,-0.8369197695716213,0.22512797857151068,1.486240006394557,-6.663362660019595E-5,-0.0011191949398996672,-1.4156095312480634E-4,384099.80747272255,6.449620974253308E-12,1107.4021703159497,-5.370838297270776,3.5268425703657966,5.928074119660398
2580.0,-662392.3091612937,-4757004.748785117,-4746521.831402653,4212424.695710938,-2300655.0936073135,-4749714.893591562,904.7187137707336,7152.139312690763,-2666.692806731826,-5.4533182032249226,2.9783806732700424,6.148883021155093,6758705.2573136585,1.211456023673723,-0.12651001995326322,-0.190536029013275,-0.05552889027090509,-0.8322453779569638,0.1736698132562849,1.53109481907835,-7.38686344251306E-5,-0.0011184920571115475,-1.4498752691400886E-4,385031.7563536516,6.1930830963986296E-12,1099.5953089980842,-5.4533182032249226,2.9783806732700424,6.148883021155093
2640.0,-260819.78654558802,-4644176.7085883245,-4895284.622655689,4256853.805354053,-1866501.126853804,-4898528.863011161,575.681630751085,7314.0363743278895,-2291.8522025615976,-5.510311594484286,2.416104303954379,6.34093197088813,6758705.257313496,1.2158312929217412,-0.13500238243768195,-0.19000513027920832,-0.054784792890328414,-0.830399368853719,0.12194725752580748,1.5752031740165162,-8.123552694239284E-5,-0.0011177259930794266,-1.4838688214804404E-4,385917.4519737403,5.945366510669979E-12,1091.6204821761207,-5.510311594484286,2.416104303954379,6.34093197088813
2700.0,143028.9058663286,-4513327.674961481,-5021244.06859073,4281453.51842244,-1423652.5361982351,-5024524.374665579,243.99629266923563,7441.848406641175,-1906.3740784217923,-5.54156055239411,1.842658503932298,6.503330224042432,6758705.257313586,1.2202065621697118,-0.14394886429430176,-0.18945339179769297,-0.0536658110708412,-0.8313134945870146,0.07008687875143507,1.6188350262264521,-8.873190363497613E-5,-0.0011168944020945293,-1.5175765565621173E-4,386743.4607420179,5.708707619136091E-12,1083.54837455139,-5.54156055239411,1.842658503932298,6.503330224042432
2760.0,547435.3111400169,-4365079.32259118,-5123815.926746826,4286111.379365651,-974172.9175596307,-5127117.019724253,-88.78795224421052,7534.985898645489,-1512.0606747986876,-5.546929439184263,1.2607391542091204,6.635328347220937,6758705.2573138205,1.2245818314176822,-0.15333567317722122,-0.18887391547804172,-0.05214552753974359,-0.8349492842301824,0.018211447373226768,1.6622521503228027,-9.635527289602256E-5,-0.0011159949594556572,-1.550984689433428E-4,387497.8515726995,5.484892234123758E-12,1075.448357810664,-5.546929439184263,1.2607391542091204,6.635328347220937
2820.0,950673.0905874618,-4200119.0613883855,-5202525.280338433,4270808.064060812,-520156.3603163947,-5205831.7864046665,-421.1172987178189,7593.02228993068,-1110.7548723843452,-5.526405348127872,0.6730798594545135,6.736321603384325,6758705.257313818,1.228957100665621,-0.16314678388471143,-0.18825908272123498,-0.05019897017032006,-0.841297183032119,-0.033557623269703414,1.7057114580760855,-1.0410305147613141E-4,-0.0011150253661179276,-1.5840792933946167E-4,388170.3970627455,5.275242061676236E-12,1067.3853242926145,-5.526405348127872,0.6730798594545135,6.736321603384325
2880.0,1351015.5332313469,-4019196.7485065064,-5257008.714102047,4235617.426326637,-63717.61030903778,-5260305.236230793,-751.440846378382,7615.695836830431,-704.3314271443544,-5.4800979369424985,0.08243868830813993,6.805852599807758,6758705.257313852,1.2333323699135281,-0.17336399051883844,-0.18760059391111802,-0.04780275741942772,-0.850375912618977,-0.08509791217404139,1.7494682207544006,-1.119725641102547E-4,-0.0011139833534080722,-1.6168463123095118E-4,388752.74122855405,5.080611272883924E-12,1059.4164003112805,-5.4800979369424985,0.08243868830813993,6.805852599807758
2940.0,1746743.087868265,-3823121.1736682816,-5287015.960268283,4180706.103389557,393017.85520676203,-5290287.15007681,-1078.2179333098109,7602.910680494373,-294.68806885853377,-5.4082386495423505,-0.5084151580916311,6.843613189892935,6758705.2573140105,1.2377076391614352,-0.18396696682015742,-0.1868895251206473,-0.04493523556556978,-0.8622320337098841,-0.13628364617311384,1.7937791330894153,-1.1996104333278807E-4,-0.0011128666877977694,-1.6492715737225E-4,389238.5311229661,4.9014002634150304E-12,1051.5882257839264,-5.4082386495423505,-0.5084151580916311,6.843613189892935
3000.0,2136150.8834410743,-3612756.335426335,-5292411.007812333,4106332.6830997565,847923.7926836292,-5295641.637149377,-1399.925404777282,7554.737114712328,116.26349193833173,-5.311179334887022,-1.0967146777451966,6.8494456243042245,6758705.257313935,1.2420829084093103,-0.1949333346901724,-0.18611640209862218,-0.041576606284573714,-0.8769396471343837,-0.18698332536826268,1.838905146642181,-1.2806562948917456E-4,-0.0011116731757251702,-1.6813408027666386E-4,389623.5102926384,4.737592994403031E-12,1043.9355299063434,-5.311179334887022,-1.0967146777451966,6.8494456243042245
3060.0,2517556.20351053,-3389017.5266821925,-5273172.670837073,4012846.437867195,1298883.1495102465,-5276347.702764793,-1715.0647812931472,7471.411055604137,526.6066035528941,-5.189390275159118,-1.6797083289882906,6.823342951453342,6758705.257314069,1.246458177657154,-0.20623874104542944,-0.1852712912487356,-0.03770904309371452,-0.8946001184855397,-0.2370572751395249,1.8851139712877991,-1.3628337095172516E-4,-0.0011104006684541313,-1.7130396368455927E-4,389905.572696661,4.588819086299187E-12,1036.4814517351188,-5.189390275159118,-1.6797083289882906,6.823342951453342
3120.0,2889305.880869405,-3152867.248375021,-5229394.614642781,3900685.6324097593,1743797.9656238637,-5232499.2734787315,-2022.169291033276,7353.33271948183,934.4287143402604,-5.043457638822659,-2.254673152128865,6.765448671816502,6758705.257313798,1.2508334469049975,-0.21785694317150556,-0.1843439069450008,-0.03331679517962069,-0.9153416497232463,-0.2863550921159007,1.9326820931048263,-1.4461122454706438E-4,-0.001109047066960407,-1.7443536410691383E-4,390084.7763718829,4.454434097613934E-12,1029.2395225337355,-5.043457638822659,-2.254673152128865,6.765448671816502
3180.0,3249783.57876429,-2905310.970736331,-5161284.840719844,3770375.4144783025,2180599.1722898255,-5164304.680810174,-2319.8107326433965,7201.064519286563,1337.8303709943143,-4.874080377238645,-2.8189276843540263,6.676055654872088,6758705.257313439,1.2552087161527934,-0.229759902925206,-0.1833237341660261,-0.02838627726926477,-0.9393184411876743,-0.3347129682506113,1.981896082177075,-1.5304605620162658E-4,-0.0011076103268326943,-1.7752683244176445E-4,390163.31679970946,4.33360543575199E-12,1022.2167085726853,-4.874080377238645,-2.8189276843540263,6.676055654872088
3240.0,3597416.925775513,-2647392.7618798506,-5069164.634550565,3622525.299723257,2607256.2415735796,-5072085.607452682,-2606.606135681693,7015.328193959533,1734.9341300459384,-4.682066586422236,-3.3698446031129343,6.555604331580942,6758705.257312949,1.2595839854005895,-0.24191789011790304,-0.18220016508689102,-0.022906144211364082,-0.9667090837625715,-0.3819509029932788,2.0330528616893746,-1.6158464181154327E-4,-0.0011060884631770515,-1.80576915660764E-4,390145.4605900777,4.225390493916262E-12,1015.4166786040546,-4.682066586422236,-3.3698446031129343,6.555604331580942
3300.0,3930684.4721569372,-2380190.803760798,-4953466.982717978,3457826.2637945996,3021786.6410082695,-4956275.502479307,-2881.224187320715,6797.001188912378,2123.8933395876343,-4.468329358180987,-3.9048630359348833,6.404680179234426,6758705.257313089,1.2639592546483536,-0.25429959548100706,-0.18096264790915392,-0.01686734916973985,-0.99771369041539,-0.4278698530583307,2.0864584782839595,-1.7022366834201422E-4,-0.0011044795555115309,-1.835841585627532E-4,390037.4407592824,4.1287977725137635E-12,1008.842579830952,-4.468329358180987,-3.9048630359348833,6.404680179234426
3360.0,4248122.436329529,-2104812.8156997524,-4814734.468354454,3277047.4566013203,3422265.0491593243,-4817417.474583869,-3142.3913954603195,6547.1123093982,2502.9007493638787,-4.233882147305425,-4.421500477753303,6.224010519185844,6758705.257312846,1.268334523896086,-0.2668722535750953,-0.17960084590320308,-0.010263184431218405,-1.0325491214488483,-0.4722489277254566,2.1424247568605326,-1.789597351609267E-4,-0.0011027817526377802,-1.8654710559073447E-4,389847.3155074385,4.042827942803362E-12,1002.4989349851752,-4.233882147305425,-4.421500477753303,6.224010519185844
3420.0,4548331.211268747,-1822391.405727449,-4653616.656445039,3081032.55540083,3806832.2892014245,-4656161.674884913,-3388.897960068206,6266.836672016619,2870.196908701898,-3.9798336836137906,-4.917364260197307,6.014460651373351,6758705.257312619,1.2727097931452471,-0.2796017760493014,-0.1781048043394065,-0.0030893041996312787,-1.0714414930566003,-0.514842821087093,2.201263055500358,-1.8778935561045788E-4,-0.001100993277476114,-1.8946430270848165E-4,389584.7930293454,3.966496907697151E-12,996.3926056763203,-3.9798336836137906,-4.917364260197307,6.014460651373351
3480.0,4829981.601719535,-1534079.3699170887,-4470866.982877334,2870695.7750257617,4173703.9392328397,-4473262.1831968,-3619.603326352751,5957.4899828062125,3224.0783132862925,-3.7073824595485476,-5.390162520973387,5.7770293526825665,6758705.257312392,1.2770850623929477,-0.29245289548708003,-0.17646512273914283,0.004656271086640338,-1.114615019351264,-0.5553797855943782,2.2632741941688073,-1.9670895881955224E-4,-0.0010991124318499423,-1.9233429933247952E-4,389261.02547362825,3.89884552462562E-12,990.5329803432928,-3.7073824595485476,-5.390162520973387,5.7770293526825665
3540.0,5091820.764422848,-1241044.9598637235,-4267339.163421896,2647017.5550838895,4521178.579852643,-4269573.413965902,-3833.4413952612076,5620.5221733832395,3562.9052634902446,-3.417810825620179,-5.83771462531638,5.512843769020751,6758705.257312499,1.2814603316406326,-0.30538932002141017,-0.17467312967678522,0.012973168999944015,-1.1622761927670429,-0.5935605939594097,2.3287335827328675,-2.0571489175946945E-4,-0.0010971376012052676,-1.951556503146037E-4,388888.37572197604,3.838941068880648E-12,984.9316242392431,-3.417810825620179,-5.83771462531638,5.512843769020751
3600.0,5332677.825057463,-944467.138006858,-4043983.141006221,2411039.9453747114,4847645.641496479,-4046046.06025002,-4029.425368778416,5257.510429340789,3885.109398847762,-3.1124787273275025,-6.257960995513388,5.2231537335057565,6758705.257312429,1.2858356008883016,-0.31837389869411675,-0.17272105719271255,0.02185869768037639,-1.2145924692547763,-0.6290590982568806,2.3978707328076694,-2.14803421543309E-4,-0.0010950672592502696,-1.9792691797065832E-4,388480.16116486216,3.785874697100149E-12,979.6016174950055,-3.1124787273275025,-6.257960995513388,5.2231537335057565
3660.0,5551469.1470332835,-645530.8403955189,-3801840.591711405,2163861.7120628655,5151592.816156793,-3803722.5961863734,-4206.652209549634,4870.151647642162,4189.200875260243,-2.79281711824803,-6.648972308627956,4.909325545378252,6758705.257312478,1.2902108701359387,-0.33136879734288777,-0.17060221179495158,0.031307896104589304,-1.2716651507207468,-0.6615251463587161,2.470842861619418,-2.2397073796980946E-4,-0.0010928999725004346,-2.0064667414945982E-4,388050.3791073521,3.738757963139638E-12,974.5567556432787,-2.79281711824803,-6.648972308627956,4.909325545378252
3720.0,5747203.2289589755,-345422.2659508223,-3542040.0118578463,1906633.188308162,5431613.000385135,-3543732.3603316946,-4364.306696460076,4460.254362006808,4473.77515366833,-2.4603210847943275,-7.008958026765784,4.572835246158981,6758705.257312462,1.29458613938356,-0.3443356845955523,-0.16831113898786476,0.041313601075441096,-1.3334972201103978,-0.690590698671299,2.5477033568600618,-2.332129563104021E-4,-0.001090634404713699,-2.0331350233691848E-4,387613.4188208528,3.696720317690944E-12,969.8107288760668,-2.4603210847943275,-7.008958026765784,4.572835246158981
3780.0,5918985.209306546,-45324.210839744315,-3265791.4103578506,1640550.8940931936,5686410.738879438,-3267286.244070393,-4501.665059949478,4029.730177300044,4737.519371159767,-2.1165427186770978,-7.33627422844148,4.215261431156913,6758705.257312678,1.2989614086311496,-0.35723592726328696,-0.16584377827543287,0.051866529578926054,-1.3999585866172415,-0.7158799125213633,2.6283675717364985,-2.4252612033764609E-4,-0.0010882693212010265,-2.05925999789259E-4,387183.7655744509,3.658908655268588E-12,965.3763477897023,-2.1165427186770978,-7.33627422844148,4.215261431156913
3840.0,6066020.958585904,253588.53398639156,-2974380.6321811187,1366851.9508971407,5914808.140468602,-2975671.0109556764,-4618.098183014776,3580.584755698909,4979.21826781064,-1.763083773434413,-7.62943071383356,3.8382776357393027,6758705.257312475,1.3033366778787392,-0.37003079415616563,-0.1631976057020154,0.0629553748355307,-1.4707534181103639,-0.7370236187918624,2.7125806373982817,-2.519062055920148E-4,-0.0010858035929966533,-2.084827796891303E-4,386775.7021977394,3.6244893597535383E-12,961.264848797814,-1.763083773434413,-7.62943071383356,3.8382776357393027
3900.0,6187620.741208844,550153.704665046,-2669163.340312885,1086808.3176399858,6115750.240925943,-2670243.2743829945,-4713.07435603663,3114.9083989129554,5197.759644954087,-1.4015881414630533,-7.887097360871583,3.4436443367711154,6758705.257312401,1.307711947126297,-0.3826816670885466,-0.16037176111701165,0.074566914032851,-1.5453964459060676,-0.7536779220342591,2.799894186475401,-2.613491228828011E-4,-0.0010832362008735752,-2.1098247331832306E-4,386403.0138611854,3.592652879262748E-12,957.4852904512097,-1.4015881414630533,-7.887097360871583,3.4436443367711154
3960.0,6283202.431132509,843225.9889568676,-2351558.684964671,801720.874970691,6288309.789731087,-2352423.1623759666,-4786.161575752773,2634.8662719985255,5392.139333017437,-1.0337341878800927,-8.108109713201296,3.0332006103719586,6758705.257312551,1.312087216373823,-0.39515025757874017,-0.1573671575800894,0.08668612549035029,-1.6232063120960403,-0.7655456302389251,2.889660065304845,-2.708507220181965E-4,-0.0010805662391886843,-2.1342373224031628E-4,386078.70177304663,3.5626205675562053E-12,954.0440393733516,-1.0337341878800927,-8.108109713201296,3.0332006103719586
4020.0,6352294.267344373,1131681.3374363203,-2023042.6900387383,512913.3854850368,6431691.440671943,-2023687.6995066553,-4837.029380868259,2142.6883153230783,5561.465649553902,-0.6612269772225081,-8.291473785036267,2.6088554876019963,6758705.257313465,1.3164624856213492,-0.40739882750368733,-0.15418657058078025,0.09929631279378302,-1.7033229480539849,-0.7723980670743403,2.9810480297311934,-2.8040679575788653E-4,-0.0010777929195438837,-2.1580523048590395E-4,385814.7114070776,3.5336533112146315E-12,950.944338187196,-0.6612269772225081,-8.291473785036267,2.6088554876019963
4080.0,6394537.13724676,1414421.146109879,-1685141.3879307767,221726.35784737996,6545235.328988627,-1685563.9370557624,-4865.450218943338,1640.6588920201339,5704.963330599468,-0.28579042852447417,-8.436370071765397,2.172579049930291,6758705.257313602,1.3208377548688435,-0.41939041176638103,-0.1508347050561664,0.1123792333268486,-1.784751845631834,-0.7740939408598606,3.0730902912951117,-2.900130839810156E-4,-0.0010749155742472939,-2.181256667347753E-4,385621.68065615307,3.505061293656513E-12,948.1859450697998,-0.28579042852447417,-8.436370071765397,2.172579049930291
4140.0,6409686.378041351,1690376.296058709,-1339423.7346930925,-70489.15695285371,6628420.020629845,-1339621.8634565214,-4871.300341311603,1131.10621883013,5821.976920997947,0.09084056632149345,-8.542156758853961,1.7263933063412453,6758705.257313859,1.325213024116306,-0.4310890408658192,-0.14731823855211545,0.12591522857696272,-1.8664314734483267,-0.7705918165618026,-3.1184361365048425,-2.996652780607713E-4,-0.0010719336595623788,-2.2038376648594085E-4,385508.71298626513,3.476214116968893E-12,945.7648335992446,0.09084056632149345,-8.542156758853961,1.7263933063412453
4200.0,6397613.088251545,1958511.0365597897,-987494.3383675975,-362377.80884623347,6680864.822062124,-987467.1278532052,-4854.560224854334,616.3916285645598,5911.973611844802,0.4669280267632286,-8.60837212512924,1.2723628937711686,6758705.257313937,1.3295882933637686,-0.4424599611513889,-0.1436458392473264,0.1398833536428584,-1.9473132341474124,-0.7619536438818116,-3.0281880492183473,-3.0935902543607533E-4,-0.0010688467587303574,-2.2257828420971522E-4,385483.18020296306,3.4465504150190597E-12,943.6729410968017,0.4669280267632286,-8.60837212512924,1.2723628937711686
4260.0,6358304.94360166,2217826.699028416,-630986.0339316034,-652586.203056805,6702331.441988234,-630733.6102390263,-4815.314521480442,98.8987125648895,5974.5455156905045,0.8407387370609835,-8.634736139848805,0.8125856421885069,6758705.257314225,1.3339635626111994,-0.45346985047068783,-0.1398281579764492,0.1542615035039444,-2.026439280957046,-0.748338581959425,-2.940289906033997,-3.190899343697316E-4,-0.0010656545847536772,-2.2470800547379568E-4,385550.5588983123,3.415586048680841E-12,941.8979528415432,0.8407387370609835,-8.634736139848805,0.8125856421885069
4320.0,6291866.51352852,2467365.2300288514,-271552.3387890225,-939769.1373411507,6692724.999218918,-271075.87212782784,-4753.751538130877,-418.97760853322427,6009.411372610811,1.2105520366978915,-8.621151256132649,0.3491830451385374,6758705.257314411,1.3383388318585985,-0.46408702690158976,-0.1358777937974232,0.16902653382837082,-2.103004230901974,-0.7299884265121686,-2.855530744567422,-3.2885357888114055E-4,-0.0010623569829278944,-2.267717490361592E-4,385714.3039738155,3.382919982994914E-12,940.4231075814978,1.2105520366978915,-8.621151256132649,0.3491830451385374
4380.0,6198519.076675898,2706212.5325327944,89140.1769213553,-1222595.7940569937,6652094.37384411,89838.47794704026,-4670.162252035656,-934.8420376635212,6016.4176826785,1.5746675164201895,-8.567702406283205,-0.11570932407546074,6758705.257314194,1.3427141011059978,-0.4742816482924794,-0.13180923307569606,0.18415437438448906,-2.1763919622699706,-0.7072075340740147,-2.7745125740525154,-3.3864550384108826E-4,-0.0010589539331111845,-2.2876836889728405E-4,385975.761897651,3.3482878546071004E-12,939.2304643499219,1.5746675164201895,-8.567702406283205,-0.11570932407546074
4440.0,6078599.935771562,2933501.605540341,449419.57073182875,-1499755.859364551,6580631.901714432,450336.4696164055,-4564.938867797844,-1446.3098301698806,5995.539262765609,1.9314125896793208,-8.474656207312194,-0.5799514111432736,6758705.257314276,1.347089370353365,-0.4840259004618349,-0.12763876245538,0.19962013351143876,-2.2461857734927606,-0.6803407537912092,-2.6976401253840017,-3.484612302148241E-4,-0.0010554455517203375,-2.3069675630439055E-4,386334.12553221313,3.311761117427601E-12,938.3145551775683,1.9314125896793208,-8.474656207312194,-0.5799514111432736
4500.0,5932561.23433431,3148415.473124891,807616.2244434741,-1769965.5423126624,6478672.415092928,808747.4719976621,-4438.572924659935,-1951.017651551122,5946.879227935286,2.279149910364473,-8.342459387568946,-1.0414082558367437,6758705.257314768,1.3514646396007006,-0.4932941719687485,-0.12338435651608982,0.2153981925068027,-2.312156246013411,-0.6497525017157838,-2.625132921746441,-3.582962604388891E-4,-0.00105183209344385,-2.3255584170033585E-4,386786.4315122077,3.2735605862629885E-12,937.6704153621263,2.279149910364473,-8.342459387568946,-1.0414082558367437
4560.0,5760968.279668854,3350189.894913396,1162070.5224776499,-2031973.4671131375,6346691.635133495,1163410.8766969584,-4291.65296401926,-2446.63431776394,5870.6683999870065,2.616284608858406,-8.171736447799605,-1.4979595057435087,6758705.257314415,1.3558399088480522,-0.5020632135609487,-0.11906554125570037,0.23146228925968929,-2.3742344029761244,-0.6158091119273046,-2.557052077687542,-3.6814608391637756E-4,-0.0010481139526634907,-2.3434459661006286E-4,387327.6002593571,3.233969999835789E-12,937.2883859807258,2.616284608858406,-8.171736447799605,-1.4979595057435087
4620.0,5564497.378605407,3538115.8509649206,1511140.477763287,-2284566.4125628853,6185303.92460709,1512683.728252538,-4124.861768904189,-2930.871372605832,5767.264147937649,2.9412713195987905,-7.963286572194535,-1.9475088319020308,6758705.257314458,1.360215178095356,-0.5103122805859255,-0.11470323491356549,0.24778559094402744,-2.4324780792452803,-0.5788654501708284,-2.4933339113412436,-3.7800618261441644E-4,-0.0010442916645762852,-2.360620354575301E-4,387950.51784136327,3.193325162110237E-12,937.1541991653412,2.9412713195987905,-7.963286572194535,-1.9475088319020308
4680.0,5343933.194388481,3711541.794946163,1853209.2712950285,-2526574.8733218466,5995259.411983589,1854948.2681341781,-3938.973188694885,-3401.493457697562,5637.148667403034,3.2526209744921197,-7.7180798071108985,-2.387993210586518,6758705.257313919,1.3645904473426438,-0.5180232568410048,-0.11031956796029267,0.26434075607037427,-2.4870378186583557,-0.5392558320595461,-2.4338240546715966,-3.8787203674705076E-4,-0.0010403659060109715,-2.3770721730635963E-4,388646.1580057275,3.151993014217107E-12,937.2485164291068,3.2526209744921197,-7.7180798071108985,-2.387993210586518
4740.0,5100165.635048488,3869875.670448421,2186692.6719769356,-2756878.4185969923,5777440.500626977,2188619.358893881,-3734.8485638802053,-3856.3284317055177,5480.9267079609135,3.5489073376637137,-7.437252527090086,-2.8173920364918286,6758705.257313952,1.368965716589916,-0.5251807585600526,-0.10593768436737198,0.2810999866807241,-2.5381263213963168,-0.4972886954361276,-2.378308040270774,-3.977391305261865E-4,-0.0010363374959329848,-2.3927924751761105E-4,389403.7419133393,3.1103185442840333E-12,937.54422764786,3.5489073376637137,-7.437252527090086,-2.8173920364918286
4800.0,4834186.285462412,4012586.686200671,2510046.3039743924,-2974410.824715503,5532857.779413375,2512151.755671501,-3513.4327670763155,-4293.277196675951,5299.322759624538,3.828773258180077,-7.122102209656177,-3.2337360335975647,6758705.257313965,1.373340985838585,-0.5317722174475625,-0.10158152652006408,0.2980350719037389,-2.585993359719263,-0.45324421717124186,-2.3265364485953426,-4.0760295796240934E-4,-0.0010322073956340794,-2.4077727931833847E-4,390210.9323335333,3.0686105292230705E-12,938.0064434507481,3.828773258180077,-7.122102209656177,-3.2337360335975647
4860.0,4547084.397110014,4139206.8468975043,2821772.7295219474,-3178164.9590829825,5262645.353581217,2824047.192984804,-3275.7498779011194,-4710.323190697337,5093.177711556181,4.090936618486599,-6.774081542100225,-3.635115931002301,6758705.257313812,1.3777162550858253,-0.5377879418775529,-0.09727560636167856,0.3151174244815429,-2.6309065616257388,-0.4073740418789621,-2.2782442190376195,-4.1745902869748445E-4,-0.0010279767086035377,-2.4220051527503017E-4,391054.05840511556,3.0283514745265657E-12,938.6828558794451,4.090936618486599,-6.774081542100225,-3.635115931002301
4920.0,4240042.451419775,4249332.237110245,3120428.315982397,-3367197.394120137,4968055.617018355,3122861.2555817845,-3022.898510603579,-5105.5415075459905,4863.444998074603,4.334195957419117,-6.394791885119298,-4.019690872046468,6758705.257313901,1.3820915243330338,-0.5432211556190925,-0.09304476552467382,0.33231811222027363,-2.673137568605898,-0.3599023976990439,-2.2331646226574358,-4.273028738496908E-4,-0.0010236466800793396,-2.435482086661998E-4,391918.36649368424,2.991233058457105E-12,939.6380974214956,4.334195957419117,-6.394791885119298,-4.019690872046468
4980.0,3914331.3141305335,4342624.056869627,3404629.8569094255,-3540632.7309386097,4650453.489509208,3407210.00309089,-2756.046814578121,-5477.107605513954,4611.186248886635,4.557435747730191,-5.985976119761897,-4.385696526053934,6758705.2573138,1.3864667935802266,-0.5480680136334006,-0.08891392737350017,0.34960788652975544,-2.712952670647191,-0.3110280311941533,-2.1910387985799966,-4.3713005185299877E-4,-0.0010192186962788654,-2.448196647489611E-4,392788.2922181894,2.958723612201241E-12,940.9230462950093,4.557435747730191,-5.985976119761897,-4.385696526053934
5040.0,3571304.999952741,4418809.408127638,3673060.917935537,-3697667.613765251,4311310.144686664,3675776.319275109,-2476.4271690704363,-5823.305569248572,4337.566462279141,4.759631309144648,-5.549510905656632,-4.731452873023159,6758705.257313583,1.3908420628273876,-0.5523275947567201,-0.0849078439652711,0.36695721044885,-2.7506069350872298,-0.26092655013600785,-2.1516218442281327,-4.4693615427099305E-4,-0.0010146942833102134,-2.460142419147296E-4,393647.74838029285,2.9321864879669013E-12,942.5834732510266,4.759631309144648,-5.549510905656632,-4.731452873023159
5100.0,3212395.0682950546,4477681.832288157,3924477.8794854507,-3837574.417431862,3952196.256547894,3927315.9578752704,-2185.3305944836065,-6142.535890157067,4043.848721760864,4.939853339024683,-5.087398380004343,-5.055371632610048,6758705.257314029,1.3952173320745327,-0.5560018712333773,-0.08105084105834008,0.38433628851830337,-2.7863409295822006,-0.20975289625102503,-2.114686367661335,-4.567168115663464E-4,-0.0010100751057660364,-2.4713135272967255E-4,394480.42330087064,2.9129245450458375E-12,944.663097269927,4.939853339024683,-5.087398380004343,-5.055371632610048
5160.0,2839104.672394338,4519101.599767516,4157715.649591172,-3959704.591624622,3574774.7944096355,4160663.258304913,-1884.1009037408792,-6433.322732742769,3731.3884783301487,5.09727204378351,-4.60175732828849,-5.3559633097411,6758705.257314296,1.399592601321678,-0.5590956553940047,-0.0773665642881565,0.40171510096238316,-2.820379293933108,-0.1576437726881011,-2.0800242584098614,-4.6646769880674037E-4,-0.001005362965003777,-2.4817046485590093E-4,395270.08396079304,2.9022127012265973E-12,947.2054406330501,5.09727204378351,-4.60175732828849,-5.3559633097411
5220.0,2453002.2856416893,4542995.753349819,4371693.021466433,-4063491.6470263368,3180793.3980785105,4374736.505841636,-1574.1286181385535,-6694.320656145106,3401.6274221756134,5.231160855250299,-4.094813859121253,-5.63184383020461,6758705.257314693,1.4039678705687753,-0.5616165239320015,-0.0738777296713941,0.41906344442352406,-2.8529305827269638,-0.10471992505975007,-2.0474472689698824,-4.761845412882641E-4,-0.0010005597971172774,-2.4913110185020046E-4,396000.878346616,2.901327439636402E-12,950.2551058475372,5.231160855250299,-4.094813859121253,-5.63184383020461
5280.0,2055715.1302839613,4549357.907871869,4565417.65197113,-4148453.7699751295,2772076.366796896,4568542.91243385,-1256.844673039387,-6924.320762135209,3056.086969185733,5.34089971726677,-3.568891617118395,-5.881740740595342,6758705.257314919,1.4083431398158728,-0.56357472051281,-0.07060588157693917,0.4363509812913221,-2.884187952434687,-0.05108822535311396,-2.0167868515130722,-4.8586312005774316E-4,-9.956676706054312E-4,-2.500128438371313E-4,396657.63150568056,2.911573390567919E-12,953.8584664154665,5.34089971726677,-3.568891617118395,-5.881740740595342
5340.0,1648922.3349797877,4538247.809529012,4737990.6386643965,-4214196.053813748,2350516.2971869507,4741183.195811008,-933.7139396063241,-7122.256242906697,2696.361389147615,5.425977928894623,-3.026401569167996,-6.104498948034366,6758705.257314619,1.4127184090629386,-0.5649830377378845,-0.06757116119223779,0.45354729941740923,-2.914330392261545,0.0031564592895045873,-1.9878935741057635,-4.954992773154575E-4,-9.906887837458148E-4,-2.5081532805440476E-4,397226.1300183278,2.9343031128356196E-12,958.0634741842334,5.425977928894623,-3.026401569167996,-6.104498948034366
5400.0,1234347.8489155152,4509790.6588145,4888610.674798979,-4260412.336696817,1918065.4069510868,4891855.736240646,-606.228589560518,-7287.207304162857,2324.110603960166,5.485996531745854,-2.469831400956291,-6.299085976176731,6758705.25731498,1.4170936783099726,-0.5658566797322421,-0.06479208843697187,0.4706219835904743,-2.9435242968522832,0.057929610792263685,-1.9606363489225773,-5.05088921680701E-4,-9.856254616815668E-4,-2.515382492684613E-4,397693.38987786113,2.970923100843295E-12,962.9180872053298,5.485996531745854,-2.469831400956291,-6.299085976176731
5460.0,813753.1413137797,4464176.201812189,5016577.763350341,-4286886.637264476,1476726.582490904,5019860.292017443,-275.90133066187167,-7418.405441256031,1941.0526855590472,5.520670230122227,-1.901734562122666,-6.464596715157701,6758705.257314946,1.4214689475570224,-0.5662131069269063,-0.062285360109124936,0.48754469972765846,-2.9719252545561905,0.11315560366065532,-1.9349016388343776,-5.146280333026683E-4,-9.80480153231403E-4,-2.521813600592576E-4,398047.90312773915,3.0228767080988045E-12,968.4667387973132,5.520670230122227,-1.901734562122666,-6.464596715157701
5520.0,388929.71620349464,4401657.595242218,5121296.47299571,-4293494.181273967,1028544.1898689179,5124601.256592694,55.741458747749476,-7515.23704849157,1548.9560845587523,5.529828833878793,-1.3247189999377136,-6.60025764432951,6758705.257314734,1.4258442168040246,-0.5660718648690929,-0.06006566684134536,0.5042852922764486,-2.9996799824269464,0.168766428010344,-1.9105927640942355,-5.241126688003557E-4,-9.752554274339063E-4,-2.5274447097325503E-4,398279.8590267301,3.0915945131233403E-12,974.7444341755593,5.529828833878793,-1.3247189999377136,-6.60025764432951
5580.0,-38308.526737151966,4322550.051314108,5202278.720849314,-4280202.013996978,575594.6896599372,5205590.442144813,387.1666672321229,-7577.246344138992,1149.6316218470743,5.513418215230197,-0.7414356229409295,-6.705430507927817,6758705.257314683,1.430219486051027,-0.5654543991860295,-0.05814553122062789,0.5208138948060973,-3.0269283838229266,0.22470056963166263,-1.8876294036991892,-5.335389660152162E-4,-9.699539698375941E-4,-2.5322745054477853E-4,398381.33598018734,3.1784070572530313E-12,981.7686437147711,5.513418215230197,-0.7414356229409295,-6.705430507927817
5640.0,-466133.05362532695,4227229.26907577,5259146.068733863,-4247069.194940765,119977.09720994653,5262449.37636668,716.8414303857005,-7604.137596230123,744.9242765167792,5.471500772079691,-0.15456653750734536,-6.779615425178436,6758705.257314278,1.4345947552979816,-0.5643838590628047,-0.0565351691191214,0.5371010532836272,-3.0538057412605637,0.2809020238020467,-1.8659473735296122,-5.429031485620684E-4,-9.645785785501922E-4,-2.536302251860136E-4,398346.46099363564,3.2844258133510695E-12,989.5302100485608,5.471500772079691,-0.15456653750734536,-6.779615425178436
5700.0,-892708.5477333908,4116129.6595528745,5291631.521800442,-4194246.573226321,-336196.6693623112,5294911.10127905,1043.2401238014165,-7595.776636848837,336.704804587317,5.404255391910494,0.4331868981527289,-6.8224534178405785,6758705.257314591,1.4389700245449362,-0.5628848918232924,-0.055242375978042345,0.55311786102548,-3.080445090760713,0.3373194196203606,-1.845498763825666,-5.522015301636129E-4,-9.59132160060618E-4,-2.5395277894666617E-4,398171.5339500895,3.4104143440855717E-12,997.9856988461654,5.404255391910494,0.4331868981527289,-6.8224534178405785
5760.0,-1316200.8177871972,3989742.3725581933,5299580.820400281,-4121976.143755464,-790811.5104293745,5302821.464971994,1364.8513387746132,-7552.191655329032,-73.13877606038591,5.311976911836412,1.0191161565501108,-6.833728339790428,6758705.25731506,1.443345293791875,-0.5609834313710316,-0.05427243941049415,0.5688361038910954,-3.106979858941874,0.3939052318354476,-1.826252531955337,-5.614305187557437E-4,-9.536177248486115E-4,-2.5419515314484406E-4,397855.11458331096,3.55668558658245E-12,1007.0542532443214,5.311976911836412,1.0191161565501108,-6.833728339790428
5820.0,-1734784.7297279255,3848613.1336079366,5282953.218269462,-4030589.986111107,-1241758.8919018158,5286139.899335241,1680.1848104213666,-7473.573263587618,-482.70979823909545,5.195075072045169,1.600517712552995,-6.813368194981383,6758705.257314757,1.447720563038782,-0.5587064833745086,-0.05362807912145388,0.5842284138410565,-3.133546885811988,0.45061505687545444,-1.808195674358306,-5.705866203515897E-4,-9.48038382797148E-4,-2.543574458712499E-4,397398.07061768585,3.723061698073054E-12,1016.6212285334384,5.195075072045169,1.600517712552995,-6.813368194981383
5880.0,-2146652.128098041,3693339.899916082,5241821.742284762,-3920508.7899588337,-1686946.5742544334,5244939.679036928,1987.778267775594,-7360.2738297048445,-890.1116184399365,5.054072961627506,2.174705255217399,-6.761445832000323,6758705.257314836,1.4520958322856732,-0.5560819101265321,-0.053309414711435264,0.5992684286995631,3.1228952958694687,0.5074069285340671,-1.791335148390074,-5.796664426530129E-4,-9.423973384241231E-4,-2.544398113692687E-4,396803.5861524023,3.908913234252398E-12,1026.5485773717144,5.054072961627506,2.174705255217399,-6.761445832000323
5940.0,-2550019.712972254,3524570.344944399,5176372.9312856365,-3792239.9725444787,-2124308.279584217,5179407.659248404,2286.204175423991,-7212.806078840325,-1293.4563125393556,4.889604957657744,2.739021889608688,-6.678179005480765,6758705.257314726,1.4564711015325642,-0.5531382179929378,-0.05331396153349774,0.6139309556551823,3.095820825491733,0.5642406458191834,-1.7757007880961593,-5.886666983999233E-4,-9.366978859496003E-4,-2.5444245929405403E-4,396077.12998242833,4.1132619445245015E-12,1036.689236604267,4.889604957657744,2.739021889608688,-6.678179005480765
6000.0,-2943136.8382503716,3342999.1814667857,5086906.053745791,-3646375.395706425,-2551813.2527895775,5089843.491902659,2574.0763363490896,-7031.840963623151,-1690.8733560022242,4.702414160342144,3.2908522771944915,-6.563929796814415,6758705.25731484,1.4608463707794237,-0.5499043502695085,-0.05363665434199051,0.6281921358991988,3.068242759674337,0.6210770799052019,-1.761349571353669,-5.975842084486009E-4,-9.309434042159256E-4,-2.5436565385429395E-4,395226.3841836672,4.3349053605047155E-12,1046.9013103887187,4.702414160342144,3.2908522771944915,-6.563929796814415
6060.0,-3324293.197161041,3149365.333559262,4973831.806370254,-3483588.691633762,-2967475.6731798705,4976658.3225678075,2850.056325880298,-6818.2048092717105,-2080.5182499703096,4.4933493291532,3.8276346623193844,-6.419203388976243,6758705.257314998,1.4652216400262512,-0.5464094880908951,-0.05426989806343506,0.6420296076825381,3.0399645051889284,0.6778774173750333,-1.7483717719953884,-6.064159045717462E-4,-9.251373514780582E-4,-2.54209712840536E-4,394261.13390717545,4.572517369633412E-12,1057.0584819942458,4.4933493291532,3.8276346623193844,-6.419203388976243
6120.0,-3691826.3610029337,2944448.9683575863,4837670.498026269,-3304632.2083992967,-3369363.8732373435,4840372.972350889,3112.859727014668,-6572.875741874869,-2460.581054390644,4.263361327032378,4.346872731358559,-6.24464619278445,6758705.257315204,1.4695969092745076,-0.5426828617853782,-0.055203644631221765,0.6554226651002145,3.0107552206346497,0.7346022804796343,-1.736899808748643,-6.151588319736488E-4,-9.192832600820958E-4,-2.5397500654467803E-4,393193.1199621721,4.824696373845249E-12,1067.0551448651834,4.263361327032378,4.346872731358559,-6.24464619278445
