time,gePosition_m_X,gePosition_m_Y,gePosition_m_Z,eiPosition_m_X,eiPosition_m_Y,eiPosition_m_Z,eiVelocity_m_s_X,eiVelocity_m_s_Y,eiVelocity_m_s_Z,eiAccel_m_s2_X,eiAccel_m_s2_Y,eiAccel_m_s2_Z,semiMajorAxis_m,gast_rad,eulerAngle_rad_Roll,eulerAngle_rad_Pitch,eulerAngle_rad_Yaw,eulerAngleWrtEi_rad_Roll,eulerAngleWrtEi_rad_Pitch,eulerAngleWrtEi_rad_Yaw,bodyAngularRateWrtEi_rad_s_Roll,bodyAngularRateWrtEi_rad_s_Pitch,bodyAngularRateWrtEi_rad_s_Yaw,altitudeMsl_m,airDensity_kg_m3,ambientTemperature_dgK,eiGravitation_m_s2_X,eiGravitation_m_s2_Y,eiGravitation_m_s2_Z
0.0,-1436381.46541304,4185811.71030584,5163944.67156165,-4315967.74,960356.2,5167269.53,129.091037,-7491.513855,1452.515654,5.46941405992553,-1.21701142732197,-6.54822723084761,6759053.07578957,1.02331944621101,-0.0,-0.202458193231342,-0.0,-2.47159390556423,-0.0371889647578404,-1.42899313520437,0.0,-0.0011222300308759,0.0,434989.540811728,1.6157E-12,978.026450176724,5.46941408349186,-1.21701227670639,-6.54822705894005
60.0,-1794950.03339062,3943126.03114409,5239239.62011155,-4298383.75503546,509016.727114552,5242568.01412883,456.873450721421,-7547.42168114928,1056.41305038887,5.45257917972524,-0.645696211541442,-6.65029456031543,6759052.98172357,1.02769471546425,-2.8605E-12,-0.202436059872993,-7.9409E-11,-2.47204519440808,0.0156059020283289,-1.38719418368879,0.0,-0.0011222300308759,0.0,433093.864933353,1.7266E-12,985.077038092728,5.45257924222352,-0.645697126730044,-6.65029442666597
120.0,-2147547.16643779,3685627.21821292,5290617.59865627,-4261177.84201409,55353.9749971387,5293934.33422615,782.910105527949,-7568.91560436398,655.07336079644,5.41122594495052,-0.0702924561832352,-6.72271302219164,6759052.88070104,1.0320699847175,-1.05202E-11,-0.202367189724863,-1.367259E-10,-2.4702868220478,0.0683734663492738,-1.34532626635134,0.0,-0.0011222300308759,0.0,430905.280256374,1.8592E-12,992.842921443938,5.41122605219603,-0.070293445310811,-6.72271293291984
180.0,-2492684.24004039,3414408.91348875,5317817.99718307,-4204498.85074536,-398561.348218961,5321107.91715486,1105.73158735561,-7555.82466958078,250.28942885678,5.3454272259401,0.506715622247306,-6.76503838978073,6759052.77139901,1.03644525395931,-2.14064E-11,-0.202248028918784,-1.685178E-10,-2.46629730751523,0.12102070149968,-1.30315482430808,0.0,-0.0011222300308759,0.0,428429.8776667,2.0161E-12,1001.27539082396,5.34542738511398,0.506714550543821,-6.7650383527787
240.0,-2828892.47086681,3130615.6581857,5320688.43686271,-4128583.60460284,-850652.767758172,5323936.48926046,1423.87586403165,-7508.12790764766,-156.122794820525,5.25535647922766,1.08281409603707,-6.77694528427745,6759052.65233875,1.04082052320969,-3.36526E-11,-0.202075238188542,-1.705799E-10,-2.46002784010144,0.173452091771071,-1.26044066321393,0.0,-0.0011222300308759,0.0,425676.59146017,2.2E-12,1010.28929651426,5.25535669901869,1.08281293288879,-6.77694530947411
300.0,-3154729.00776871,2835438.44502801,5299185.94045292,-4033756.27564055,-1298847.0897725,5302377.24663326,1735.89436559768,-7425.95586349428,-562.331494550402,5.14128921223144,1.65546789348372,-6.7582308434485,6759052.5218823,1.04519579246293,-4.50458E-11,-0.201845708497721,-1.378339E-10,-2.45140153205805,0.225567630798527,-1.21693635378426,0.0,-0.0011222300308759,0.0,422657.213748729,2.4135E-12,1019.76739899773,5.14128950294873,1.6554666301752,-6.75823094305836
360.0,-3468783.02854811,2530110.0916019,5253377.66199102,-3920427.39240532,-1741083.52487646,5256497.58437661,2040.3581448238,-7309.59159502352,-966.496445300437,5.00360418439791,2.22212987672469,-6.708818172114,6759052.37823173,1.04957106170188,-5.29539E-11,-0.201556575938879,-6.42544E-11,-2.44031230013045,0.277260684707756,-1.1723826141693,0.0,-0.0011222300308759,0.0,419386.370266598,2.6593E-12,1029.57096937468,5.00360455804686,2.22212850514419,-6.70881836085025
420.0,-3769681.82028734,2215900.4456306,5183441.16337421,-3789092.47613419,-2175322.8549637,5186475.37247491,2335.86410077644,-7159.47111172938,-1366.77666758317,4.84278430019265,2.78025044076018,-6.62875952116587,6759052.21942823,1.05394633095227,-5.42422E-11,-0.201205235829429,5.71872E-11,-2.42662344889344,0.328415660266569,-1.12650470862727,0.0,-0.0011222300308759,0.0,415881.456688625,2.9401E-12,1039.55380293107,4.84278477051314,2.78024895389071,-6.62875981641083
480.0,-4056096.81976865,1894111.43331799,5089664.2264044,-3640330.30213621,-2599556.60874833,5092598.76683465,2621.0412455503,-6976.18322166878,-1761.33826350267,4.65941714691204,3.327287635487,-6.51823913695826,6759052.04334982,1.05832160020265,-4.51994E-11,-0.200789355927417,2.345175E-10,-2.41016608239322,0.378905419131066,-1.07900895141219,0.0,-0.0011222300308759,0.0,412162.535072579,3.2586E-12,1049.5756376679,4.65941772937992,3.32728602792466,-6.51823955888929
540.0,-4326749.58791716,1566071.96447844,4972444.19006147,-3474800.7844373,-3011816.20959379,4975265.54525934,2894.55699139923,-6760.46875559477,-2148.36241232597,4.45419512862158,3.86071780274387,-6.37757571871571,6759051.84770779,1.06269686945303,-2.14638E-11,-0.200306888688605,4.767849E-10,-2.39073755366846,0.428588383753805,-1.02957949034328,0.0,-0.0011222300308759,0.0,408252.190571422,3.6175E-12,1059.51174818067,4.45419584041079,3.86071607124573,-6.37757629038349
600.0,-4580417.69202147,1233132.70788964,4832286.8041797,-3293242.48322063,-3410182.0573419,4834981.95953139,3155.12343254983,-6513.2191378571,-2526.05350010431,4.22791514670772,4.37804670963019,-6.20722441827261,6759051.63004291,1.06707213870913,2.2069E-11,-0.199756082485116,7.939868E-10,-2.36810028788341,0.477305292218586,-0.977875673880646,0.0,-0.0011222300308759,0.0,404175.349131057,4.0196E-12,1069.25747892433,4.22791600660313,4.37804485370492,-6.20722516562125
660.0,-4815940.46749382,896660.752177694,4669804.59234949,-3096469.73622767,-3792792.5040708,4672361.09642216,3401.50359301008,-6235.47427514244,-2892.64735385217,3.98147777765253,4.87682114781761,-6.00777831412476,6759051.38772489,1.0714474079538,9.12952E-11,-0.199135491705207,1.1970149E-9,-2.34198150063523,0.524875583926551,-0.923530494777508,0.0,-0.0011222300308759,0.0,399959.057492047,4.4677E-12,1078.72837695899,3.98147880589553,4.87681917037372,-6.00777926593233
720.0,-5032224.62975208,558034.169318905,4485714.7187577,-2885369.41709405,-4157852.68203726,4488120.74234465,3632.51760875031,-5928.41973630657,-3246.41954666945,3.71588589978991,5.35464095637989,-5.77996929057961,6759051.11795761,1.07582267720419,1.930169E-10,-0.198443985654,1.6975232E-9,-2.31207459618586,0.571093444366587,-0.866150869914795,0.0,-0.0011222300308759,0.0,395632.227445823,4.9642E-12,1087.85755431297,3.71588711783315,5.35463886443712,-5.77997047828783
780.0,-5228249.70609934,218636.497749196,4280836.35582044,-2660897.32557805,-4503643.14053766,4283080.74850446,3847.04880980204,-5593.38319947783,-3585.69373603501,3.43224272305626,5.80917141300075,-5.52466825286975,6759050.81779478,1.08019794645171,3.349575E-10,-0.197680756175927,2.3077323E-9,-2.27804338383753,0.615723617558486,-0.805320872515965,0.0,-0.0011222300308759,0.0,391225.346950302,5.5114E-12,1096.59193788695,3.43224415320174,5.80916921845504,-5.52466971026467
840.0,-5403073.25608504,-120148.834679781,4056087.55185009,-2424074.21678716,-4828528.24709964,4058159.89579491,4044.04966515685,-5231.83014630542,-3908.8499933882,3.13174917916345,6.2381559255018,-5.24288461056516,6759050.48416729,1.08457321569067,5.258332E-10,-0.196845323921715,3.0401465E-9,-2.23953068907121,0.658497225379113,-0.740609474166217,0.0,-0.0011222300308759,0.0,386770.161376305,6.1108E-12,1104.88857294535,3.13175084405968,6.23815364591534,-5.24288637326846
900.0,-5555835.84857263,-456944.127630582,3812481.60063043,-2175981.47880965,-5130964.30733931,3814372.2613156,4222.54755092596,-4845.35878769929,-4214.33307913671,2.8157006342374,6.63942894270762,-4.93576496458226,6759050.11392646,1.08894848494105,7.753632E-10,-0.195937543185658,3.9071971E-9,-2.196173409611,0.699108032028696,-0.67158483010693,0.0,-0.0011222300308759,0.0,382299.328823456,6.7632E-12,1112.71164744163,2.8157025562171,6.63942660207619,-4.93576706931587
960.0,-5685765.76306474,-790383.043518435,3551122.91763702,-1917756.47059527,-5409507.3570329,3552823.09125918,4381.65030011252,-4435.69421064799,-4500.66061347479,2.48548289179826,7.01092899100767,-4.60459093762402,6759049.70390384,1.09332375419143,1.0942492E-9,-0.194957605243092,4.920734E-9,-2.14762643769659,0.737209873135493,-0.597837514579657,0.0,-0.0011222300308759,0.0,377846.054094045,7.4679E-12,1120.03026823479,2.48548509204589,7.01092662044013,-4.6045934212179
1020.0,-5792183.38277377,-1119116.2367397,3273202.43072018,-1650587.53448187,-5662820.57950295,3274704.18799294,4520.55149062613,-4004.68174168608,-4766.43108996262,2.14256746098946,7.35071173088327,-4.25077609403696,6759049.25098906,1.09769902344753,1.4941424E-9,-0.193906040123271,6.0914355E-9,-2.09359785573924,0.772416327370421,-0.519015100770587,0.0,-0.0011222300308759,0.0,373443.706528712,8.2231E-12,1126.81712506439,2.14256995854169,7.3507093691115,-4.2507789921646
1080.0,-5874505.24702664,-1441816.95338092,2979992.49634148,-1375708.70040731,-5889681.30135098,2981288.8224377,4638.5354269039,-3554.2795292688,-5010.33167580166,1.78850607315818,7.65696291644703,-3.87586190285714,6759048.75222661,1.10207429269791,1.9875335E-9,-0.192783716759235,7.4280822E-9,-2.03389693995749,0.804304094033324,-0.43486960893458,0.0,-0.0011222300308759,0.0,369125.42746729,9.0249E-12,1133.04771453201,1.78850888375555,7.65696061007411,-3.87586524850227
1140.0,-5932247.73115146,-1757186.57502085,2672841.35589427,-1094394.10154954,-6088987.5199199,2673926.18628808,4734.98176976167,-3086.55035463521,-5231.14574024188,1.42492443916857,7.92801113102265,-3.48151270721372,6759048.20492943,1.10644956193401,2.5875987E-9,-0.191591841464139,8.9367161E-9,-1.96849415270044,0.832421822232592,-0.345316993749331,0.0,-0.0011222300308759,0.0,364923.733576637,9.8677E-12,1138.69998985735,1.42492757399623,7.92800893441207,-3.4815165288973
1200.0,-5965030.32282981,-2063960.0802061,2353167.15021029,-807952.123867438,-6259763.91667905,2354035.40219203,4809.3697689449,-2603.65268862383,-5427.76005066675,1.05351525008409,8.16234016329117,-3.06950967419567,6759047.60680742,1.11082483119011,3.307965E-9,-0.190331954692224,1.06197561E-8,-1.89758795589182,0.856306076248994,-0.25050349481431,0.0,-0.0011222300308759,0.0,360870.122664669,1.07434E-11,1143.75424001376,1.05351871446033,8.16233813800426,-3.06951399402265
1260.0,-5972578.46470903,-2360911.39719666,2022451.51401934,-517719.314736041,-6401167.31202034,2023099.11367432,4861.28205333568,-2107.83102024256,-5599.1715747131,0.676030434944026,8.35860088186392,-2.64174371165959,6759046.95610642,1.11520010044049,4.1624327E-9,-0.189005926052902,1.24750411E-8,-1.82166713533876,0.875505392693571,-0.150867532462496,0.0,-0.0011222300308759,0.0,356994.688850129,1.16416E-11,1148.19302763992,0.676034227036227,8.35859909556866,-2.64174854327732
1320.0,-5954725.93557609,-2646858.61806738,1682232.77584087,-225054.078540472,-6512491.51876119,1682656.68030327,4890.40793494587,-1601.40549147051,-5744.49382637493,0.294272701103866,8.5156224616134,-2.20020735210453,6759046.25175183,1.11957536967945,5.1646023E-9,-0.187615947557469,1.44949233E-8,-1.74155113754674,0.889611721282009,-0.0471796437190514,0.0,-0.0011222300308759,0.0,353325.754060437,1.25495E-11,1152.00098453904,0.294276810768527,8.51562098641699,-2.20021269869556
1380.0,-5911416.74345356,-2920669.04730925,1334098.7924995,68669.8103279597,-6593171.55398395,1334297.00731451,4896.54618471798,-1086.76088164585,-5862.96269448436,-0.089913605210116,8.63242281296872,-1.74698561844997,6759045.49348888,1.12395063893269,6.3274382E-9,-0.186164525090444,1.66654435E-8,-1.65838836912129,0.898296021828842,0.0594595977067839,0.0,-0.0011222300308759,0.0,349889.522768571,1.34523E-11,1155.16493455131,-0.0899091973486478,8.63242172316609,-1.74699147091623
1440.0,-5842706.506524,-3181264.05656679,979679.451113971,362069.844186486,-6642787.17171093,979651.042565709,4879.60724078566,-566.334993719826,-5953.94169331593,-0.474652268090311,8.70821806588865,-1.2842459020913,6759044.68200816,1.12832590818593,7.6627939E-9,-0.184654468110514,1.89656849E-8,-1.57359783702492,0.90134214126671,0.167678304848855,0.0,-0.0011222300308759,0.0,346709.766639489,1.43332E-11,1157.67473947483,-0.474647591198332,8.70821743517517,-1.28425223761326
1500.0,-5748763.30129745,-3427623.71598375,620638.874958728,653761.533336062,-6661065.6823164,620383.977247481,4839.61481321984,-42.6065034692188,-6016.92657736339,-0.858045538491703,8.74243096354073,-0.814226899700526,6759043.81904584,1.13270117743631,9.1808435E-9,-0.18308887760022,2.13674125E-8,-1.48875448812949,0.89867165379596,0.27594829126598,0.0,-0.0011222300308759,0.0,343807.545332732,1.51739E-11,1159.52382971085,-0.858040631617343,8.74243086180709,-0.814233680844458
1560.0,-5629867.95955837,-3658791.17540562,258667.372978915,942365.23470778,-6647884.02849988,258187.190159052,4776.70685339176,481.917658715076,-6051.54926561498,-1.23818496376152,8.73469802698225,-0.339226671506909,6759042.90744811,1.13707644668384,1.08895656E-8,-0.181471132298093,2.3835012E-8,-1.40543846448675,0.890353388948961,0.382736163904844,0.0,-0.0011222300308759,0.0,341200.969098567,1.59558E-11,1160.70938702766,-1.23817987538062,8.73469851687111,-0.339233846031224
1620.0,-5486413.79967577,-3873876.76798736,-104526.824103989,1226513.01891994,-6603270.09206654,-105230.021484733,4691.13586089043,1004.71531578599,-6057.58102490118,-1.61316262444261,8.6848753613786,0.138410100092156,6759041.95119019,1.14145171592279,1.2794152E-8,-0.179804873261868,2.63258944E-8,-1.32508311261187,0.876595054569608,0.486655661784708,0.0,-0.0011222300308759,0.0,338905.008020909,1.66601E-11,1161.23228615216,-1.61315741142013,8.68487649483439,0.138402598621781
1680.0,-5318905.78171118,-4072061.80993964,-467225.995285954,1504855.53532214,-6527403.21064813,-468148.878874398,4583.2685063924,1523.26235665054,-6034.93486709246,-1.98108268223337,8.59304298648407,0.616305557156297,6759040.95534495,1.14582698517889,1.48965247E-8,-0.178093986826808,2.87912761E-8,-1.24885711271871,0.857719239760861,0.586585879597361,0.0,-0.0011222300308759,0.0,336931.351817284,1.72695E-11,1161.09687155675,-1.98107740821105,8.59304480156048,0.616297807894787
1740.0,-5127959.07900109,-4252602.07267216,-827711.480030267,1776068.83348526,-6420613.88880469,-828849.677679766,4453.58455493087,2035.04626173877,-5983.66712103503,-2.34007313381511,8.4595075891406,1.09206270897114,6759039.92599658,1.15020225442927,1.71948756E-8,-0.176342586038202,3.11774026E-8,-1.17760219101806,0.834129904159382,0.681733918249246,0.0,-0.0011222300308759,0.0,335288.323027817,1.77681E-11,1160.31064344672,-2.34006786709154,8.45951010733637,1.09205480149183
1800.0,-4914297.06488048,-4414830.90289481,-1184272.29778882,2038861.09885766,-6283382.693624,-1185620.41285957,4302.67508056638,2537.57974422071,-5903.97814706604,-2.68829765759273,8.28480361321487,1.56327994851993,6759038.87010101,1.15457752367966,1.96833244E-8,-0.174554990652192,3.34271814E-8,-1.11182802207591,0.806276688012864,0.771640360705789,0.0,-0.0011222300308759,0.0,333980.845245001,1.81432E-11,1158.88392587512,-2.68829246861583,8.2848068375843,1.56327197978976
1860.0,-4678748.71558709,-4558161.97122371,-1535213.78410882,2291979.25997482,-6116338.33091424,-1536765.41998772,4131.23997042564,3028.41440507535,-5796.21216965634,-3.02396743448432,8.06969262241878,2.02756590854613,6759037.79529905,1.15895279293004,2.23517029E-8,-0.172735705813372,3.54820598E-8,-1.05175040534472,0.774623067764722,0.856141494719548,0.0,-0.0011222300308759,0.0,333010.466789091,1.83854E-11,1156.82958450312,-3.02396239312056,8.06969653664743,2.0275579793606
1920.0,-4422245.43654388,-4682091.62986828,-1878866.18991942,2534215.42470453,-5920254.90429627,-1880613.97965761,3940.08472333511,3505.15429699422,-5660.85621207508,-3.34535281995054,7.81516089347768,2.48255451344339,6759036.70969142,1.16332806216899,2.51854793E-8,-0.170889399531406,3.72841461E-8,-0.997352736796528,0.739621767094906,0.935308267672067,0.0,-0.0011222300308759,0.0,332375.438961785,1.84894E-11,1154.16285040641,-3.34534799272371,7.8151654620323,2.48254672456238
1980.0,-4145817.3235011,-4786200.86325074,-2213593.18989001,2764413.10354581,-5696048.36586628,-2215528.83082293,3730.11655571028,3965.46929025083,-5498.53812582927,-3.65079474263874,7.52241522069391,2.92592007587224,6759035.62158981,1.16770333142223,2.81658445E-8,-0.169020879091447,3.87783178E-8,-0.948452948061588,0.701698275210321,1.00937980788817,0.0,-0.0011222300308759,0.0,332070.846756622,1.8454E-11,1150.90128998274,-3.6507901901384,7.52242039005877,2.92591252413121
2040.0,-3850588.87366799,-4870156.81907499,-2537800.24559143,2981473.17898357,-5444772.1735301,-2539914.5387741,3502.33983483753,4407.10813326574,-5310.02371685385,-3.93871570544321,7.1928769376163,3.35539228222638,6759034.5392584,1.17207860067547,3.1269934E-8,-0.167135066544755,3.99143103E-8,-0.904764166288559,0.661241595862606,1.0787032667268,0.0,-0.0011222300308759,0.0,332088.788707808,1.82823E-11,1147.06494120679,-3.93871148008789,7.19288263852747,3.35538505690068
2100.0,-3537774.16849285,-4933713.90845523,-2849942.76959178,3184359.5813319,-5167612.17652249,-2852225.66385,3257.85086706723,4827.91110169459,-5096.21297985559,-4.20763026750277,6.82817418672842,3.76877090903379,6759033.47066287,1.17645386991157,3.44712428E-8,-0.165236973435776,4.06484707E-8,-0.865943568733983,0.618600566254632,1.14368551589143,0.0,-0.0011222300308759,0.0,332418.601462584,1.79816E-11,1142.67661554493,-4.20762641180767,6.82818033722832,3.76876408870611
2160.0,-3208671.55263759,-4976714.46855503,-3148534.03758501,3372104.63336556,-4865880.75692321,-3150974.677953,2997.83207558675,5225.82213247823,-4858.13546167879,-4.45615489066651,6.43013249325884,4.16394011319385,6759032.42324086,1.1808291391591,3.77401267E-8,-0.163331674930521,4.09452615E-8,-0.831628391105232,0.574083990424427,1.2047577505117,0.0,-0.0011222300308759,0.0,333047.123695857,1.75625E-11,1137.76234492025,-4.45615143611502,6.43013900232594,4.16393376332106
2220.0,-2864657.83764614,-4999088.98436751,-3432152.79718279,3543814.02832532,-4541010.26108021,-3434739.5774688,2723.54560922396,5598.90034340269,-4596.94478389058,-4.68301704118414,6.00076372381303,4.53888214265463,6759031.40370704,1.18520440840948,4.10443986E-8,-0.161424283517662,4.07782834E-8,-0.801460521907291,0.527963099871423,1.26235157666594,0.0,-0.0011222300308759,0.0,333958.993181709,1.70386E-11,1132.35193555355,-4.68301400774418,6.00077049528419,4.53887631395851
2280.0,-2507182.06479633,-5000855.86821877,-3699450.52408197,3698671.40856104,-4194545.76065743,-3702171.14327643,2436.32643001724,5945.33084426922,-4313.91236380404,-4.88706344669356,5.5422535339706,4.89169032068564,6759030.41790114,1.18957967766558,4.43500254E-8,-0.159519922458632,4.0130868E-8,-0.775102065187421,0.480475238081555,1.31688421346132,0.0,-0.0011222300308759,0.0,335136.970212477,1.64253E-11,1126.47957524002,-4.88706084296178,5.54226047046864,4.89168504841262
2340.0,-2137758.86295829,-4982120.80072071,-3949158.2789306,3835942.51511391,-3828137.1884582,-3951999.80114646,2137.57493295585,6263.43475268517,-4010.42038170387,-5.06726741979195,5.05694743073474,5.22058116618315,6759029.47068493,1.1939549469131,4.76218288E-8,-0.15762369916583,3.89961983E-8,-0.752244307992972,0.43182802798837,1.36875038773097,0.0,-0.0011222300308759,0.0,336562.280126529,1.57398E-11,1120.18442587061,-5.06726524369807,5.05695443733895,5.22057647020199
2400.0,-1757961.44224824,-4943075.63909572,-4180093.12131967,3954978.88189597,-3443530.89915565,-4183042.03893222,1828.74915623907,6551.67833563833,-3687.9540499492,-5.22273517235152,4.5473355952651,5.52390552426497,6759028.56588808,1.19833021615206,5.08242017E-8,-0.155740678688729,3.73769848E-8,-0.732612172484441,0.38220356820847,1.41831885794459,0.0,-0.0011222300308759,0.0,338214.967474507,1.49992E-11,1113.51111585737,-5.22273341231715,4.54734258271064,5.52390140990725
2460.0,-1369414.26601527,-4883996.90282702,-4391164.04088337,4055221.05175354,-3042560.70951955,-4394206.34051703,1511.35664453124,6808.68120726432,-3348.0932467619,-5.35271105898676,4.0160366282221,5.8001585955103,6759027.70630075,1.2027054854053,5.39217988E-8,-0.153875857486686,3.52848268E-8,-0.715965760350194,0.331762408032719,1.46593197870658,0.0,-0.0011222300308759,0.0,340074.254317872,1.42209E-11,1106.51002440248,-5.35270969541036,4.01604351547686,5.80015505501195
2520.0,-973785.446249295,-4805243.84952564,-4581377.36944882,4136201.29555235,-2627138.47660352,-4584498.6004414,1186.94603093134,7033.22352338844,-2992.50358373372,-5.45658170337302,3.46578039392466,6.04798876825254,6759026.89370819,1.20708075465283,5.68801398E-8,-0.152034137663706,3.27392476E-8,-0.702100154233332,0.280647185724941,1.51190716295666,0.0,-0.0011222300308759,0.0,342118.895304244,1.34208E-11,1099.23722079188,-5.45658071030518,3.46578711005918,6.04798578262835
2580.0,-572778.910638073,-4707256.15664454,-4749841.64247564,4197545.81943836,-2199244.27559747,-4753026.9874368,857.098405676165,7224.25212432983,-2622.9269812993,-5.53387897710745,2.89939015008543,6.2662051759674,6759026.12895966,1.21145602389464,5.96661959E-8,-0.150220301835492,2.97665892E-8,-0.69084428134148,0.228985897808989,1.55653946163294,0.0,-0.0011222300308759,0.0,344327.522483731,1.2614E-11,1091.75389338849,-5.53387832398658,2.89939663541516,6.26620271714367
2640.0,-168126.388904708,-4590551.22824287,-4895771.88260792,4238976.44955487,-1760916.24162008,-4899006.22967764,523.418540926375,7380.88558888997,-2241.17183054041,-5.58428181712069,2.31976415693154,6.45378392059884,6759025.41206384,1.21583129314788,6.22488598E-8,-0.148438988791767,2.63987497E-8,-0.682059375567982,0.176894815150407,1.60010475273611,0.0,-0.0011222300308759,0.0,346678.973302545,1.18135E-11,1084.12509336074,-5.58428147045508,2.31977036346479,6.45378195363779
2700.0,238420.731992143,-4455721.14805388,-5018493.28295385,4260311.78767239,-1314240.14159918,-5021761.29935904,187.526041334357,7502.41817419839,-1849.10282265265,-5.60761688392403,1.72985696294732,6.60987292219158,6759024.74230319,1.22020656239826,6.45993118E-8,-0.146694670108245,2.26719617E-8,-0.675637384064731,0.124481087420281,1.64286322554053,0.0,-0.0011222300308759,0.0,349152.595809447,1.10304E-11,1076.41766112164,-5.60761680882822,1.72986285421493,6.60987140746193
2760.0,645099.633344546,-4303429.30259429,-5117444.27264469,4261467.83535603,-861338.743552328,-5120730.47914788,-148.953510523013,7588.32262793374,-1448.63052919017,-5.60385807884524,1.13266056428188,6.73379537499928,6759024.11835912,1.22458183164864,6.66913423E-8,-0.144991627852161,1.86255766E-8,-0.671499534654954,0.0718450898757015,1.6850629784742,0.0,-0.0011222300308759,0.0,351728.525814652,1.02735E-11,1068.6973394026,-5.60385824036361,1.13266611465508,6.73379427017462
2820.0,1050144.32203908,-4134406.70024469,-5192178.95223247,4242458.08839872,-404361.051035539,-5195467.79806503,-484.397346310892,7638.251871167,-1041.70081680326,-5.57312495352287,0.53118563114419,6.82505180986026,6759023.53844156,1.22895710090188,6.85015378E-8,-0.143333933513514,1.43009913E-8,-0.669595195020969,0.0190825712130007,1.72694363719356,0.0,-0.0011222300308759,0.0,354387.931525023,9.5497E-12,1061.02532440108,-5.57312531769956,0.531190824767462,6.8250510716578
2880.0,1451793.87053634,-3949448.01375086,-5242368.89149423,4203393.10723134,54528.5297107168,-5245644.8293686,-817.194176590372,7652.03956147726,-630.28417962113,-5.5156800589816,-0.0715570125473409,6.88332078165016,6759023.00041514,1.23333237013798,7.00094464E-8,-0.141725428281334,9.7406731E-9,-0.669901099476331,-0.0337133377077282,1.76873995557692,0.0,-0.0011222300308759,0.0,357113.222018608,8.8638E-12,1053.45481583111,-5.51568059366129,-0.071552183070559,6.88332036725578
2940.0,1848300.59132524,-3749407.37526006,-5267804.28715235,4144479.57283569,513161.023297881,-5271051.84795255,-1145.75266607573,7629.69955687766,-216.365070757914,-5.43192529432037,-0.672574480117206,6.90845821862575,6759022.50191809,1.23770763938837,7.11976175E-8,-0.140169704770375,4.9873845E-9,-0.672420983678877,-0.0864501949295728,1.81068539611183,0.0,-0.0011222300308759,0.0,359888.216796856,8.2185E-12,1046.02835259896,-5.43192596968891,-0.67257001514826,6.90845808678455
3000.0,2237938.10077155,-3535193.95354074,-5268394.48282891,4066018.84128297,969373.654329637,-5271598.34958636,-1468.50966155568,7571.42431128438,198.068688296119,-5.32239732619248,-1.26890932038841,6.90049548712032,6759022.04046565,1.24208290863875,7.2051651E-8,-0.138670090289168,8.35585E-11,-0.677185643697231,-0.139034339584327,1.85301570355693,0.0,-0.0011222300308759,0.0,362698.274538137,7.6153E-12,1038.77667578067,-5.32239811508676,-1.26890521466219,6.90049559890376
3060.0,2619009.22688211,-3307767.3444246,-5244167.858171,3968405.01336385,1421020.48919695,-5247312.93894316,-1783.93811910093,7477.58224161559,611.036345301842,-5.18776215965223,-1.85765627511798,6.85963624001938,6759021.61353705,1.2464581778777,7.25601319E-8,-0.137229631725396,-4.9291787E-9,-0.68425341688471,-0.191368946745571,1.89597249013494,0.0,-0.0011222300308759,0.0,365530.380061329,7.0541E-12,1031.71946275363,-5.18776303768329,-1.85765251904002,6.85963655930667
3120.0,2989853.71985786,-3068132.80541786,-5195271.09845423,3852122.53882873,1865982.89024037,-5198342.5977364,-2090.55468225054,7348.71411499036,1020.57443132829,-5.02880894847816,-2.4359781645581,6.78625213050282,6759021.21864202,1.25083344713094,7.27146012E-8,-0.135851082109361,-1.00103646E-8,-0.693711062268095,-0.243351986118898,1.93980684271281,0.0,-0.0011222300308759,0.0,368373.189368581,6.5339E-12,1024.86767471719,-5.02880989401681,-2.43597474533089,6.78625262423098
3180.0,3348855.72651499,-2817336.36514808,-5121967.86005292,3717743.37749248,2302179.72512543,-5124951.34836862,-2386.92686833355,7185.52851181181,1424.74668587912,-4.84644313867027,-3.00112078859258,6.68087748348605,6759020.85336876,1.25520871638133,7.25094491E-8,-0.134536888901211,-1.51208942E-8,-0.705674991732336,-0.29487402504251,1.98478294093244,0.0,-0.0011222300308759,0.0,371217.033466592,6.0532E-12,1018.22677105872,-4.84644413274153,-3.00111769115056,6.68087812172753
3240.0,3694450.99141995,-2556459.83905659,-5024636.85091144,3565923.74185806,2727577.27781481,-5027518.33224422,-2671.67982582297,6988.89642669168,1821.65363354711,-4.64167904245466,-3.5504267503628,6.54420302590936,6759020.51541472,1.25958398563171,7.1941828E-8,-0.133289184032628,-2.02232224E-8,-0.720292763285782,-0.34581581606222,2.03118163602426,0.0,-0.0011222300308759,0.0,374053.882448016,5.6099E-12,1011.79991242825,-4.64168006857802,-3.55042395812487,6.54420378183102
3300.0,4025133.75230966,-2286615.78091717,-4903769.34853715,3397400.44796309,3140198.81139442,-4906535.3252852,-2943.5026315199,6759.84507416124,2209.4417589283,-4.41563194183416,-4.0813481292431,6.37706878344625,6759020.2026047,1.26395925488209,7.10115269E-8,-0.132109775719338,-2.5281459E-8,-0.73774468535195,-0.396045611154824,2.07930387610962,0.0,-0.0011222300308759,0.0,376877.272044303,5.2019E-12,1005.59049434017,-4.41563298583573,-4.08134562470801,6.37706963319177
3360.0,4339463.29946891,-2008942.39968041,-4759966.18103227,3212986.90284633,3538133.73714633,-4762603.71618793,-3201.15410231292,6499.55096990179,2586.31223311703,-4.16950982059059,-4.59145794999731,6.18045625533556,6759019.91289879,1.26833452412105,6.97208509E-8,-0.131000142046923,-3.02614314E-8,-0.758245284877159,-0.445416151127975,2.12947376484071,0.0,-0.0011222300308759,0.0,379682.195526001,4.8269E-12,999.603725405883,-4.16951087040379,-4.59145571521162,6.18045717786132
3420.0,4636070.17236337,-1724598.47003409,-4593934.19928008,3013568.75837035,3919546.34858994,-4596430.97555764,-3443.46810214448,6209.33236082844,2950.52915187346,-3.90460482178723,-5.07846041451461,5.95547998094348,6759019.64439464,1.27270979337429,6.80745016E-8,-0.129961426319445,-3.51307516E-8,-0.78204424740676,-0.493761294091219,2.18204089227361,0.0,-0.0011222300308759,0.0,382464.964423301,4.4825E-12,993.84728398318,-3.90460586725178,-5.07845843143979,5.95548095782805
3480.0,4913661.97061779,-1434758.26268552,-4406482.27058895,2800099.26212476,4282684.08366133,-4408826.64624692,-3669.35833054411,5890.64107880795,3300.42725237537,-3.62228452440255,-5.54019988130427,5.70337861145083,6759019.39532516,1.27708506262181,6.60794183E-8,-0.128994434148417,-3.98588253E-8,-0.80942622685008,-0.540892277825619,2.23738136302071,0.0,-0.0011222300308759,0.0,385223.042058569,4.1667E-12,988.331262460321,-3.62228555706754,-5.54019813210397,5.70337962669094
3540.0,5171028.75880664,-1140606.52084098,-4198516.8258796,2573594.33678777,4625885.28270388,-4200697.88700663,-3877.82258456829,5545.05389314529,3634.41908221362,-3.32398312792569,-5.97466859558796,5.42550559788504,6759019.16405388,1.28146033186077,6.3744666E-8,-0.128099632248524,-4.44169078E-8,-0.840708629415237,-0.586593667267027,2.29589665020645,0.0,-0.0011222300308759,0.0,387954.854321503,3.8772E-12,983.067652515,-3.32398414086019,-5.97466706285114,5.42550663768669
3600.0,5407048.04886342,-843333.505674422,-3971036.99388291,2335127.4196566,4947586.41443613,-3973044.60294023,-4067.94649114272,5174.26343630759,3951.0016008543,-3.01119262776226,-6.38001318908485,5.12331960276929,6759018.94906913,1.28583560110829,6.10812802E-8,-0.127277148896826,-4.87780981E-8,-0.876236091451201,-0.630619133920394,2.35800901598008,0.0,-0.0011222300308759,0.0,390659.582469897,3.6121E-12,978.069591609473,-3.01119361537591,-6.38001185599602,5.12332065533993
3660.0,5620689.3465052,-544130.132604135,-3725129.35681184,2085824.09409236,5246328.74648722,-3726954.197249,-4238.90671156932,4780.06877576066,4248.76220006842,-2.68545405734919,-6.75453998321295,4.79837473715739,6759018.748977,1.29021087036154,5.81021407E-8,-0.126526776003315,-5.29173529E-8,-0.916369911527124,-0.672687366096196,2.42415177721563,0.0,-0.0011222300308759,0.0,393336.943000864,3.3694E-12,973.350530568796,-2.68545501522428,-6.75453883367856,4.79837579250357
3720.0,5811018.25114409,-244183.218833774,-3461962.36260195,1826856.54438747,5520764.4413948,-3463595.9793864,-4389.97362428662,4364.36570237651,4526.38413573757,-2.34834886517362,-7.09671914225897,4.45231071799281,6759018.56249437,1.29458613960906,5.48218234E-8,-0.12584797273337,-5.68115022E-8,-0.961470237110089,-0.712478635094879,2.49475223266762,0.0,-0.0011222300308759,0.0,395986.959806544,3.1474E-12,968.923422491054,-2.34834978990976,-7.09671816099692,4.4523117677264
3780.0,5977200.10187142,55329.1398910688,-3182780.42910421,1559437.86508033,5769662.06309632,-3184215.26502879,-4520.5134958183,3929.13680273886,4782.65136890804,-2.00149048665133,-7.40518773398609,4.08684303282191,6759018.38844156,1.29896140886516,5.1256475E-8,-0.125239870616346,-6.04392372E-8,-1.01186852629559,-0.749632852328495,2.5702047858661,0.0,-0.0011222300308759,0.0,398609.733900214,2.9444E-12,964.799987174026,-2.00149137572328,-7.4051869065845,4.08684406997725
3840.0,6118503.16470645,353242.047967674,-2888897.77559053,1284816.25504304,5991911.48287594,-2890127.20324621,-4629.9901531868,3476.44137894804,5016.45281892807,-1.64651616225029,-7.67875176409133,3.70375319014645,6759018.22573488,1.30333667810126,4.74236462E-8,-0.124701280069443,-6.37811363E-8,-1.0678280504324,-0.783750328974919,2.65083204163611,0.0,-0.0011222300308759,0.0,401205.215974291,2.759E-12,960.990073840137,-1.64651701387914,-7.67875107704207,3.70375420900974
3900.0,6234301.3587631,648408.128281618,-2581692.01662726,1004269.12578406,6186528.17742063,-2582710.36595115,-4717.96617389037,3008.40527532299,5226.78603592343,-1.28507904454439,-7.91638725788185,3.30487912436445,6759018.0733796,1.30771194735164,4.33422E-8,-0.124230698262141,-6.68196516E-8,-1.12949151109671,-0.814396819756921,2.73683296022074,0.0,-0.0011222300308759,0.0,403772.986928507,2.5896E-12,957.501125920601,-1.28507985758175,-7.91638669859348,3.3048801203165
3960.0,6324076.5212953,939701.670296115,-2262597.55281933,719097.1523704,6352656.91506814,-2263400.13414987,-4784.10361184361,2527.21066683628,5412.76030371281,-0.918840628229127,-8.11724046754345,2.89210581455218,6759017.9304629,1.31208721660202,3.90321471E-8,-0.123826318243674,-6.95391225E-8,-1.19681784475794,-0.841114629553798,2.82822015159297,0.0,-0.0011222300308759,0.0,406312.051288158,2.435E-12,954.337741314133,-0.91884140205388,-8.1172400243378,2.89210678392443
4020.0,6387420.21365729,1226022.59523751,-1933098.79216122,430618.294213316,6489574.82947606,-1933681.91475366,-4828.16427946797,2035.0858593128,5573.5991875255,-0.549463528690068,-8.28062728649603,2.46735616650122,6759017.79614722,1.31646248583812,3.45145399E-8,-0.123486039254117,-7.19257544E-8,-1.26951533539914,-0.863441309578601,2.92475343839384,0.0,-0.0011222300308759,0.0,408820.648120516,2.2939E-12,951.501316665626,-0.549464263116848,-8.28062694859217,2.46735710644505
4080.0,6424035.0720911,1506300.23072219,-1594723.23478726,140161.811709748,6596693.8827955,-1595084.22076305,-4850.00960741025,1534.2951464843,5708.6425435537,-0.178604626627771,-8.40603195367262,2.03258219764395,6759017.66966393,1.3208377550885,2.9811316E-8,-0.123207478138919,-7.39676358E-8,-1.34698461078544,-0.880936440031098,3.0258832704839,0.0,-0.0011222300308759,0.0,411296.083659034,2.1653E-12,948.989762364868,-0.178605321826269,-8.40603171116113,2.03258310601264
4140.0,6433735.70852811,1779496.88870882,-1249034.45282719,-150937.696584351,6673562.72298905,-1249171.64654985,-4849.60010418557,1027.12876402304,5817.34800946267,0.192091411369341,-8.49310513024887,1.58975655495565,6759017.55030723,1.32521302433889,2.49451975E-8,-0.122987981786551,-7.5654732E-8,-1.42829053635188,-0.893215002224432,3.13072301165977,0.0,-0.0011222300308759,0.0,413734.5893663,2.0482E-12,946.797274505697,0.192090754945248,-8.49310497405904,1.58975743019829
4200.0,6416449.16850026,2044611.23966479,-897624.995877739,-441346.212923608,6719867.94219282,-897537.768766822,-4826.99443842124,515.892975773589,5899.29199650981,0.560998233449254,-8.54166142953635,1.1408643867694,6759017.43742863,1.32958829359213,1.99395647E-8,-0.122824640509749,-7.69788768E-8,-1.5121822731229,-0.899983160543951,-3.04511593621487,0.0,-0.0011222300308759,0.0,416131.208618713,1.9417E-12,944.914149869946,0.560997615123561,-8.54166135139826,1.14086522783575
4260.0,6372214.95382656,2300681.48051203,-542109.251330581,-729736.153522425,6735434.74499138,-541798.002142251,-4782.34816635389,2.90032264741464,5954.17020491825,0.926513527845291,-8.55167647759779,0.687895580812931,6759017.33043187,1.33396356284251,1.48183357E-8,-0.122714302292106,-7.79337648E-8,-1.59717197381131,-0.90106987197157,-2.93670384884979,0.0,-0.0011222300308759,0.0,418479.714589116,1.8449E-12,943.32662933365,0.926512946774093,-8.55167647000093,0.687896387068255
4320.0,6301184.61907247,2546788.29302414,-184116.287482047,-1014792.13526977,6720227.03716561,-183582.438101538,-4715.9121268469,-509.539939884427,5981.79768464629,1.28706438214654,-8.52328357781388,0.232837372785557,6759017.22876807,1.33833883208147,9.6058404E-9,-0.122653587823596,-7.85149448E-8,-1.68166505609305,-0.896447043017631,-2.82877389835283,0.0,-0.0011222300308759,0.0,420772.561252608,1.7571E-12,942.016835865923,1.28706383736515,-8.52328363396334,0.232838143934799
4380.0,6203620.9514354,2782057.59130792,174717.293980964,-1295216.63671194,6674346.94690061,175471.307174318,-4628.03052549194,-1019.13119400328,5982.10846373013,1.64111229062155,-8.45677004729865,-0.222332677503047,6759017.13193021,1.34271410133185,4.3267308E-9,-0.12263890625094,-7.87197965E-8,-1.76411567120849,-0.886232965669857,-2.72282510839837,0.0,-0.0011222300308759,0.0,423000.868759423,1.6776E-12,940.970902858677,1.64111178106486,-8.45677016107462,-0.222331941453158
4440.0,6079896.74389993,3005663.05882148,532754.470844592,-1569735.53527143,6598033.79162371,533725.209964545,-4519.13872838265,-1523.59858365511,5955.15476600153,1.9871578278128,-8.35257328690227,-0.675653351816434,6759017.03944265,1.34708937058509,-9.941455E-10,-0.122666471571274,-7.85475521E-8,-1.84317052155382,-0.870678089088003,-2.62016349474791,0.0,-0.0011222300308759,0.0,425154.443723106,1.606E-12,940.185818024156,1.98715735231989,-8.3525734528352,-0.675652650569636
4500.0,5930493.17273389,3216828.47426573,888364.854593903,-1837103.50387054,6491662.50460477,889547.897497807,-4389.76078495354,-2020.69789626247,5901.10583924846,2.32374500995781,-8.21127663975723,-1.12518609599687,6759016.95085546,1.35146463983547,-6.3318552E-9,-0.12273231960032,-7.79992768E-8,-1.91776909584021,-0.850136948458757,-2.52180147441151,0.0,-0.0011222300308759,0.0,427221.834278634,1.542E-12,939.655683669757,2.32374456731315,-8.21127685300466,-1.12518542903013
4560.0,5755997.78993454,3414829.82850291,1239931.66324676,-2096109.25125124,6355741.53621294,1241321.62494773,-4240.50669789698,-2508.22419081457,5820.24641383165,2.64946536848937,-8.03360508597814,-1.56902101925155,6759016.86574185,1.35583990908586,-1.16614757E-8,-0.122832325449174,-7.70778211E-8,-1.98718556628101,-0.825033102458864,-2.42841560096889,0.0,-0.0011222300308759,0.0,429190.419087156,1.4851E-12,939.370284205388,2.64946495746322,-8.03360534229681,-1.56902038587781
4620.0,5557102.14163498,3598997.2344812,1585858.59120322,-2345580.59131896,6190910.24531764,1587449.14933026,-4072.06945666352,-2984.02016374238,5712.97481045734,2.96296176153802,-7.82042081346479,-2.00528259389049,6759016.78369683,1.36021517832195,-1.69582063E-8,-0.122962221446674,-7.57877825E-8,-2.05101696053448,-0.795824203051893,-2.34035800786376,0.0,-0.0011222300308759,0.0,431046.528819677,1.4351E-12,939.315112606233,2.96296138092215,-7.82042110917911,-2.00528199331593
4680.0,5334599.02403087,3768716.6319865,1924576.55559468,-2584389.32778082,5997935.79676863,1926360.47977568,-3885.22184945814,-3445.9842461471,5579.80071429049,3.26293195043621,-7.57271869690939,-2.43213508222094,6759016.70433485,1.36459044757234,-2.21974675E-8,-0.123117615447185,-7.41354706E-8,-2.10913471816501,-0.76297239657394,-2.2577044440694,0.0,-0.0011222300308759,0.0,432775.598050151,1.3915E-12,939.470735126242,3.26293159907666,-7.57271902887588,-2.43213451359895
4740.0,5089379.38719468,3923431.29142619,2254550.2995978,-2811455.94119453,5777709.58122406,2256519.48462992,-3680.81306701278,-3892.07842763961,5421.34263092303,3.54813196855368,-7.29162170918229,-2.84778771942196,6759016.62728884,1.36896571681986,-2.73549739E-8,-0.123294009466314,-7.21288581E-8,-2.16161960390336,-0.726922527686513,-2.18031892349548,0.0,-0.0011222300308759,0.0,434362.344944973,1.3541E-12,939.809192191687,3.54813164538513,-7.29162207474466,-2.84778718191178
4800.0,4822428.89896831,4062643.1181363,2574284.83405619,-3025754.06629228,5531243.17384014,2576430.33671769,-3459.76510978224,-4320.33580326091,5238.32503793966,3.81737930947014,-6.97837628136566,-3.25049968252681,6759016.55221027,1.37334098605596,-3.24068663E-8,-0.123486818589475,-6.97774826E-8,-2.20869593669395,-0.688088294298325,-2.10791902214426,0.0,-0.0011222300308759,0.0,435790.975654952,1.3227E-12,940.302738129583,3.81737901353086,-6.97837667832243,-3.25049917532202
4860.0,4534824.17953129,4185913.76152046,2882331.69952149,-3226314.74809405,5259663.84852425,2884643.77886982,-3223.06900861299,-4728.86784069232,5031.57524399235,4.06955596054543,-6.63434761986788,-3.63858487616174,6759016.47874771,1.37771625531206,-3.73297655E-8,-0.123691390100552,-6.70924861E-8,-2.25067462690249,-0.646845110069897,-2.04013232282362,0.0,-0.0011222300308759,0.0,437045.409908149,1.2975E-12,941.010082109911,4.06955569087249,-6.63434804663217,-3.63858439830601
4920.0,4227728.71723937,4292865.53284089,3177295.03148596,-3412230.4658826,4964209.66460893,3179763.19247756,-2971.78086743307,-5115.87136526586,4802.01996549238,4.30361130588601,-6.26101498227886,-4.0104165644977,6759016.4065253,1.38209152455673,-4.21008803E-8,-0.123903022779712,-6.40865906E-8,-2.28790877446868,-0.603527920650212,-1.97654024581901,0.0,-0.0011222300308759,0.0,438109.523968119,1.2792E-12,941.991251350118,4.30361106157361,-6.2610154379053,-4.01041611495941
4980.0,3902388.47827943,4383182.13335094,3457837.41213099,-3582658.91458252,4646224.14295598,3460450.45238955,-2707.01773510847,-5479.6352601468,4550.68162925245,4.51856492136489,-5.8599669056277,-4.36443187906525,6759016.3351457,1.38646679380997,-4.66980926E-8,-0.124116986320824,-6.07739932E-8,-2.32076181037777,-0.558432284164131,-1.91670927313945,0.0,-0.0011222300308759,0.0,438967.406865626,1.2679E-12,943.295166819844,4.51856470163626,-5.85996738980597,-4.364431456839
5040.0,3560127.21958061,4456609.19798501,3722685.49236414,-3736826.53347534,4307150.54867236,3725431.55191554,-2429.95331234334,-5818.54687848693,4278.67440770575,4.71350928112764,-5.43289637456977,-4.6991362292965,6759016.26418921,1.39084206306035,-5.11000401E-8,-0.124328540819924,-5.71702497E-8,-2.34958628449517,-0.511817356427778,-1.86021145185691,0.0,-0.0011222300308759,0.0,439603.625630964,1.2642E-12,944.966356896151,4.71350908539278,-5.43289688762744,-4.69913583348267
5100.0,3202341.51752053,4512954.65624753,3970635.36826756,-3874031.77250251,3948525.79783816,3973501.98205146,-2141.81349842737,-6131.09816341734,3987.19999179413,4.88761239196545,-4.98159591093951,-5.01310764018164,6759016.19321023,1.3952173322993,-5.52862162E-8,-0.124532956287117,-5.32921721E-8,-2.37471082650679,-0.463909808362295,-1.80663663667852,0.0,-0.0011222300308759,0.0,440003.495146104,1.2686E-12,947.047617048739,4.88761221987525,-4.98159645385152,-5.01310727005935
5160.0,2830495.52334574,4552088.91381961,4200557.69634393,-3993648.08666847,3571974.0059316,4203531.84930388,-1843.87178175347,-6415.89147046597,3677.54310524384,5.04012036842933,-4.50795256058834,-5.30500103825731,6759016.12173172,1.39959260154969,-5.92370046E-8,-0.124725532134262,-4.9157716E-8,-2.39643293827761,-0.414908042555697,-1.7555987983571,0.0,-0.0011222300308759,0.0,440153.348196313,1.2817E-12,949.581681523422,5.04012021993062,-4.50795313499466,-5.30500069335668
5220.0,2446115.45659026,4573944.85773476,4411402.53213308,-4095126.649271,3179199.69600682,4414470.71667927,-1537.44447737224,-6671.64508539334,3351.06676278739,5.1703599576367,-4.01394274864761,-5.5735525032872,6759016.04923769,1.40396787080293,-6.29337794E-8,-0.12490161659078,-4.47858759E-8,-2.41501569647568,-0.364986333714939,-1.70673830173939,0.0,-0.0011222300308759,0.0,440040.801324449,1.3042E-12,952.612373865956,5.17035983303236,-4.01394335687972,-5.57355218346644
5280.0,2050783.84934587,4578517.68689391,4602203.87689714,-4177998.77486783,2771980.68515567,4605352.15252776,-1223.8858144383,-6897.19842858314,3009.20727397811,5.27774101849025,-3.50162697032379,-5.81758349859509,6759015.97516365,1.40834314003902,-6.63589661E-8,-0.125056625999087,-4.01965391E-8,-2.43068691717078,-0.314298696084716,-1.65972158179622,0.0,-0.0011222300308759,0.0,439655.01217164,1.3371E-12,956.185197734105,5.27774091850764,-3.50162761544177,-5.81758320412669
5340.0,1646133.55378343,4565864.57029515,4772083.91715016,-4241878.04305426,2352160.66837732,4775297.97201016,-904.582876253811,-7091.51693505095,2653.46899361068,5.3617589555354,-2.97314428112476,-6.03600508810671,6759015.89888501,1.41271840928941,-6.94960918E-8,-0.1251860639402,-3.54103621E-8,-2.4436397514285,-0.262982395796315,-1.61423922575474,0.0,-0.0011222300308759,0.0,438986.92411916,1.3816E-12,960.347076537351,5.3617588814077,-2.97314496696122,-6.0360048197798
5400.0,1233841.52518,4536104.13516082,4920256.94185787,-4286462.1142916,1921641.51970245,4923522.15600586,-580.950395741129,-7253.6965968924,2285.41881943602,5.42199710299139,-2.43070654807607,-6.22782214281841,6759015.81970362,1.41709367853979,-7.2329835E-8,-0.125285540138461,-3.04486483E-8,-2.45403400877071,-0.211161095556299,-1.57000313840719,0.0,-0.0011222300308759,0.0,438029.494222517,1.439E-12,965.144772015236,5.42199705655508,-2.43070727928334,-6.22782190206276
5460.0,815622.395854024,4489415.7857723,5046032.92217232,-4311534.22920619,1482375.33127964,5049334.43231918,-254.425409588547,-7382.96815264052,1906.68043786538,5.45812904965614,-1.87659242209813,-6.39213753368987,6759015.73683232,1.42146894779017,-7.48460997E-8,-0.125350789092501,-2.53331369E-8,-2.46199774545597,-0.15894765832032,-1.52674322420157,0.0,-0.0011222300308759,0.0,436777.9006432,1.511E-12,970.621439630377,5.45812903346767,-1.87659320418835,-6.39213732272827
5520.0,393221.85377907,4426038.85483717,5148820.73861734,-4316964.38299393,1036356.21213547,5152143.50409263,73.538224981476,-7478.70090559399,1518.92831871856,5.46992089047536,-1.31314099131213,-6.52815630193196,6759015.64937871,1.4258442170377,-7.70320149E-8,-0.125377688377393,-2.00858575E-8,-2.46762882203645,-0.106446656936347,-1.48420384882451,0.0,-0.0011222300308759,0.0,435229.726034004,1.5997E-12,976.810936650787,5.46992090794797,-1.3131418306746,-6.52815612396591
5580.0,-31590.1578190101,4346271.58823266,5228131.04072346,-4302710.16683055,585611.86946832,5231459.91041855,401.475445872337,-7540.40615077862,1123.88146079914,5.45723338565373,-0.742745075687399,-6.63518979140417,6759015.55632914,1.43021948627666,-7.88759939E-8,-0.125362276560445,-1.47289147E-8,-2.47099624731994,-0.05375664596693,-1.44214022725442,0.0,-0.0011222300308759,0.0,433385.113614697,1.7071E-12,983.730040917242,5.45723344121166,-0.742745979561812,-6.63518965083445
5640.0,-457026.402787264,4250469.96407765,5283578.72424887,-4268817.26852147,132194.996626526,5286898.50427886,727.915727958995,-7567.74018787556,723.296891188636,5.42002400334162,-0.167844125173948,-6.71265972143283,6759015.45653395,1.4345947555299,-8.03677414E-8,-0.125300770670384,-9.2842886E-9,-2.4721411995293,-9.722550902671E-4,-1.40031480944433,0.0,-0.0011222300308759,0.0,431246.892984589,1.8358E-12,991.369710484477,5.42002410258469,-0.167845101555534,-6.71265962411064
5700.0,-881289.458528893,4139046.34689653,5314885.01133997,-4215419.62504678,-321825.506651908,5318180.53315951,1051.38894329703,-7560.50689525765,318.962922646611,5.35834881723725,0.409083313682501,-6.76010217190167,6759015.3486957,1.43897002478028,-8.14982538E-8,-0.125189583156883,-3.7736163E-9,-2.47107766277147,0.0518138361923478,-1.35849368717507,0.0,-0.0011222300308759,0.0,428820.673057779,1.9884E-12,999.687647786589,5.3583489671039,0.409082256226549,-6.76010212539898
5760.0,-1302578.94594716,4012467.97760181,5321879.11930135,-4142739.22017948,-774373.454608487,5325135.30800344,1370.43133001808,-7518.65983829082,-87.3078246147572,5.27236422598841,0.985527593639722,-6.77717144605596,6759015.23136195,1.44334529401923,-8.22598221E-8,-0.125025338274406,1.7820718E-9,-2.46779264761457,0.104508983454506,-1.31644301801337,0.0,-0.0011222300308759,0.0,426114.899872273,2.1675E-12,1008.60504995577,5.27236443490299,0.985526446251603,-6.77717145993735
5820.0,-1719098.8622387,3871255.30016404,5304499.50408752,-4051085.52099862,-1223374.40764932,5307701.44660825,1683.59155812195,-7442.30388334541,-493.685628250623,5.16232845714943,1.55895645099388,-6.76364377020533,6759015.10292118,1.44772056326676,-8.26460109E-8,-0.124804887821599,7.3625483E-9,-2.46224598612697,0.157018663318342,-1.27392544961713,0.0,-0.0011222300308759,0.0,423140.87742024,2.3758E-12,1018.00975671332,5.16232873514097,1.55895520489708,-6.76364385628194
5880.0,-2129064.99381715,3715980.12566752,5262794.66521698,-3940854.54789511,-1666764.78579702,5265927.67816379,1989.43687802758,-7331.69628759897,-898.331085037152,5.02860281474876,2.12682399762251,-6.71942078353611,6759014.96160176,1.45209583251429,-8.26516223E-8,-0.124525326164509,1.29485683E-8,-2.45436971032264,0.209244501985605,-1.2306965274089,0.0,-0.0011222300308759,0.0,419912.75007279,2.616E-12,1027.76590313737,5.02860317353354,2.12682264456308,-6.71942095608581
5940.0,-2530712.38409232,3547263.63506574,5196923.49956544,-3812527.57359241,-2102501.03103446,5199973.1963819,2286.55933519064,-7187.24723376249,-1299.40273392153,4.87165262635346,2.68658023280472,-6.64453276568057,6759014.80547128,1.45647110176467,-8.22726569E-8,-0.124184004469517,1.85220779E-8,-2.44406704429905,0.261082187264383,-1.18650108084227,0.0,-0.0011222300308759,0.0,416447.445631144,2.8907E-12,1037.72761524776,4.87165307937972,2.68657876553708,-6.64453304162623
6000.0,-2922302.83042426,3365774.22185775,5107155.19244042,-3666669.44778659,-2528568.7842968,5110107.54961646,2573.58203136874,-7009.51977839685,-1695.06486343624,4.69204784298131,3.23568107817622,-6.53914154467994,6759014.63243449,1.46084637101505,-8.15062574E-8,-0.123778544069495,2.40663408E-8,-2.43121107058204,0.312419204378758,-1.1410696104703,0.0,-0.0011222300308759,0.0,412764.578529448,3.2026E-12,1047.75280335697,4.69204840543709,3.23567949097772,-6.53914194372326
6060.0,-3302132.38188145,3172225.17656859,4993868.63549,-3503926.54526067,-2942992.04098778,4996710.05752351,2849.16541025887,-6799.2291825695,-2083.49548247042,4.49046324341075,3.77159892953004,-6.40354302365907,6759014.44022991,1.46522164025686,-8.03506442E-8,-0.123306848884952,2.95660772E-8,-2.41564317774309,0.363132336113698,-1.09411474478204,0.0,-0.0011222300308759,0.0,408886.313242676,3.5546E-12,1057.71356841537,4.49046393219322,3.77159721874364,-6.40354356836757
6120.0,-3668538.80798249,2967372.21540398,4857551.36237109,-3325024.33675244,-3343842.24703889,4860268.7451848,3112.01354229095,-6557.24159429202,-2462.89442958116,4.26767819347192,4.29183370858609,-6.23816926104673,6759014.22642597,1.46959690949868,-7.88050555E-8,-0.122767116820587,3.50075257E-8,-2.39717146884318,0.413084870885244,-1.04532791036772,0.0,-0.0011222300308759,0.0,404837.188516703,3.9493E-12,1067.50161259252,4.26767902710954,4.29183187320325,-6.23816997688504
6180.0,-4019909.00708766,2752010.8557919,4698797.99471005,-3130764.58345726,-3729247.29573364,4701378.78722669,3360.88038039021,-6284.57205352962,-2831.49159203696,4.02457591085817,4.79392438643986,-6.04359003666507,6759013.98841952,1.47397217874906,-7.68696573E-8,-0.122157850056907,4.03785138E-8,-2.37556942123042,0.462123471253142,-0.994376472985886,0.0,-0.0011222300308759,0.0,400643.903635758,4.3895E-12,1077.02903904345,4.02457690936919,4.79392242873884,-6.04359095195091
6240.0,-4354686.32111593,2526973.64246333,4518308.19273738,-2922022.15782724,-4097400.38382427,4520740.45631683,3594.57595557772,-5982.38179263215,-3187.55520167759,3.76214218697135,5.27546093830958,-5.82051383461848,6759013.7234402,1.47834744799087,-7.45454835E-8,-0.121477864156702,4.56684312E-8,-2.35057525339123,0.510074675203802,-0.94090177566458,0.0,-0.0011222300308759,0.0,396335.068569105,4.8778E-12,1086.2260766699,3.76214337163558,5.27545886455692,-5.82051498037364
6300.0,-4671377.72163828,2293127.22890864,4316884.10707747,-2699741.49528166,-4446568.68392017,4319156.57252125,3811.97247842493,-5651.97480783342,-3529.40017051902,3.48146351937446,5.7340966766046,-5.56978817376717,6759013.42856383,1.4827227172384,-7.18343513E-8,-0.120726295906953,5.08681761E-8,-2.32189269165748,0.556741040894256,-0.884518740462148,0.0,-0.0011222300308759,0.0,391940.920490787,5.4165E-12,1095.03743137794,3.48146491239269,5.73409449781303,-5.56978958342609
6360.0,-4968560.8317607,2051369.318778,4095427.33052008,-2464932.68356532,-4775101.78876823,4097529.45235236,4012.01030968343,-5294.79368103108,-3855.3964249093,3.18372461164298,6.16756089645194,-5.29239921779949,6759013.10073763,1.48709798648878,-6.87387921E-8,-0.119902609818613,5.59699931E-8,-2.28919415402687,0.601897013634929,-0.82481802817322,0.0,-0.0011222300308759,0.0,387493.00983096,6.0073E-12,1103.41853727831,3.18372623565935,6.16755862916949,-5.29240092673523
6420.0,-5244890.74601101,1802625.47418683,3854935.35119219,-2218667.19876656,-5081439.88192549,3856857.3589316,4193.70376094494,-4912.41463539902,-4163.97719303562,2.87020520181496,6.57367175487936,-4.98947059962203,6759012.73682089,1.49147325573631,-6.5261996E-8,-0.119006603209466,6.09672069E-8,-2.25212778266186,0.64528470679188,-0.761372167496456,0.0,-0.0011222300308759,0.0,383023.859686148,6.6509E-12,1111.33240794704,2.87020707928217,6.5736694219653,-4.98947264445122
6480.0,-5499106.61015301,1547845.79807737,3596497.51137291,-1962073.29942282,-5364121.58848558,3598230.4575167,4356.14668402082,-4506.54181349591,-4453.64719678566,2.54227618626725,6.95034929213869,-4.66226139905322,6759012.3336415,1.49584852498669,-6.14077753E-8,-0.118038409799267,6.58538678E-8,-2.21033022875957,0.68660996396631,-0.693747539913747,0.0,-0.0011222300308759,0.0,378566.603068468,7.3471E-12,1118.74732886448,2.54227833864288,6.95034692346354,-4.66226381668853
6540.0,-5730037.92201028,1288001.49885227,3321290.47923995,-1696331.09267544,-5621791.45901435,3322826.28369095,4498.51780593951,-4079.00077239379,-4722.99069547384,2.20139501267351,7.29562849144595,-4.31216321868019,6759011.88807107,1.50022379422564,-5.71805602E-8,-0.116998501751393,7.06242191E-8,-2.16344751917117,0.725539324498509,-0.621524534499032,0.0,-0.0011222300308759,0.0,374154.60309828,8.0943E-12,1125.63535588475,2.20139745944742,7.29562612443675,-4.31216604511175
6600.0,-5936610.51370435,1024081.3476567,3030573.2440771,-1422667.28906487,-5853207.03971357,3031904.73475531,4620.08576511342,-3631.73119692067,-4970.6793258519,1.84910032370181,7.60767226203374,-3.94069631025018,6759011.39711852,1.50459906347603,-5.25854212E-8,-0.115887690101495,7.52720903E-8,-2.11116648256364,0.761698851106885,-0.544328337264744,0.0,-0.0011222300308759,0.0,369821.061813134,8.8889E-12,1131.97145827459,1.84910308127042,7.60766994197364,-3.9406995790558
6660.0,-6117852.17621096,757088.037943705,2725681.64888656,-1142349.66525144,-6057245.48211114,2726802.59828022,4720.21380339459,-3166.77883933081,-5195.47968023108,1.48700584220798,7.88478422016937,-3.54950471309212,6759010.85804073,1.50897433272355,-4.7628144E-8,-0.114707123521214,7.97901387E-8,-2.05325867240195,0.794676165023202,-0.46187228083006,0.0,-0.0011222300308759,0.0,365598.623760928,9.7257E-12,1137.73311009979,1.48700892262962,7.88478200015451,-3.54950845370082
6720.0,-6272897.8867663,488034.460809554,2408022.47790055,-856681.256675064,-6232909.64630714,2408927.635327,4798.3640684811,-2686.28670150869,-5396.26056254576,1.11679349877755,8.12542113401541,-3.14035037674337,6759010.26846903,1.51334960196536,-4.23153713E-8,-0.113458285373619,8.41689947E-8,-1.98963690421063,0.824027369037257,-0.374013861810901,0.0,-0.0011222300308759,0.0,361518.980941274,1.05969E-11,1142.90014155896,1.11679690846423,8.1254190744747,-3.14035461250626
6780.0,-6400994.60101757,217939.908459174,2079067.12013782,-566994.304890931,-6379333.65301586,2079752.23950209,4854.10148151369,-2192.48548407972,-5571.99986087615,0.740205813425187,8.32820489121852,-2.71510625209497,6759009.62654683,1.51772487121575,-3.66547737E-8,-0.112142989027045,8.83963926E-8,-1.92042083050487,0.849290618027287,-0.280819840467736,0.0,-0.0011222300308759,0.0,357612.485931118,1.14925E-11,1147.45467883706,0.740209551846905,8.32820305891602,-2.71511099824988
6840.0,-6501505.572628,-52173.779845806,1740344.83385814,-274643.987000185,-6495787.84136486,1740806.69671684,4887.09712575482,-1687.68333542567,-5721.79097440381,0.359037554903475,8.4919338432029,-2.27574834880761,6759008.9310731,1.52210014046327,-3.06553263E-8,-0.110763371404918,9.24562388E-8,-1.84600229841212,0.870007613278932,-0.18263115978018,0.0,-0.0011222300308759,0.0,353907.780161187,1.24003E-11,1151.38097269954,0.359041613399324,8.49193230966912,-2.27575361045539
6900.0,-6573914.16468247,-321286.112929778,1393435.64048242,18998.0428085903,-6581683.09165578,1393672.07424233,4897.13111401333,-1174.25494245316,-5844.8487330696,-0.0248732868066296,8.61559337760144,-1.82434677129581,6759008.18164363,1.52647540971366,-2.43275927E-8,-0.109321884761388,9.63278011E-8,-1.76709475097341,0.885752941326899,-0.0801119379063742,0.0,-0.0011222300308759,0.0,350431.444275908,1.33056E-11,1154.66536643179,-0.0248689259996256,8.61559221697852,-1.82435254153843
6960.0,-6617827.11942212,-588381.868301158,1039962.88021682,312550.267122494,-6636574.47507108,1039972.77132144,4884.09489498138,-654.630013889575,-5940.5147494008,-0.409655166886807,8.69836557030635,-1.36305576098333,6759007.37878015,1.53085067896118,-1.76841222E-8,-0.107821286685505,9.99850219E-8,-1.68474675269414,0.896168883908508,0.0257373917740218,0.0,-0.0011222300308759,0.0,347207.677300769,1.41919E-11,1157.29710072014,-0.409650531262032,8.69836485664417,-1.36306201940611
7020.0,-6632977.25525202,-852455.019921729,681585.465189865,604628.039791077,-6660164.19562296,681368.767172989,4847.99296189854,-131.281215721277,-6008.26214411422,-0.793413230641795,8.7396377714507,-0.894102788556032,6759006.52403559,1.53522594820014,-1.07398123E-8,-0.106264628350674,1.033960901E-7,-1.60030225774512,0.90100059527837,0.133620180487741,0.0,-0.0011222300308759,0.0,344258.010947733,1.50412E-11,1159.2689213952,-0.79340835759996,8.73963757556021,-0.894109500230027
7080.0,-6619225.56302908,-1112512.65489186,319989.86932482,893850.404176636,-6652303.7934769,319547.605637696,4788.94393094116,393.288373027814,-6047.69959021327,-1.17424006466197,8.73900998539584,-0.419776756191333,6759005.62006522,1.53960121745052,-3.5123704E-9,-0.10465524104046,1.065233012E-7,-1.51530238754908,0.900124562500357,0.242042142502341,0.0,-0.0011222300308759,0.0,341601.06481121,1.58349E-11,1160.57731163382,-1.17423500115341,8.73901037142975,-0.419783871351732
7140.0,-6576562.6769059,-1367578.86057764,-43118.1026324514,1178846.95648901,-6612995.58312128,-43783.8410847585,4707.18096142433,916.558207830731,-6058.57462438169,-1.55022687035402,8.69630091353457,0.0575846140955647,6759004.67065411,1.54397648670376,3.977274E-9,-0.102996720996943,1.09323369E-7,-1.43134273028483,0.893563437366592,0.349454404842998,0.0,-0.0011222300308759,0.0,339252.347451523,1.65541E-11,1161.22246939365,-1.55022167193965,8.69630193551892,0.0575771595767417
7200.0,-6505109.69905744,-1616698.56149699,-406021.721586459,1458264.71400851,-6542393.30466502,-406907.784233281,4603.05149525659,1436.00354562338,-6040.77617951945,-1.91947496542503,8.6115525404137,0.535608114153654,6759003.68069457,1.54835175594557,1.17046232E-8,-0.101292912652948,1.117480867E-7,-1.34991762923107,0.881483265049363,0.454409566428832,0.0,-0.0011222300308759,0.0,337224.107445221,1.71812E-11,1161.2081074311,-1.91946969475781,8.61155423899105,0.535600397440765
7260.0,-6405118.36174615,-1858941.28640061,-767001.86812803,1730774.94682281,-6440801.97178442,-768104.057848172,4477.01629904098,1949.1089405732,-5994.33629822648,-2.28010750950909,8.48503315823669,1.01189899877505,6759002.65610883,1.5527270251931,1.96412606E-8,-0.0995478903246317,1.137454659E-7,-1.27228841016143,0.86417387064224,0.555693821438793,0.0,-0.0011222300308759,0.0,335525.237423937,1.77E-11,1160.54114996441,-2.28010223429249,8.48503555789264,1.01189110790151
7320.0,-6276970.51451031,-2093404.84613025,-1124345.64398516,1995079.93089908,-6308676.90545776,-1125658.73551864,4329.64779869065,2453.38187222959,-5919.43099385545,-2.63028134219021,8.31723874203738,1.48405542988799,6759001.60371866,1.55710229443491,2.77546422E-8,-0.0977659384560488,1.152612375E-7,-1.19940253500238,0.842017545908814,0.65240816478827,0.0,-0.0011222300308759,0.0,334161.232958688,1.80972E-11,1159.23139930547,-2.63027613272519,8.31724184906337,1.48404746084232
7380.0,-6121176.92965758,-2319218.90078262,-1476355.0089623,2249919.57990991,-6146621.94855716,-1477872.77255558,4161.62770332774,2946.36640495069,-5816.38023333846,-2.96819881545605,8.10889260746041,1.94968328362669,6759000.53106572,1.56147756368529,3.60080033E-8,-0.0959515305216894,1.162406922E-7,-1.13187148462191,0.815453293051662,0.743990882124644,0.0,-0.0011222300308759,0.0,333134.206907234,1.83628E-11,1157.29124131131,-2.96819374193428,8.10889640885471,1.94967533686256
