time,gePosition_m_X,gePosition_m_Y,gePosition_m_Z,eiPosition_m_X,eiPosition_m_Y,eiPosition_m_Z,eiVelocity_m_s_X,eiVelocity_m_s_Y,eiVelocity_m_s_Z,eiAccel_m_s2_X,eiAccel_m_s2_Y,eiAccel_m_s2_Z,semiMajorAxis_m,gast_rad,eulerAngle_rad_Roll,eulerAngle_rad_Pitch,eulerAngle_rad_Yaw,eulerAngleWrtEi_rad_Roll,eulerAngleWrtEi_rad_Pitch,eulerAngleWrtEi_rad_Yaw,bodyAngularRateWrtEi_rad_s_Roll,bodyAngularRateWrtEi_rad_s_Pitch,bodyAngularRateWrtEi_rad_s_Yaw,altitudeMsl_m,airDensity_kg_m3,ambientTemperature_dgK,eiGravitation_m_s2_X,eiGravitation_m_s2_Y,eiGravitation_m_s2_Z
0.0,-1436381.46529,4185811.71036,5163944.67155,-4315967.74,960356.2,5167269.53,129.091037,-7491.513855,1452.515654,5.4694140599,-1.21701142624,-6.54822723106,6759053.07579,1.02334780893,-5.666859310097427E-17,-0.2024581932313422,1.310461215457521E-16,-2.4715939055627265,-0.03718896475792745,-1.428993135204757,0.0,0.0,0.0,434989.540812,1.61790350067E-12,978.31253865,5.46941408349,-1.21701227671,-6.54822705894
60.0,-1794950.0333,3943126.03076,5239239.62043,-4298383.75504,509016.727116,5242568.01413,456.87345072,-7547.42168111,1056.41305038,5.45257917963,-0.645696210167,-6.65029456052,6759052.98165,1.02772307802,-2.860447578701302E-12,-0.20243605987333962,-7.94646027727124E-11,-2.4720451944049366,0.015605902028330697,-1.3871941836894333,0.0,-0.0011222300308754611,0.0,433093.864935,1.72931058267E-12,985.411741591,5.45257924222,-0.645697126732,-6.65029442667
120.0,-2147547.16638,3685627.21739,5290617.59925,-4261177.84201,55353.9750028,5293934.33423,782.910105521,-7568.91560427,655.073360783,5.41122594477,-0.0702924545021,-6.72271302235,6759052.88053,1.03209834711,-1.0521914520446465E-11,-0.20236718972559864,-1.3684528219098135E-10,-2.470286822045643,0.0683734663492189,-1.3453262663509098,0.0,-0.0011222300308754611,0.0,430905.280259,1.86248839304E-12,993.229374582,5.4112260522,-0.0702934453179,-6.72271293292
180.0,-2492684.23997,3414408.91225,5317817.99801,-4204498.85075,-398561.348205,5321107.91715,1105.73158734,-7555.82466942,250.289428838,5.34542722564,0.506715624268,-6.76503838986,6759052.77111,1.0364736162,-2.140977469483438E-11,-0.20224802892077112,-1.687016302292037E-10,-2.466297307513463,0.12102070149960639,-1.303154824308686,0.0,-0.0011222300308754611,0.0,428429.877669,2.02004460894E-12,1001.7149193,5.34542738512,0.506714550527,-6.76503835278
240.0,-2828892.47082,3130615.65652,5320688.43786,-4128583.60461,-850652.767732,5323936.48926,1423.875864,-7508.1279074,-156.12279484,5.25535647878,1.08281409842,-6.77694528424,6759052.65189,1.04084888529,-3.36604841412384E-11,-0.20207523819195766,-1.7081731702917684E-10,-2.4600278400927786,0.1734520917711023,-1.2604406632134308,0.0,-0.0011222300308754611,0.0,425676.591461,2.20464510326E-12,1010.78109554,5.25535669903,1.08281293286,-6.77694530948
300.0,-3154729.00775,2835438.44294,5299185.94157,-4033756.27565,-1298847.08973,5302377.24663,1735.89436555,-7425.95586314,-562.331494566,5.1412892116,1.65546789625,-6.75823084326,6759052.52125,1.04522415437,-4.5059871954801E-11,-0.20184570850387656,-1.380970871369918E-10,-2.4514015320610127,0.22556763079816464,-1.216936353784656,0.0,-0.0011222300308754611,0.0,422657.213745,2.41895735159E-12,1020.30840859,5.14128950298,1.65546663013,-6.75823094308
360.0,-3468783.02852,2530110.08915,5253377.66317,-3920427.39241,-1741083.52481,5256497.58437,2040.35814474,-7309.59159455,-966.496445305,5.00360418356,2.22212987986,-6.70881817172,6759052.37737,1.04959942346,-5.299132923860037E-11,-0.20155657594924892,-6.449785890680163E-11,-2.4403123001245675,0.2772606847084223,-1.1723826141690332,0.0,-0.0011222300308754611,0.0,419386.370256,2.66563004958E-12,1030.15596534,5.00360455809,2.22212850507,-6.70881836089
420.0,-3769681.82028,2215900.44281,5183441.16455,-3789092.47615,-2175322.85486,5186475.37247,2335.86410066,-7159.47111111,-1366.77666757,4.84278429912,2.78025044425,-6.62875952054,6759052.21829,1.05397469255,-5.4296124176121565E-11,-0.20120523584407762,5.7017445602674436E-11,-2.4266234488921494,0.32841566026697583,-1.1265047086280184,0.0,-0.0011222300308754611,0.0,415881.456666,2.94730878614E-12,1040.17566998,4.84278477059,2.78024895379,-6.62875981649
480.0,-4056096.81977,1894111.43016,5089664.22752,-3640330.30216,-2599556.6086,5092598.76683,2621.04124538,-6976.18322089,-1761.33826346,4.65941714559,3.3272876393,-6.51823913607,6759052.0419,1.05834996164,-4.526061089906082E-11,-0.20078935594851638,2.3449824889165204E-10,-2.410166082398258,0.37890541913027004,-1.0790089514129753,0.0,-0.0011222300308754611,0.0,412162.535033,3.26666813152E-12,1050.22575556,4.6594177295,3.32728602781,-6.51823955901
540.0,-4326749.58793,1566071.96102,4972444.19105,-3474800.78447,-3011816.2094,4975265.54526,2894.55699116,-6760.46875464,-2148.36241224,4.45419512704,3.86071780683,-6.37757571753,6759051.8459,1.06272523073,-2.1522910628669082E-11,-0.20030688871559063,4.770001402801358E-10,-2.390737553674849,0.4285883837533455,-1.0295794903432756,0.0,-0.0011222300308754611,0.0,408252.190508,3.62643025679E-12,1060.18041616,4.45419584059,3.86071607111,-6.37757629058
600.0,-4580417.69204,1233132.70416,4832286.80498,-3293242.48327,-3410182.05708,4834981.95954,3155.12343224,-6513.21913671,-2526.05349996,4.22791514488,4.37804671392,-6.20722441679,6759051.62783,1.06710049981,2.202593928199981E-11,-0.19975608252064578,7.945285530063469E-10,-2.368100287875824,0.47730529221887513,-0.9778756738811295,0.0,-0.0011222300308754611,0.0,404175.349036,4.02934333135E-12,1069.93432325,4.22791600686,4.37804485356,-6.20722516591
660.0,-4815940.4675,896660.74827,4669804.5929,-3096469.7363,-3792792.50374,4672361.09644,3401.50359261,-6235.4742738,-2892.64735363,3.98147777559,4.87682115224,-6.00777831236,6759051.38506,1.0714757689,9.129605438609374E-11,-0.1991354917510956,1.197986241002752E-9,-2.3419815006332434,0.5248755839273189,-0.9235304947778583,0.0,-0.0011222300308754611,0.0,399959.057355,4.47810453316E-12,1079.40271494,3.98147880624,4.87681917025,-6.00777926633
720.0,-5032224.62973,558034.165269,4485714.71899,-2885369.41719,-4157852.68161,4488120.74238,3632.51760825,-5928.41973475,-3246.41954637,3.71588589753,5.35464096087,-5.77996928856,6759051.11482,1.07585103799,1.9309577849052313E-10,-0.19844398571109223,1.6990168367684551E-9,-2.3120745961882356,0.5710934443666792,-0.8661508699147504,0.0,-0.0011222300308754611,0.0,395632.227254,4.97522462876E-12,1088.51871106,3.71588711828,5.35463886435,-5.77997047883
780.0,-5228249.70605,218636.493635,4280836.35569,-2660897.32571,-4503643.14002,4283080.74856,3847.0488092,-5593.3831977,-3585.69373564,3.43224272066,5.80917141747,-5.52466825064,6759050.81414,1.08022630708,3.351582054628535E-10,-0.19768075624686937,2.3098234219115934E-9,-2.278043383844667,0.6157236175579897,-0.8053208725167013,0.0,-0.0011222300308754611,0.0,391225.346691,5.52283903238E-12,1097.22952401,3.43224415377,5.80916921845,-5.52466971097
840.0,-5403073.25599,-120148.838744,4056087.55129,-2424074.21696,-4828528.24646,4058159.89588,4044.04966444,-5231.83014432,-3908.84999289,3.13174917669,6.23815592989,-5.24288460822,6759050.47999,1.08460157617,5.262059556099765E-10,-0.19684532400549337,3.042889112053915E-9,-2.2395306890746065,0.6584972253791455,-0.7406094741657385,0.0,-0.0011222300308754611,0.0,386770.161033,6.12247369922E-12,1105.49273366,3.13175084476,6.23815364604,-5.24288637417
900.0,-5555835.84842,-456944.131633,3812481.59959,-2175981.47903,-5130964.30658,3814372.26143,4222.54755009,-4845.35878549,-4214.33307853,2.81570063177,6.63942894696,-4.93576496221,6759050.1092,1.08897684525,7.759568308560786E-10,-0.1959375432851329,3.910600744106121E-9,-2.196173409618573,0.6991080320279793,-0.6715848301062751,0.0,-0.0011222300308754611,0.0,382299.328379,6.77477698801E-12,1113.27328938,2.81570255705,6.63942660239,-4.93576707044
960.0,-5685765.76284,-790383.047386,3551122.91607,-1917756.47087,-5409507.35613,3552823.09142,4381.65029917,-4435.69420823,-4500.66061277,2.48548288943,7.0109289951,-4.60459093535,6759049.69864,1.09335211434,1.0951120260746846E-9,-0.19495760535816606,4.924767367840288E-9,-2.1476264377012977,0.7372098731348192,-0.5978375145795667,0.0,-0.0011222300308754611,0.0,377846.053528,7.4792262679E-12,1120.54126644,2.48548509302,7.01092662102,-4.60459342257
1020.0,-5792183.38245,-1119116.24043,3273202.42858,-1650587.53482,-5662820.57845,3274704.18819,4520.55148958,-4004.68173906,-4766.43108916,2.14256745882,7.35071173482,-4.25077609201,6759049.2452,1.09772738343,1.4953147892775908E-9,-0.19390604025316135,6.096005205989911E-9,-2.093597855730558,0.7724163273700638,-0.5190151007703818,0.0,-0.0011222300308754611,0.0,373443.705819,8.23382725301E-12,1127.27050641,2.14256995965,7.35070937005,-4.25077899376
1080.0,-5874505.2466,-1441816.95678,2979992.49358,-1375708.70081,-5889681.30013,2981288.82269,4638.53542576,-3554.27952643,-5010.33167492,1.78850607129,7.65696292026,-3.87586190122,6759048.74594,1.10210265252,1.989056199680092E-9,-0.19278371690323087,7.433026715549941E-9,-2.0338969399550955,0.8043040940332757,-0.4348696089353474,0.0,-0.0011222300308754611,0.0,369125.426591,9.03482137396E-12,1133.43781184,1.78850888497,7.65696061145,-3.87586525033
1140.0,-5932247.73062,-1757186.57797,2672841.35247,-1094394.10202,-6088987.51853,2673926.1866,4734.98176854,-3086.55035159,-5231.14573931,1.42492443769,7.92801113479,-3.48151270612,6759048.19819,1.10647792161,2.5894907092611147E-9,-0.19159184162235776,8.94180557880394E-9,-1.968494152701902,0.8324218222322988,-0.3453169937496435,0.0,-0.0011222300308754611,0.0,364923.732509,9.8764249301E-12,1139.02255928,1.42492757528,7.92800893634,-3.48151653094
1200.0,-5965030.32214,-2063960.08274,2353167.14608,-807952.124414,-6259763.9151,2354035.40256,4809.36976766,-2603.65268536,-5427.76004971,1.05351524907,8.16234016714,-3.06950967378,6759047.59968,1.11085319069,3.3102346479411176E-9,-0.19033195486082904,1.0624682451052167E-8,-1.8975879558838207,0.8563060762494299,-0.2505034948136596,0.0,-0.0011222300308754611,0.0,360870.121379,1.07506264147E-11,1144.00653375,1.05351871577,8.16233814059,-3.06951399624
1260.0,-5972578.46384,-2360911.39921,2022451.50916,-517719.315361,-6401167.31024,2023099.1141,4861.28205202,-2107.83101675,-5599.17157376,0.676030434444,8.35860088595,-2.64174371204,6759046.94866,1.11522845978,4.1650582814657635E-9,-0.18900592623104745,1.2479433210446852E-8,-1.8216671353457778,0.8755053926938258,-0.15086753246260137,0.0,-0.0011222300308754611,0.0,356994.687319,1.16470706144E-11,1148.37381354,0.67603422831,8.35859909891,-2.64174854562
1320.0,-5954725.93454,-2646858.61941,1682232.77022,-225054.079245,-6512491.51676,1682656.68078,4890.40793362,-1601.40548772,-5744.49382548,0.294272701135,8.51562246614,-2.20020735336,6759046.24408,1.11960372887,5.167531986442329E-9,-0.1876159477408898,1.4498350818358755E-8,-1.7415511375461163,0.8896117212815267,-0.04717964371900692,0.0,-0.0011222300308754611,0.0,353325.752257,1.25530560191E-11,1152.11051378,0.294276811925,8.51562099061,-2.20021270108
1380.0,-5911416.74218,-2920669.04799,1334098.78609,68669.8095442,-6593171.55175,1334297.00784,4896.5461834,-1086.7608776,-5862.96269368,-0.0899136046723,8.63242281814,-1.7469856206,6759045.48569,1.12397899796,6.330593986459004E-9,-0.18616452527300958,1.6667436368920525E-8,-1.658388369120703,0.8982960218291156,0.059459597706705954,0.0,-0.0011222300308754611,0.0,349889.520666,1.34536908102E-11,1155.20492472,-0.0899091964064,8.6324217283,-1.74699147324
1440.0,-5842706.50498,-3181264.05651,979679.443897,362069.843324,-6642787.16922,979651.043139,4879.60723949,-566.334989338,-5953.94169264,-0.474652267117,8.70821807194,-1.28424590511,6759044.67418,1.12835426705,7.666052874657376E-9,-0.18465446828739435,1.8965754702261858E-8,-1.5735978370241681,0.9013421412672873,0.16767830484890037,0.0,-0.0011222300308754611,0.0,346709.764212,1.43322419623E-11,1157.64830449,-0.474647590581,8.70821744132,-1.28425223975
1500.0,-5748763.29945,-3427623.71511,620638.866915,653761.532398,-6661065.67955,620383.977856,4839.61481197,-42.6064986914,-6016.92657685,-0.858045537202,8.74243097068,-0.81422690348,6759043.81129,1.13272953613,9.184065704749702E-9,-0.18308887776288602,2.1365067834368066E-8,-1.4887544881298564,0.898671653796826,0.2759482912661997,0.0,-0.0011222300308754611,0.0,343807.542555,1.51706554817E-11,1159.4353348,-0.858040631448,8.742430869,-0.814233682651
1560.0,-5629867.95737,-3658791.17361,258667.364098,942365.233696,-6647884.02544,258187.190792,4776.70685218,481.917663957,-6051.54926529,-1.23818496232,8.73469803541,-0.339226675878,6759042.89988,1.13710480522,1.0892556962498433E-8,-0.18147113243875032,2.3829800739132115E-8,-1.40543846448609,0.8903533889481704,0.38273616390528237,0.0,-0.0011222300308754611,0.0,341200.965948,1.59502332534E-11,1160.56424525,-1.23817987579,8.73469852512,-0.33923384734
1620.0,-5486413.79714,-3873876.76517,-104526.833827,1226513.01784,-6603270.08867,-105230.020839,4691.13585971,1004.71532157,-6057.58102478,-1.61316262306,8.68487537123,0.138410095369,6759041.94391,1.14148007431,1.2796693918207175E-8,-0.1798048733720035,2.631741805460046E-8,-1.3250831126115463,0.8765950545699809,0.48665566178453706,0.0,-0.0011222300308754611,0.0,338905.004478,1.66524361787E-11,1161.03671019,-1.61315741255,8.68487650412,0.138402597991
1680.0,-5318905.77871,-4072061.80612,-467226.005848,1504855.53417,-6527403.20689,-468148.878227,4583.26850523,1523.26236305,-6034.93486717,-1.98108268114,8.59304299784,0.616305552375,6759040.94845,1.1458553434,1.4898370656534914E-8,-0.17809398689601763,2.8779214602421123E-8,-1.2488571127191321,0.8577192397614389,0.5865858795973985,0.0,-0.0011222300308754611,0.0,336931.347865,1.72597642231E-11,1160.85759546,-1.9810774102,8.5930448118,0.616297808133
1740.0,-5127959.0755,-4252602.06775,-827711.491421,1776068.83226,-6420613.88464,-828849.677044,4453.58455375,2035.04626883,-5983.66712129,-2.34007313326,8.459507602,1.09206270447,6759039.91956,1.15023061249,1.7195762887614426E-8,-0.1763425860554533,3.116154425846208E-8,-1.1776021910181746,0.8341299041596535,0.6817339182492723,0.0,-0.0011222300308754611,0.0,335288.318653,1.77566491803E-11,1160.03462948,-2.34006787006,8.45951011842,1.09205480279
1800.0,-4914297.06083,-4414830.89681,-1184272.30999,2038861.09756,-6283382.68901,-1185620.41224,4302.67507932,2537.57975208,-5903.97814745,-2.68829765783,8.28480362748,1.56327994466,6759038.86419,1.15460588158,1.968296894717177E-8,-0.17455499060653176,3.340741817977977E-8,-1.1118280220754253,0.8062766880124569,0.7716403607058901,0.0,-0.0011222300308754611,0.0,333980.84044,1.81302876617E-11,1158.57807186,-2.6882924727,8.28480684935,1.56327198235
1860.0,-4678748.71092,-4558161.96391,-1535213.79708,2291979.2586,-6116338.32581,-1536765.4194,4131.23996905,3028.41441377,-5796.21217011,-3.02396743576,8.06969263792,2.0275659057,6759037.78996,1.15898115066,2.234981037665457E-8,-0.17273570569260194,3.545841509698147E-8,-1.0517504053442654,0.7746230677648103,0.8561414947203864,0.0,-0.0011222300308754611,0.0,333010.461549,1.83713420137E-11,1156.50044644,-3.02396239842,8.06969654889,2.02755798335
1920.0,-4422245.43124,-4682091.62121,-1878866.20362,2534215.42324,-5920254.89864,-1880613.9791,3940.08472175,3505.15430657,-5660.85621252,-3.34535282248,7.81516090996,2.48255451197,6759036.70496,1.16335641975,2.5181758071038442E-8,-0.1708893993234592,3.725675094066213E-8,-0.997352736797172,0.739621767094102,0.9353082676720366,0.0,-0.0011222300308754611,0.0,332375.433288,1.84744462962E-11,1153.81639396,-3.34534799932,7.81516547449,2.48254673015
1980.0,-4145817.31745,-4786200.85325,-2213593.20427,2764413.10198,-5696048.35961,-2215528.83029,3730.11655384,3965.46930074,-5498.53812616,-3.6507947466,7.52241523782,2.92592007607,6759035.61749,1.16773168884,2.81600071220185E-8,-0.1690208787840789,3.8747429068542353E-8,-0.9484529480621173,0.7016982752110066,1.009379807887856,0.0,-0.0011222300308754611,0.0,332070.840654,1.8438472288E-11,1150.54268277,-3.65079019809,7.52242040244,2.92591253145
2040.0,-3850588.86679,-4870156.80767,-2537800.26057,2981473.1773,-5444772.16661,-2539914.53825,3502.3398326,4407.10814468,-5310.02371696,-3.93871571095,7.19287695499,3.35539228437,6759034.53579,1.17210695793,3.1261729838251414E-8,-0.16713506612583015,3.9880260614453695E-8,-0.9047641662884363,0.6612415958622121,1.0787032667264445,0.0,-0.0011222300308754611,0.0,332088.782188,1.82665343379E-11,1146.69839555,-3.93871148942,7.1928826505,3.35538506606
2100.0,-3537774.16083,-4933713.89552,-2849942.78509,3184359.5795,-5167612.16889,-2852225.66333,3257.85086436,4827.91111401,-5096.21297962,-4.20763027463,6.82817420392,3.76877091332,6759033.46783,1.17648222702,3.446044119635683E-8,-0.16523697289323577,4.061168162549747E-8,-0.8659435687347867,0.6186005662547494,1.1436855158910602,0.0,-0.0011222300308754611,0.0,332418.59454,1.796573824E-11,1142.30528895,-4.20762642251,6.82818034844,3.76876409977
2160.0,-3208671.54407,-4976714.45409,-3148534.0535,3372104.63135,-4865880.74853,-3150974.6774,2997.83207232,5225.82214566,-4858.13546096,-4.45615489941,6.4301325098,4.16394011974,6759032.42103,1.1808574961,3.772652289365309E-8,-0.16333167425313136,4.090620461852433E-8,-0.8316283911054979,0.574083990425327,1.20475775051178,0.0,-0.0011222300308754611,0.0,333047.116392,1.75467042509E-11,1137.38830261,-4.45615144813,6.43013901241,4.16393377631
2220.0,-2864657.82811,-4999088.96833,-3432152.81339,3543814.0261,-4541010.25187,-3434739.57686,2723.5456053,5598.90035738,-4596.94478256,-4.6830170515,6.00076373924,4.53888215151,6759031.4021,1.18523276519,4.102782012247971E-8,-0.16142428269447306,4.0737467538373555E-8,-0.8014605219065922,0.5279630998718329,1.26235157666518,0.0,-0.0011222300308754611,0.0,333958.98552,1.7022914307E-11,1131.97617617,-4.68301402099,6.00077050385,4.53887632884
2280.0,-2507182.05423,-5000855.85059,-3699450.54047,3698671.40608,-4194545.75058,-3702171.14256,2436.32642536,5945.33085895,-4313.91236173,-4.88706345847,5.54225354783,4.89169033182,6759030.41688,1.18960803428,4.433034396311958E-8,-0.15951992147926197,4.008882310547053E-8,-0.7751020651871899,0.48047523808126674,1.3168842134606455,0.0,-0.0011222300308754611,0.0,335136.962223,1.64099459312E-11,1126.10211771,-4.88706085731,5.54226047715,4.89168506511
2340.0,-2137758.85136,-4982120.78143,-3949158.29534,3835942.51233,-3828137.17748,-3951999.80029,2137.57492749,6263.43476795,-4010.42037877,-5.06726743287,5.0569474426,5.2205811795,6759029.47024,1.19398330337,4.7598945042492963E-8,-0.15762369802103685,3.8953450293496714E-8,-0.7522443079923347,0.4318280279885307,1.368750387731326,0.0,-0.0011222300308754611,0.0,336562.271843,1.57246591666E-11,1119.8044517,-5.06726525897,5.05695444176,5.22057648859
2400.0,-1757961.42965,-4943075.6181,-4180093.13761,3954978.87876,-3443530.88725,-4183042.03787,1828.7491499,6551.67835136,-3687.95404603,-5.22273518653,4.54733560474,5.52390553959,6759028.56601,1.19835857246,5.07980453515855E-8,-0.15574067736965774,3.7334062860451764E-8,-0.7326121724849861,0.3822035682087175,1.4183188579438926,0.0,-0.0011222300308754611,0.0,338214.958934,1.4984398576E-11,1113.12715781,-5.22273342832,4.54734258453,5.52390142981
2460.0,-1369414.25233,-4883996.88013,-4391164.05688,4055221.04821,-3042560.69666,-4394206.33919,1511.35663728,6808.68122328,-3348.09324177,-5.35271107402,4.01603663495,5.80015861262,6759027.70698,1.20273384154,5.389234127785909E-8,-0.1538758559856393,3.52422368127298E-8,-0.7159657603494773,0.33176240803320906,1.4659319787057299,0.0,-0.0011222300308754611,0.0,340074.245562,1.42062615938E-11,1106.12018912,-5.35270971191,4.01604351439,5.8001550762
2520.0,-973785.4315,-4805243.82511,-4581377.38498,4136201.29154,-2627138.46278,-4584498.59878,1186.94602272,7033.22353952,-2992.50357757,-5.45658171899,3.4657803976,6.04798878688,6759026.89495,1.20710911063,5.684739938613286E-8,-0.15203413597385543,3.2697486654531694E-8,-0.7021001542341334,0.2806471857255818,1.5119071629564047,0.0,-0.0011222300308754611,0.0,342118.886377,1.34064698343E-11,1098.83943013,-5.45658072702,3.4657871058,6.04798580483
2580.0,-572778.894868,-4707256.1305,-4749841.65736,4197545.81491,-2199244.2608,-4753026.98537,857.0983965,7224.25214039,-2622.92697391,-5.53387899301,2.89939015046,6.26620519579,6759026.13076,1.21148437972,5.963023101587958E-8,-0.15022029995114683,2.9726124548338032E-8,-0.6908442813412137,0.22898589780952944,1.5565394616323676,0.0,-0.0011222300308754611,0.0,344327.513433,1.25998642253E-11,1091.34612721,-5.53387834064,2.89939662777,6.26620274003
2640.0,-168126.372085,-4590551.2004,-4895771.89665,4238976.44444,-1760916.22587,-4899006.22713,523.418530783,7380.88560469,-2241.17182187,-5.58428183299,2.3197641538,6.45378394125,6759025.41443,1.21585964881,6.220972456803998E-8,-0.1484389867082282,2.6360033067970552E-8,-0.6820593755684409,0.1768948151510148,1.6001047527360528,0.0,-0.0011222300308754611,0.0,346678.964178,1.179953084E-11,1083.70561592,-5.58428148673,2.31977035227,6.45378197687
2700.0,238420.74981,-4455721.11852,-5018493.29597,4260311.78192,-1314240.12491,-5021761.29625,187.526030243,7502.41818953,-1849.10281268,-5.60761689943,1.72985695618,6.60987294329,6759024.74524,1.2202349179,6.455712173870403E-8,-0.14669466782175278,2.2635427646182487E-8,-0.6756373840652798,0.12448108742026098,1.6428632255401556,0.0,-0.0011222300308754611,0.0,349152.586666,1.10165543341E-11,1075.98521454,-5.60761682441,1.72986283939,6.60987143065
2760.0,645099.652108,-4303429.27141,-5117444.28443,4261467.82892,-861338.725963,-5120730.4754,-148.953522523,7588.32264258,-1448.63051791,-5.60385809365,1.13266055381,6.73379539614,6759024.12188,1.22461018698,6.664624316435231E-8,-0.14499162536017457,1.859164452046207E-8,-0.6714995346544718,0.0718450898757752,1.6850629784739284,0.0,-0.0011222300308754611,0.0,351728.516707,1.02598911264E-11,1068.25129139,-5.60385825492,1.13266609618,6.73379429291
2820.0,1050144.34169,-4134406.66745,-5192178.96259,4242458.08121,-404361.032592,-5195467.7936,-484.397359161,7638.25188493,-1041.70080424,-5.57312496728,0.531185616956,6.8250518306,6759023.54255,1.22898545607,6.845370907789929E-8,-0.1433339308148318,1.4270058861391603E-8,-0.6695951950202569,0.019082571212952176,1.7269436371942117,0.0,-0.0011222300308754611,0.0,354387.922512,9.53635422669E-12,1060.56576347,-5.5731253309,0.531190802696,6.82505109352
2880.0,1451793.89094,-3949447.97944,-5242368.90024,4203393.09925,54528.5489491,-5245644.82411,-817.194190213,7652.03957414,-630.284165821,-5.51568007135,-0.0715570303787,6.88332080155,6759023.00512,1.23336072516,6.995909629966327E-8,-0.14172542537580626,9.71311677543247E-9,-0.6699010994769019,-0.03371333770769191,1.7687399555819074,0.0,-0.0011222300308754611,0.0,357113.213161,8.85070289767E-12,1052.98259408,-5.51568060518,-0.0715522086005,6.88332038781
2940.0,1848300.61244,-3749407.33949,-5267804.29409,4144479.56402,513161.043259,-5271051.84183,-1145.75268037,7629.69956825,-216.365055794,-5.43192530498,-0.672574501446,6.90845823724,6759022.50722,1.23773599425,7.11449853097689E-8,-0.14016970165919906,4.9635594192424776E-9,-0.6724209836782684,-0.08645019492961135,1.8106853961086613,0.0,-0.0011222300308754611,0.0,359888.208158,8.2058285872E-12,1045.54508267,-5.43192597923,-0.672570043923,6.9084581056
3000.0,2237938.1225,-3535193.9164,-5268394.48778,4066018.83159,969373.67493,-5271598.34254,-1468.50967642,7571.42432117,198.068704327,-5.32239733483,-1.26890934499,6.900495504,6759022.04636,1.24211126334,7.199698285888774E-8,-0.13867008697500785,6.378432184303475E-11,-0.6771856436972087,-0.13903433958431627,1.8530157035520955,0.0,-0.0011222300308754611,0.0,362698.266182,7.60302065496E-12,1038.28469171,-5.32239812237,-1.26890524639,6.90049561557
3060.0,2619009.24906,-3307767.30605,-5244167.86096,3968405.00276,1421020.51034,-5247312.9309,-1783.93813439,7477.58224984,611.036362276,-5.18776216597,-1.85765630268,6.85963625473,6759021.62002,1.24648653242,7.250370698406298E-8,-0.13722962821222665,-4.944615013437646E-9,-0.6842534168847179,-0.19136894674583227,1.8959724901412025,0.0,-0.0011222300308754611,0.0,365530.372053,7.0422831401E-12,1031.22175427,-5.18776304245,-1.85765255335,6.85963657342
3120.0,2989853.74242,-3068132.7659,-5195271.09892,3852122.5273,1865982.91183,-5198342.58865,-2090.55469782,7348.7141214,1020.5744491,-5.02880895223,-2.43597819471,6.78625214263,6759021.22569,1.25086180151,7.265672393443013E-8,-0.13585107840260296,-1.0021207474468504E-8,-0.6937110622681143,-0.24335198611821643,1.939806842712085,0.0,-0.0011222300308754611,0.0,368373.181775,6.52266422566E-12,1024.36780162,-5.02880989605,-2.43597478178,6.78625263542
3180.0,3348855.74932,-2817336.32463,-5121967.85805,3717743.36503,2302179.74704,-5124951.3382,-2386.92688403,7185.52851628,1424.74670428,-4.84644313964,-3.00112082086,6.68087749266,6759020.86097,1.2552370706,7.245046161231089E-8,-0.1345368850077333,-1.5126940016918776E-8,-0.7056749917324735,-0.2948740250430202,1.9847829409325761,0.0,-0.0011222300308754611,0.0,371217.026356,6.04256036449E-12,1017.72876126,-4.84644413187,-3.00111772924,6.68087812967
3240.0,3694451.01433,-2556459.79769,-5024636.84631,3565923.72845,2727577.29993,-5027518.32096,-2671.67984147,6988.89642911,1821.65365239,-4.64167904047,-3.55042678422,6.54420303179,6759020.52355,1.25961233969,7.188205693701428E-8,-0.13328917996073808,-2.022431496102464E-8,-0.7202927632859396,-0.34581581606156386,2.031181636030057,0.0,-0.0011222300308754611,0.0,374053.875889,5.59996836443E-12,1011.30814506,-4.64168006468,-3.55042399728,6.54420378625
3300.0,4025133.77518,-2286615.73886,-4903769.34122,3397400.43362,3140198.8336,-4906535.31286,-2943.50264693,6759.84507447,2209.441778,-4.41563193679,-4.0813481641,6.37706878575,6759020.21123,1.26398760878,7.095131648050606E-8,-0.1321097714790964,-2.5277488951682934E-8,-0.7377446853524102,-0.3960456111539385,2.0793038761048335,0.0,-0.0011222300308754611,0.0,376877.266104,5.19267527742E-12,1005.10956906,-4.41563297884,-4.08134566432,6.37706963385
3360.0,4339463.32213,-2008942.35716,-4759966.17091,3212986.88759,3538133.7593,-4762603.70262,-3201.15411731,6499.55096806,2586.3122522,-4.16950981242,-4.59145798522,6.18045625384,6759019.922,1.26836287786,6.966056261471541E-8,-0.13100013764951418,-3.025234223515938E-8,-0.7582452848779269,-0.44541615112807603,2.1294737648371034,0.0,-0.0011222300308754611,0.0,379682.190273,4.81839012849E-12,999.138319296,-4.1695108603,-4.59145575463,6.18045717461
3420.0,4636070.1947,-1724598.42718,-4593934.18627,3013568.74223,3919546.37057,-4596430.96085,-3443.46811654,6209.33235685,2950.52917073,-3.9046048105,-5.0784604494,5.9554799755,6759019.65392,1.27273814695,6.801449148641415E-8,-0.12996142177766865,-3.511653116684788E-8,-0.7820442474068974,-0.49376129409043906,2.1820408922694527,0.0,-0.0011222300308754611,0.0,382464.959924,4.47482926114E-12,993.401998943,-3.90460585408,-5.07845846998,5.95548095056
3480.0,4913661.99248,-1434758.21973,-4406482.25464,2800099.24515,4282684.10534,-4408826.63042,-3669.35834416,5890.64107274,3300.42727077,-3.62228451007,-5.54019991516,5.70337860199,6759019.40525,1.27711341604,6.602005013905613E-8,-0.12899442947682477,-3.9839531115879246E-8,-0.8094262268499344,-0.5408922778251732,2.2373813630152255,0.0,-0.0011222300308754611,0.0,385223.038378,4.15976869069E-12,987.910467178,-3.62228554094,-5.54019816907,5.70337961539
3540.0,5171028.78004,-1140606.47802,-4198516.80697,2573594.31902,4625885.30396,-4200697.87009,-3877.82259722,5545.05388508,3634.41909991,-3.32398311069,-5.97466862768,5.42550558441,6759019.17433,1.28148868513,6.368628798386162E-8,-0.12809962746268524,-4.439263787552172E-8,-0.8407086294148695,-0.5865936672669928,2.295896650205524,0.0,-0.0011222300308754611,0.0,387954.851524,3.87107486148E-12,982.675324711,-3.32398412194,-5.97466709754,5.42550662241
3600.0,5407048.06934,-843333.463169,-3971036.972,2335127.40116,4947586.43515,-3973044.58499,-4067.94650267,5174.26342637,3951.00161761,-3.01119260783,-6.38001321869,5.12331958537,6759018.95966,1.28586395422,6.102424492107068E-8,-0.12727714401380855,-4.874899409671614E-8,-0.8762360914513222,-0.6306191339198035,2.3580090159721405,0.0,-0.0011222300308754611,0.0,390659.580617,3.60672202546E-12,977.709167397,-3.0111935939,-6.38001188773,5.12332063623
3660.0,5620689.36611,-544130.090598,-3725129.33198,2085824.07495,5246328.76655,-3726954.17833,-4238.90672182,4780.06876413,4248.76221566,-2.68545403499,-6.75454000964,4.79837471602,6759018.75985,1.2902392233,5.804678268423965E-8,-0.12652677104174376,-5.288360321545428E-8,-0.9163699115274581,-0.6726873660964797,2.4241517772227263,0.0,-0.0011222300308754611,0.0,393336.942151,3.36480153725E-12,973.024768367,-2.68545499148,-6.75453886181,4.79837576977
3720.0,5811018.26976,-244183.177577,-3461962.33485,1826856.52467,5520764.46072,-3463595.95957,-4389.97363312,4364.36568926,4526.38414995,-2.34834884073,-7.09671916483,4.45231069338,6759018.5736,1.29461449239,5.47684741982348E-8,-0.12584796771276346,-5.677332909917515E-8,-0.961470237109205,-0.7124786350952624,2.4947522326729636,0.0,-0.0011222300308754611,0.0,395986.960015,3.14352620084E-12,968.634288865,-2.34834976425,-7.0967181849,4.45231174166
3780.0,5977200.11939,55329.180231,-3182780.3985,1559437.84488,5769662.0816,-3184215.24441,-4520.51350313,3929.13678839,4782.65138154,-2.00149046051,-7.4051877521,4.08684300508,6759018.39975,1.29898976148,5.120544063267546E-8,-0.12523986555748964,-6.039690402187246E-8,-1.0118685262962939,-0.749632852328906,2.570204785858193,0.0,-0.0011222300308754611,0.0,398609.735219,2.94123142545E-12,964.54857117,-2.00149134854,-7.4051869257,4.08684404095
3840.0,6118503.18105,353242.087054,-2888897.74222,1284816.23445,5991911.50048,-2890127.18192,-4629.99015888,3476.44136366,5016.4528298,-1.64651613485,-7.67875177719,3.70375315971,6759018.23722,1.30336503057,4.7375230501405805E-8,-0.12470127499423612,-6.373493153236878E-8,-1.0678280504331095,-0.7837503289757446,2.650832041639663,0.0,-0.0011222300308754611,0.0,401205.21845,2.75637415509E-12,960.776535019,-1.64651698561,-7.67875109087,3.70375417746
3900.0,6234301.37386,648408.165988,-2581691.9806,1004269.1049,6186528.19409,-2582710.34403,-4717.96617791,3008.40525941,5226.7860449,-1.28507901638,-7.91638726551,3.30487909173,6759018.085,1.30774029966,4.329667312098579E-8,-0.12423069319328787,-6.676988224562848E-8,-1.1294915110967922,-0.8143968197560832,2.7368329602217183,0.0,-0.0011222300308754611,0.0,403772.990605,2.58753012485E-12,957.324679514,-1.28507982871,-7.91638670673,3.30488008675
3960.0,6324076.53509,939701.706421,-2262597.51426,719097.131293,6352656.93077,-2263400.11175,-4784.10361416,2527.21065064,5412.76031068,-0.91884059982,-8.11724046932,2.89210578029,6759017.94219,1.31211556874,3.8989769904953003E-8,-0.12382631320497287,-6.948610369706131E-8,-1.1968178447584055,-0.8411146295530593,2.828220151590752,0.0,-0.0011222300308754611,0.0,406312.056203,2.43338980208E-12,954.196681898,-0.918841373089,-8.11724002645,2.8921067489
4020.0,6387420.22613,1226022.62949,-1933098.75121,430618.273048,6489574.84421,-1933681.892,-4828.16428009,2035.08584319,5573.5991924,-0.549463500583,-8.28062728216,2.46735613123,6759017.80796,1.31649083783,3.447554066977969E-8,-0.12348603426984557,-7.186981984684885E-8,-1.2695153353990374,-0.8634413095785558,2.9247534383878553,0.0,-0.0011222300308754611,0.0,408820.654306,2.292753286E-12,951.393079647,-0.549464234588,-8.28062694446,2.46735707057
4080.0,6424035.08322,1506300.26302,-1594723.1916,140161.790557,6596693.89657,-1595084.19778,-4850.00960636,1534.29513081,5708.64254629,-0.178604599384,-8.40603194306,2.03258216203,6759017.68154,1.32086610692,2.977591030383768E-8,-0.12320747323401297,-7.390912822214238E-8,-1.3469846107858312,-0.8809364400317705,3.0258832704844236,0.0,-0.0011222300308754611,0.0,411296.091143,2.16452440064E-12,948.911020558,-0.178605294276,-8.40603170067,2.03258306994
4140.0,6433735.71832,1779496.91889,-1249034.40758,-150937.717626,6673562.73585,-1249171.62346,-4849.60010154,1027.12874917,5817.34801007,0.192091437184,-8.49310511332,1.58975651969,6759017.56223,1.32524137601,2.4913580910162368E-8,-0.12298797698635082,-7.559399725211967E-8,-1.428290536351192,-0.8932150022239363,3.130723011666904,0.0,-0.0011222300308754611,0.0,413734.59817,2.04770419161E-12,946.744065244,0.192090780972,-8.49310495719,1.5897573946
4200.0,6416449.17697,2044611.26759,-897624.948744,-441346.233761,6719867.9542,-897537.745706,-4826.99443429,515.892962125,5899.29199503,0.560998257276,-8.54166140638,1.14086435257,6759017.44939,1.3296166451,1.9911906053036696E-8,-0.12282463584011746,-7.691625879867393E-8,-1.5121822731221788,-0.8999831605437207,-3.0451159362124183,0.0,-0.0011222300308754611,0.0,416131.218758,1.94138401071E-12,944.88202658,0.560997639089,-8.54166132826,1.1408651934
4260.0,6372214.96104,2300681.50604,-542109.202504,-729736.174071,6735434.75622,-541797.979231,-4782.34816086,2.90031057034,5954.17020143,0.926513549143,-8.55167644841,0.687895548399,6759017.34241,1.33399191418,1.4794778649087928E-8,-0.12271429777902945,-7.786960380234087E-8,-1.5971719738118804,-0.9010698719721913,-2.936703848851224,0.0,-0.0011222300308754611,0.0,418479.726073,1.84473833771E-12,943.310830375,0.926512968157,-8.55167644082,0.687896354485
4320.0,6301184.62512,2546788.31597,-184116.237158,-1014792.15545,6720227.04773,-183582.415457,-4715.91212017,-509.539950037,5981.79767929,1.2870644004,-8.52328354292,0.232837342863,6759017.24076,1.33836718327,9.586507926025968E-9,-0.12265358349327292,-7.84495763268863E-8,-1.6816650560937023,-0.8964470430177564,-2.8287738983460913,0.0,-0.0011222300308754611,0.0,420772.574084,1.75701934217E-12,942.012601328,1.28706385567,-8.52328359907,0.232838113895
4380.0,6203620.95639,2782057.61166,174717.345606,-1295216.65646,6674346.95692,175471.329446,-4628.03051782,-1019.1312019,5982.10845667,1.64111230537,-8.45677000715,-0.222332704253,6759017.14394,1.34274245236,4.311728336649867E-9,-0.12263890212935487,-7.865355668773174E-8,-1.7641156712061359,-0.8862329656690683,-2.722825108390036,0.0,-0.0011222300308754611,0.0,423000.882935,1.67763119558E-12,940.975432694,1.64111179583,-8.45677012092,-0.222331968283
4440.0,6079896.74785,3005663.07653,532754.523574,-1569735.55454,6598033.80124,533725.231766,-4519.13871994,-1523.598589,5955.15475745,1.98715783863,-8.35257324205,-0.675653374751,6759017.05145,1.34711772145,-1.0047382177278115E-9,-0.12266646768432982,-7.848076960875082E-8,-1.8431705215545071,-0.8706780890887347,-2.620163494742613,0.0,-0.0011222300308754611,0.0,425154.459233,1.60613958549E-12,940.197150998,1.98715736314,-8.35257340798,-0.675652673555
4500.0,5930493.17581,3216828.48929,888364.908233,-1837103.52261,6491662.51399,889547.918747,-4389.76077599,-2020.69789879,5901.10582945,2.32374501648,-8.21127659086,-1.12518611452,6759016.96287,1.35149299054,-6.337986559343073E-9,-0.12273231597371628,-7.793227206797081E-8,-1.9177690958356035,-0.8501369484584502,-2.5218014744176567,0.0,-0.0011222300308754611,0.0,427221.851108,1.54214914797E-12,939.672259389,2.32374457382,-8.2112768041,-1.12518544758
4560.0,5755997.79228,3414829.84083,1239931.71761,-2096109.26945,6355741.54553,1241321.64558,-4240.50668868,-2508.22419031,5820.24640306,2.64946537041,-8.03360503378,-1.56902103282,6759016.87776,1.35586825962,-1.1663112110629709E-8,-0.12283232210817668,-7.701091403778734E-8,-1.987185566277233,-0.8250331024592595,-2.4284156009646516,0.0,-0.0011222300308754611,0.0,429190.437214,1.485296259E-12,939.391123047,2.64946495936,-8.0336052901,-1.56902039946
4620.0,5557102.14345,3598997.24404,1585858.6461,-2345580.60896,6190910.25476,1587449.16929,-4072.06944747,-2984.02016003,5712.97479904,2.96296175862,-7.8204207588,-2.00528260204,6759016.79571,1.36024352871,-1.6955330912640514E-8,-0.12296221841612903,-7.572129400507394E-8,-2.05101696052792,-0.7958242030512696,-2.340358007859596,0.0,-0.0011222300308754611,0.0,431046.548216,1.43524917614E-12,939.340001079,2.96296137798,-7.82042105452,-2.00528200146
4680.0,5334599.02542,3768716.63891,1924576.61086,-2584389.34488,5997935.80654,1926360.49904,-3885.22184059,-3445.9842391,5579.80070256,3.26293194252,-7.57271864068,-2.43213508455,6759016.71635,1.3646187978,-2.2190072190565137E-8,-0.12311761275137788,-7.406972433198147E-8,-2.109134718158562,-0.7629723965744901,-2.2577044440675422,0.0,-0.0011222300308754611,0.0,432775.618683,1.39170360194E-12,939.500455128,3.26293159113,-7.57271897266,-2.43213451591
4740.0,5089379.38834,3923431.29578,2254550.35507,-2811455.95778,5777709.59152,2256519.50319,-3680.81305878,-3892.0784172,5421.34261923,3.54813195556,-7.29162165234,-2.84778771563,6759016.63931,1.36899406689,-2.734309392181825E-8,-0.12329400712886761,-7.206415848268951E-8,-2.161619603896322,-0.7269225276861826,-2.180318923499005,0.0,-0.0011222300308754611,0.0,434362.366775,1.3543600815E-12,939.846070085,3.54813163235,-7.29162201794,-2.84778717808
4800.0,4822428.90009,4062643.11996,2574284.88959,-3025754.08241,5531243.18486,2576430.35459,-3459.76510248,-4320.33578942,5238.32502667,3.8173792914,-6.97837622491,-3.25049967239,6759016.56422,1.37336933598,-3.2390535898656485E-8,-0.12348681663323047,-6.971414215069674E-8,-2.208695936689457,-0.6880882942992024,-2.1079190221406012,0.0,-0.0011222300308754611,0.0,435790.998638,1.32296568785E-12,940.348288602,3.81737899541,-6.97837662193,-3.25049916512
4860.0,4534824.18071,4185913.76104,2882331.75499,-3226314.76381,5259663.86048,2884643.79609,-3223.06900255,-4728.8678235,5031.57523353,4.06955593747,-6.63434756484,-3.63858485955,6759016.49076,1.37774460506,-3.730905364943871E-8,-0.12369138854742047,-6.70308072632659E-8,-2.2506746269078324,-0.646845110070241,-2.0401323228233648,0.0,-0.0011222300308754611,0.0,437045.433994,1.29788951563E-12,941.063041691,4.06955566774,-6.63434799168,-3.63858438162
4920.0,4227728.7187,4292865.53016,3177295.08677,-3412230.48128,4964209.67769,3179763.2091,-2971.7808629,-5115.87134484,4802.01995622,4.30361127797,-6.26101492972,-4.01041654139,6759016.41853,1.38211987415,-4.207587375715081E-8,-0.12390302165064461,-6.402686317361961E-8,-2.2879087744686117,-0.6035279206508474,-1.9765402458158763,0.0,-0.0011222300308754611,0.0,438109.549103,1.27955757415E-12,942.05128315,4.30361103359,-6.26101538545,-4.01041609176
4980.0,3902388.48015,4383182.12868,3457837.46714,-3582658.92976,4646224.15736,3460450.4685,-2707.01773239,-5479.63523668,4550.68162157,4.51856488885,-5.85996685658,-4.36443184953,6759016.34715,1.38649514324,-4.666889681253856E-8,-0.12411698563567428,-6.071650113418365E-8,-2.3207618103814966,-0.5584322841649166,-1.9167092731311035,0.0,-0.0011222300308754611,0.0,438967.43299,1.26836354373E-12,943.362613561,4.51856466905,-5.85996734089,-4.3644314272
5040.0,3560127.22203,4456609.19151,3722685.54701,-3736826.54855,4307150.56457,3725431.56762,-2429.95331171,-5818.54685221,4278.67440199,4.71350924434,-5.43289633006,-4.69913619352,6759016.27619,1.39087041233,-5.106678843285355E-8,-0.1243285405977153,-5.711525964321333E-8,-2.3495862844882307,-0.5118173564285697,-1.8602114518515993,0.0,-0.0011222300308754611,0.0,439603.652681,1.26473936883E-12,945.042313014,4.71350904854,-5.43289684328,-4.6991357976
5100.0,3202341.52075,4512954.64816,3970635.42249,-3874031.78761,3948525.81539,3973501.99749,-2141.81350012,-6131.09813464,3987.19998841,4.88761235235,-4.98159586868,-5.01310760069,6759016.20519,1.39524568142,-5.5249050473032025E-8,-0.12453295654544361,-5.3239960200096366E-8,-2.374710826509189,-0.46390980836260337,-1.8066366366717288,0.0,-0.0011222300308754611,0.0,440003.523054,1.27683711939E-12,947.134006742,4.88761217915,-4.98159641506,-5.01310722821
5160.0,2830495.52744,4552088.9044,4200557.75009,-3993648.10195,3571974.02528,4203531.86461,-1843.87178594,-6415.89143934,3677.5431044,5.04012032534,-4.50795252434,-5.30500099321,6759016.13326,1.3996209505,-5.919611666502551E-8,-0.12472553289074807,-4.9109658131757E-8,-2.396432938269896,-0.4149080425561194,-1.7555987983553427,0.0,-0.0011222300308754611,0.0,440153.376892,1.29062711028E-12,949.681303879,5.04012017581,-4.5079531027,-5.30500064594
5220.0,2446115.46166,4573944.84724,4411402.58538,-4095126.66488,3179199.71728,4414470.73202,-1537.44448423,-6671.6450523,3351.06676481,5.1703599116,-4.01394271929,-5.57355245313,6759016.06028,1.40399621959,-6.288942732155794E-8,-0.12490161786255122,-4.474217628690553E-8,-2.4150156964773637,-0.3649863337145999,-1.706738301739518,0.0,-0.0011222300308754611,0.0,440040.83073,1.31387666871E-12,952.728898812,5.17035978607,-4.01394333198,-5.57355213097
5280.0,2050783.85558,4578517.67556,4602203.92962,-4177998.79098,2771980.70846,4605352.16808,-1223.88582418,-6897.1983942,3009.20727926,5.27774096938,-3.50162695323,-5.81758344178,6759015.98611,1.40837148868,-6.631139467144334E-8,-0.12505662780142415,-4.015644710906953E-8,-2.4306869171786194,-0.3142986960843816,-1.6597215817962119,0.0,-0.0011222300308754611,0.0,439655.042206,1.33804180798E-12,956.32310063,5.27774086933,-3.50162759875,-5.81758314714
5340.0,1646133.56119,4565864.55845,4772083.96935,-4241878.05984,2352160.69377,4775297.98799,-904.582888992,-7091.51689992,2653.46900243,5.36175890487,-2.97314427281,-6.03600502751,6759015.90981,1.41274675777,-6.94455128397632E-8,-0.12518606628507906,-3.537391619285373E-8,-2.4436397514241253,-0.26298239579687677,-1.614239225754525,0.0,-0.0011222300308754611,0.0,438986.954698,1.38269249521E-12,960.511499653,5.36175883068,-2.97314495916,-6.03600475899
5400.0,1233841.53381,4536104.12309,4920256.99356,-4286462.13193,1921641.54721,4923522.17262,-580.95041155,-7253.69656156,2285.41883199,5.42199705148,-2.4307065491,-6.22782207921,6759015.83061,1.41712202686,-7.227647816789812E-8,-0.1252855430363937,-3.041602214596081E-8,-2.454034008768404,-0.21116109555569482,-1.5700031384067425,0.0,-0.0011222300308754611,0.0,438029.525258,1.44035536811E-12,965.341301668,5.421997005,-2.43070728096,-6.22782183824
5460.0,815622.40574,4489415.77378,5046032.9734,-4311534.24789,1482375.3609,5049334.44981,-254.425428495,-7382.96811768,1906.68045431,5.45812899806,-1.87659243288,-6.39213746791,6759015.7477,1.42149729594,-7.479018940167435E-8,-0.125350792552183,-2.5304499690399677E-8,-2.461997745449843,-0.1589476583204631,-1.5267432242007744,0.0,-0.0011222300308754611,0.0,436777.932046,1.51272013259E-12,970.855790998,5.45812898185,-1.87659321581,-6.39213725672
5520.0,393221.864932,4426038.84323,5148820.78942,-4316964.4029,1036356.24383,5152143.52269,73.5382029952,-7478.70087161,1518.92833916,5.46992083955,-1.31314101213,-6.52815623486,6759015.66019,1.42587256503,-7.697380817365446E-8,-0.1253776924061181,-2.006135528547178E-8,-2.4676288220446962,-0.10644665693635304,-1.4842038488242082,0.0,-0.0011222300308754611,0.0,435229.757713,1.60175492658E-12,977.088547285,5.46992085704,-1.31314185255,-6.52815605667
5580.0,-31590.1453899,4346271.57732,5228131.09114,-4302710.18815,585611.903155,5231459.93036,401.475420872,-7540.40611838,1123.88148529,5.45723333619,-0.742745106687,-6.63518972399,6759015.56707,1.43024783412,-7.88157571377296E-8,-0.1253622811636583,-1.4708677595015113E-8,-2.4709962473182445,-0.05375664596703389,-1.4421402272541461,0.0,-0.0011222300308754611,0.0,433385.145477,1.70968909679E-12,984.055591255,5.45723339182,-0.742746011886,-6.63518958321
5640.0,-457026.389198,4250469.95416,5283578.77434,-4268817.29143,132195.032194,5286898.52581,727.915700057,-7567.74015768,723.296919716,5.42002395611,-0.167844166345,-6.71265965463,6759015.46719,1.43462310321,-8.030575147527949E-8,-0.12530077585174967,-9.268422398769309E-9,-2.4721411995216616,-9.722550903383841E-4,-1.4003148094438722,0.0,-0.0011222300308754611,0.0,431246.924937,1.83896801652E-12,991.74661446,5.42002405552,-0.167845144357,-6.71265955714
5700.0,-881289.443848,4139046.33828,5314885.06116,-4215419.64971,-321825.469354,5318180.55652,1051.38891265,-7560.50686788,318.962955142,5.358348773,0.409083262497,-6.76010210669,6759015.35923,1.4389983723,-8.143480087839006E-8,-0.12518958891853854,-3.762184871867951E-9,-2.4710776627739666,0.05181383619228279,-1.3584936871751216,0.0,-0.0011222300308754611,0.0,428820.705005,1.99218443108E-12,1000.11758212,5.35834892315,0.409082203067,-6.7601020601
5760.0,-1302578.93024,4012467.97059,5321879.16891,-4142739.24676,-774373.415767,5325135.33343,1370.43129684,-7518.65981432,-87.3077882789,5.27236418549,0.985527532743,-6.77717138342,6759015.24175,1.44337364138,-8.219519649077635E-8,-0.12502534461660264,1.789026539460823E-9,-2.467792647619281,0.10450898345440574,-1.316443018012834,0.0,-0.0011222300308754611,0.0,426114.931719,2.17200192143E-12,1009.08760354,5.27236439484,0.985526383007,-6.77717139732
5820.0,-1719098.84567,3871255.29504,5304499.55355,-4051085.54964,-1223374.36749,5307701.47433,1683.59152265,-7442.30386336,-493.68558826,5.1623284211,1.55895638083,-6.76364371111,6759015.11312,1.44774891047,-8.258050149033498E-8,-0.12480489474302835,7.365006242643903E-9,-2.462245986125175,0.15701866331822625,-1.2739254496177,0.0,-0.0011222300308754611,0.0,423140.90907,2.38109337348E-12,1018.54226852,5.16232869971,1.55895513199,-6.76364379737
5880.0,-2129064.97655,3715980.12269,5262794.71458,-3940854.57872,-1666764.74457,5265927.70839,1989.43684056,-7331.69627214,-898.331041636,5.0286027838,2.12682391878,-6.71942072892,6759014.97158,1.45212417956,-8.25855279637061E-8,-0.12452533366215776,1.2946555609713432E-8,-2.4543697103185607,0.20924450198574565,-1.2306965274082642,0.0,-0.0011222300308754611,0.0,419912.781429,2.62211366266E-12,1028.34351641,5.02860314343,2.12682256258,-6.71942090186
5940.0,-2530712.36631,3547263.63449,5196923.54887,-3812527.60672,-2102500.98902,5199973.22931,2286.55929605,-7187.24722333,-1299.40268741,4.87165260112,2.686580146,-6.64453271644,6759014.81519,1.45649944865,-8.220628766128489E-8,-0.1241840125383997,1.8515656033753272E-8,-2.4440670442929555,0.2610821872644989,-1.1865010808427487,0.0,-0.0011222300308754611,0.0,416447.476598,2.89770989574E-12,1038.34352301,4.87165305525,2.6865786752,-6.64453299304
6000.0,-2922302.81234,3365774.22391,5107155.24173,-3666669.48331,-2528568.74182,5110107.58542,2573.58199092,-7009.51977345,-1695.06481417,4.69204782401,3.23568098423,-6.53914150168,6759014.64184,1.46087471774,-8.143992022649026E-8,-0.12377855270335729,2.405561712211798E-8,-2.4312110705849475,0.3124192043780961,-1.1410696104705609,0.0,-0.0011222300308754611,0.0,412764.60901,3.21055254261E-12,1048.39862024,4.69204838785,3.23567939316,-6.53914190168
6060.0,-3302132.36368,3172225.1815,4993868.68479,-3503926.58324,-2942991.99839,4996710.09635,2849.16536889,-6799.22918351,-2083.49543085,4.49046323118,3.7715988294,-6.40354298769,6759014.44929,1.46524998683,-8.028463372070346E-8,-0.12330685807541651,2.9551183295506115E-8,-2.415643177738733,0.3631323361129834,-1.0941147447812702,0.0,-0.0011222300308754611,0.0,408886.343142,3.56335837934E-12,1058.37975299,4.49046392167,3.77159711444,-6.40354353371
6120.0,-3668538.7899,2967372.22341,4857551.41169,-3325024.37723,-3343842.20469,4860268.78717,3112.01350043,-6557.24160146,-2462.89437605,4.26767818839,4.29183360331,-6.23816923284,6759014.23509,1.46962525591,-7.873965137135278E-8,-0.12276712655779332,3.498863050483966E-8,-2.3971714688450905,0.4130848708847026,-1.0453279103677204,0.0,-0.0011222300308754611,0.0,404837.217738,3.95887713395E-12,1068.17788055,4.26767902406,4.29183176353,-6.23816995037
6180.0,-4019908.98941,2752010.86701,4698798.04406,-3130764.62645,-3729247.254,4701378.83247,3360.88033847,-6284.5720672,-2831.49153709,4.02457591326,4.79392427717,-6.04359001687,6759013.99664,1.474000525,-7.680514315570503E-8,-0.12215786032934399,4.035580461754695E-8,-2.3755694212332346,0.46212347125243924,-0.9943764729859594,0.0,-0.0011222300308754611,0.0,400643.932084,4.39982442907E-12,1077.70473563,4.02457691412,4.79392231492,-6.04359093425
6240.00000001,-4354686.30407,2526973.65707,4518308.24209,-2922022.20332,-4097400.34311,4520740.50489,3594.57591407,-5982.38181301,-3187.55514584,3.76214219709,5.27546082625,-5.8205138238,6759013.73119,1.47837579409,-7.448213259975982E-8,-0.12147787495099506,4.5642112499104663E-8,-2.3505752533875377,0.5100746752040791,-0.9409017756637871,0.0,-0.0011222300308754611,0.0,396335.096151,4.88875611072E-12,1086.89050145,3.76214338441,5.27545874792,-5.82051497205
6300.00000001,-4671377.70551,2293127.24701,4316884.1564,-2699741.54324,-4446568.64464,4319156.62445,3811.97243779,-5651.97483504,-3529.40011434,3.48146353737,5.73409656305,-5.56978817239,6759013.43581,1.48275106318,-7.177241873515396E-8,-0.1207263072078567,5.083845885847341E-8,-2.3218926916532174,0.5567410408949324,-0.8845187404619992,0.0,-0.0011222300308754611,0.0,391940.947113,5.42788784275E-12,1095.68012229,3.48146493332,5.73409437976,-5.56978958493
6360.00000001,-4968560.81682,2051369.34044,4095427.37977,-2464932.73393,-4775101.75132,4097529.50765,4012.0102704,-5294.79371511,-3855.39636898,3.18372463758,6.16756078274,-5.29239922624,6759013.10745,1.48712633227,-6.867851668483758E-8,-0.11990262160952701,5.593707976218759E-8,-2.289194154031049,0.6018970136347614,-0.8248180281727289,0.0,-0.0011222300308754611,0.0,387493.035402,6.01886809842E-12,1104.02952429,3.18372626475,6.16755851115,-5.29240093838
6420.00000001,-5244890.73252,1802625.49949,3854935.40029,-2218667.25143,-5081439.84673,3856857.41756,4193.70372349,-4912.41467632,-4163.97713795,2.87020523567,6.57367164239,-4.98947061815,6759012.74299,1.49150160135,-6.520360917206798E-8,-0.11900661547161805,6.093128765658693E-8,-2.252127782667429,0.6452847067916787,-0.7613721674969005,0.0,-0.0011222300308754611,0.0,383023.884117,6.66251437623E-12,1111.90244399,2.87020711643,6.57366930547,-4.98947266644
6480.00000001,-5499106.59838,1547845.82704,3596497.56023,-1962073.35427,-5364121.55595,3598230.51941,4356.14664887,-4506.54186113,-4453.64714316,2.54227622791,6.95034918229,-4.66226142782,6759012.33927,1.49587687044,-6.135150198362131E-8,-0.11803842251235595,6.581509562600479E-8,-2.210330228757665,0.6866099639663257,-0.6937475399130256,0.0,-0.0011222300308754611,0.0,378566.626272,7.35852388817E-12,1119.26810054,2.54227838363,6.95034681002,-4.66226384907
6540.00000001,-5730037.91218,1288001.53155,3321290.52775,-1696331.14955,-5621791.42953,3322826.34875,4498.51777354,-4079.00082654,-4722.99064392,2.20139506187,7.29562838565,-4.31216325772,6759011.89317,1.50025213953,-5.7126611927195276E-8,-0.11699851489321979,7.058271301635078E-8,-2.1634475191789138,0.7255393244978586,-0.6215245344985492,0.0,-0.0011222300308754611,0.0,374154.62499,8.10517242718E-12,1126.09967164,2.20139751195,7.29562601555,-4.31216608779
6600.00000001,-5936610.50607,1024081.38399,3030573.29211,-1422667.34779,-5853207.01367,3031904.80283,4620.08573591,-3631.73125728,-4970.67927698,1.84910038013,7.60767216172,-3.94069635948,6759011.40172,1.50462740862,-5.2534010040699995E-8,-0.11588770364794354,7.522791185057258E-8,-2.1111664825570795,0.7616988511070907,-0.544328337263985,0.0,-0.0011222300308754611,0.0,369821.082312,8.89901884106E-12,1132.37340836,1.84910314083,7.60766983912,-3.94069963179
6660.00000001,-6117852.171,757088.077883,2725681.6963,-1142349.72562,-6057245.45986,2726802.66919,4720.21377781,-3166.77890553,-5195.47963464,1.48700590543,7.88478412674,-3.54950477228,6759010.86218,1.50900267771,-4.7579482944595413E-8,-0.11470713744647393,7.974329215185513E-8,-2.0532586723973028,0.7946761650237044,-0.4618722808310451,0.0,-0.0011222300308754611,0.0,365598.642789,9.73463698055E-12,1138.06819103,1.48700898869,7.88478190478,-3.5495085161
6720.00000001,-6272897.88417,488034.504309,2408022.52452,-856681.318465,-6232909.6282,2408927.70886,4798.3640469,-2686.28677308,-5396.26052082,1.11679356826,8.12542104884,-3.14035044554,6759010.2722,1.51337794679,-4.2269671421732104E-8,-0.11345829964990181,8.411943193075018E-8,-1.9896369042150988,0.8240273690371872,-0.37401386181170687,0.0,-0.0011222300308754611,0.0,361518.998427,1.06044011389E-11,1143.16533729,1.11679698037,8.12541898793,-3.14035468404
6780.00000001,-6400994.60121,217939.955357,2079067.16579,-566994.367847,-6379333.63935,2079752.31541,4854.10146429,-2192.48556049,-5571.99982356,0.740205888521,8.3282048156,-2.71510632999,6759009.62995,1.51775321588,-3.6612262536213964E-8,-0.11214300362477672,8.834400005979943E-8,-1.9204208305059611,0.849290618026923,-0.2808198404670666,0.0,-0.0011222300308754611,0.0,357612.501807,1.14983535003E-11,1147.64849069,0.740209628827,8.32820298246,-2.71511107824
6840.00000001,-6501505.57576,-52173.7296636,1740344.87835,-274644.050851,-6495787.83241,1740806.77472,4887.09711318,-1687.68341606,-5721.79094203,0.359037634864,8.49193377838,-2.27574843514,6759008.93423,1.52212848497,-3.0616233582431117E-8,-0.11076338629271912,9.240085169032706E-8,-1.846002298404021,0.8700076132783615,-0.18263115978046443,0.0,-0.0011222300308754611,0.0,353907.794366,1.24041804385E-11,1151.5033915,0.359041694609,8.49193224445,-2.27575369808
6900.00000001,-6573914.17086,-321286.059639,1393435.68361,18997.9783495,-6581683.08765,1393672.15402,4897.13110636,-1174.25502662,-5844.8487061,-0.0248732028293,8.6155933247,-1.82434686527,6759008.18465,1.52650375406,-2.4292175890236415E-8,-0.10932189990625427,9.626921796291425E-8,-1.7670947509821782,0.8857529413263726,-0.08011193790655993,0.0,-0.0011222300308754611,0.0,350431.456755,1.33073368323E-11,1154.71785342,-0.0248688414833,8.615592164,-1.82435263587
6960.00000001,-6617827.12873,-588381.812062,1039962.92177,312550.202357,-6636574.4762,1039972.85255,4884.09489245,-654.630100847,-5940.51472825,-0.409655079834,8.69836553031,-1.36305586164,6759007.38174,1.53087902315,-1.7652637065336766E-8,-0.10782130205278813,9.99230241487992E-8,-1.6847467526951019,0.8961688839083868,0.02573739177391408,0.0,-0.0011222300308754611,0.0,347207.688008,1.41913638643E-11,1157.28253211,-0.409650444426,8.69836481673,-1.36306211938
7020.00000001,-6632977.26775,-852454.960876,681585.504944,604627.975031,-6660164.20204,681368.849485,4847.99296463,-131.281304668,-6008.26212914,-0.793413141538,8.73963774519,-0.894102894803,6759006.52706,1.53525429223,-1.0712549961413037E-8,-0.10626464390417815,1.0333045809051603E-7,-1.6003022577459534,0.9010005952779264,0.13362018048749885,0.0,-0.0011222300308754611,0.0,344258.019845,1.50383814203E-11,1159.19145491,-0.793408269479,8.73963754937,-0.894109604702
7080.00000001,-6619225.5787,-1112512.59333,319989.907063,893850.339741,-6652303.80526,319547.688655,4788.94393901,393.288282933,-6047.6995817,-1.1742399746,8.73900997351,-0.419776866797,6759005.62326,1.53962956132,-3.4896240352807766E-9,-0.10465525674261689,1.0645385451222172E-7,-1.51530238754979,0.9001245624998307,0.24204214250254724,0.0,-0.0011222300308754611,0.0,341601.071869,1.58297401256E-11,1160.44219213,-1.17423491281,8.73901035942,-0.41978397909
7140.00000001,-6576562.69572,-1367578.79675,-43118.0671279,1178846.8927,-6612995.60033,-43783.7577557,4707.18097485,916.558117457,-6058.57462253,-1.55022678047,8.69630091645,0.0575845004694,6759004.67411,1.54400483041,3.995208486302789E-9,-0.10299673680907967,1.0924997509372842E-7,-1.4313427302856523,0.8935634373664488,0.3494544048436992,0.0,-0.0011222300308754611,0.0,339252.352651,1.65468062727E-11,1161.03578741,-1.55022158445,8.69630193795,0.0575770498626
7200.00000001,-6505109.72096,-1616698.49557,-406021.688527,1458264.65118,-6542393.32728,-406907.700997,4603.05151398,1436.00345586,-6040.77618445,-1.91947487687,8.61155255832,0.535607998932,6759003.68452,1.5483800995,1.1717424730170724E-8,-0.10129292853542297,1.1167069169779054E-7,-1.3499176292320088,0.8814832650486611,0.45440956642810426,0.0,-0.0011222300308754611,0.0,337224.110778,1.7171833207E-11,1160.97652496,-1.91946960919,8.61155425589,0.535600287079
7260.00000001,-6405118.38661,-1858941.21867,-767001.837715,1730774.88528,-6440801.99974,-768103.975113,4477.01632294,1949.1088523,-5994.33630998,-2.28010742345,8.48503319106,1.01189888344,6759002.66038,1.55275536859,1.96486121956496E-8,-0.09954790623745124,1.1366411286983203E-7,-1.2722884101621394,0.8641738706425068,0.5556938214381083,0.0,-0.0011222300308754611,0.0,335525.238894,1.76888570874E-11,1160.27160877,-2.28010215169,8.48503558907,1.01189099823
7320.00000001,-6276970.54219,-2093404.77681,-1124345.6164,1995079.87094,-6308676.93865,-1125658.65369,4329.64782757,2453.38178633,-5919.43101238,-2.63028125976,8.31723878946,1.48405531593,6759001.6085,1.55713063767,2.7756239507604287E-8,-0.09776595435848802,1.1517608101890347E-7,-1.1994025350018849,0.8420175459081493,0.6524081647875125,0.0,-0.0011222300308754611,0.0,334161.232579,1.80845453715E-11,1158.93082702,-2.63027605409,8.31724189412,1.4840473532
7380.00000001,-6121176.95995,-2319218.8302,-1476354.98438,2249919.52183,-6146621.98681,-1477872.69204,4161.62773694,2946.36632226,-5816.38025849,-2.96819873771,8.10889266892,1.94968317254,6759000.53642,1.56150590676,3.6003551625979525E-8,-0.09595154637340662,1.161520075350482E-7,-1.1318714846229203,0.8154532930515758,0.7439908821253904,0.0,-0.0011222300308754611,0.0,333134.204704,1.8348925048E-11,1156.9662703,-2.96819366819,8.10889646718,1.94967523254
7440.00000001,-5938375.45632,-2535548.32616,-1821355.36869,2494077.85732,-5955386.90564,-1823070.54152,3973.74396047,3425.65669538,-5685.6470558,-3.29211942626,7.86094337946,2.40641107123,6758999.45215,1.56588117585,4.434964305232645E-8,-0.0941093224676144,1.1653890002500794E-7,-1.069997409458439,0.7849432725168023,0.8301912912073944,0.0,-0.0011222300308754611,0.0,332442.954584,1.84759255211E-11,1154.39216121,-3.29211456005,7.860947839,2.40640325486
7500.00000001,-5729328.33266,-2741596.78782,-2157704.19111,2726389.26464,-5735863.96153,-2159608.68197,3766.88682983,3888.91071817,-5527.83563491,-3.6003715637,7.57456081303,2.85190547019,6758998.36398,1.57025644494,5.274963574288944E-8,-0.09224406612922043,1.1628747024566948E-7,-1.0138294291804992,0.7509457360009542,0.9110138594812524,0.0,-0.0011222300308754611,0.0,332083.090032,1.84636875933E-11,1151.22483687,-3.60036696249,7.57456588327,2.85189787509
7560.00000001,-5494919.14385,-2936609.43495,-2483799.2595,2945744.51385,-5489083.71594,-2485884.01799,3542.04464426,4333.86289936,-5343.68872794,-3.89136313344,7.25113052543,3.28388568157,6758997.28018,1.57463171403,6.11550470210454E-8,-0.09036067979401295,1.1535417671297933E-7,-0.9632304375246121,0.71389603199762,0.9866518482533656,0.0,-0.0011222300308754611,0.0,332047.199198,1.83146130497E-11,1147.48290599,-3.8913588511,7.25113613963,3.2838783984
7620.00000001,-5236148.80864,-3119876.11945,-2798086.96922,3151096.48595,-5216210.03964,-2800342.08496,3300.2985658,4758.33716936,-5134.08395252,-4.16359244097,6.89224629964,3.70013864291,6758996.20879,1.57900698311,6.951429324459389E-8,-0.08846415970172257,1.137030674474461E-7,-0.9179405969246164,0.6741952431676046,1.057424306117808,0.0,-0.0011222300308754611,0.0,332325.06793,1.80351555523E-11,1143.18758097,-4.16358852173,6.89225237781,3.70013175218
7680.00000001,-4954131.08114,-3290734.05872,-3099070.26141,3341465.57601,-4918534.37782,-3101485.01173,3042.81689773,5160.25910795,-4900.02932072,-4.41565807467,6.4997010023,4.09853328895,6758995.15734,1.5833822522,7.777329920212613E-8,-0.0865595701246651,1.1130728376029585E-7,-0.8776301812320846,0.6322049510440693,1.1237237614857667,0.0,-0.0011222300308754611,0.0,332903.937459,1.76353790008E-11,1138.36316486,-4.41565455191,6.49970745473,4.09852685841
7740.00000001,-4650087.40786,-3448570.35197,-3385316.28652,3515944.73544,-4597469.29901,-3387879.18837,2770.84878673,5537.66757399,-4642.65790154,-4.64626813988,6.07547580998,4.47703436944,6758994.13268,1.58775752129,8.587621931117175E-8,-0.0846520171389335,1.0815016418661594E-7,-0.8419395437457216,0.5882463486512888,1.1859768461721454,0.0,-0.0011222300308754611,0.0,333768.796326,1.71283305077E-11,1133.03765471,-4.64626503551,6.07548254115,4.47702845234
7800.00000001,-4325341.19997,-3592824.26544,-3655463.72333,3673704.12031,-4254541.36655,-3658162.58904,2485.71739529,5888.72564228,-4363.22167468,-4.85424866462,5.62172790546,4.83371556504,6758993.14081,1.59213279038,9.376631375376118E-8,-0.08274662211668629,1.0422596567966199E-7,-0.8105070603463328,0.5426021077730778,1.244617010755871,0.0,-0.0011222300308754611,0.0,334902.699835,1.65292889548E-11,1127.24340728,-4.85424598911,5.62173481797,4.83371019926
