time,gePosition_m_X,gePosition_m_Y,gePosition_m_Z,eiPosition_m_X,eiPosition_m_Y,eiPosition_m_Z,eiVelocity_m_s_X,eiVelocity_m_s_Y,eiVelocity_m_s_Z,eiAccel_m_s2_X,eiAccel_m_s2_Y,eiAccel_m_s2_Z,semiMajorAxis_m,gast_rad,eulerAngle_rad_Roll,eulerAngle_rad_Pitch,eulerAngle_rad_Yaw,eulerAngleWrtEi_rad_Roll,eulerAngleWrtEi_rad_Pitch,eulerAngleWrtEi_rad_Yaw,bodyAngularRateWrtEi_rad_s_Roll,bodyAngularRateWrtEi_rad_s_Pitch,bodyAngularRateWrtEi_rad_s_Yaw,altitudeMsl_m,airDensity_kg_m3,ambientTemperature_dgK,eiGravitation_m_s2_X,eiGravitation_m_s2_Y,eiGravitation_m_s2_Z
0.0,-1436381.48862739,4185811.47756286,5163944.85376219,-4315967.73999999,960356.199999999,5167269.52999999,129.091036999999,-7491.51385500001,1452.515654,5.46941405750337,-1.21701133999287,-6.54822724852127,6759053.07578959,1.02331933954551,1.0E-16,-0.202458193231342,-1.0E-16,-2.47159390556422,-0.0371889647578405,-1.42899313520436,0.0,-0.0011222300308759,0.0,434991.318347183,1.782E-12,992.872619628906,5.46941408349184,-1.21701227670638,-6.54822705894005
60.0,-1794950.05165291,3943125.7894345,5239239.79576883,-4298383.75503549,509016.727116377,5242568.01412846,456.873450719713,-7547.42168110528,1056.41305038074,5.45257917970871,-0.645696211275605,-6.65029456035477,6759052.98164509,1.02769460895833,-2.8646E-12,-0.202436059873263,-7.94733E-11,-2.47204519440808,0.0156059020283245,-1.38719418368879,0.0,-0.0011222300308759,0.0,433095.695533272,1.7272E-12,986.205200195312,5.45257924222384,-0.645697126732362,-6.65029442666584
120.0,-2147547.17990321,3685626.96882162,5290617.76692432,-4261177.84201422,55353.9750015452,5293934.33422529,782.910105527105,-7568.91560432829,655.073360789032,5.41122594498961,-0.0702924565363859,-6.72271302216242,6759052.8806368,1.03206987837114,-1.05267E-11,-0.202367189725512,-1.367883E-10,-2.4702868220478,0.0683734663492681,-1.34532626635133,0.0,-0.0011222300308759,0.0,430907.147995731,1.8587E-12,994.001220703125,5.41122605219749,-0.0702934453163919,-6.72271293292036
180.0,-2492684.24884739,3414408.65776434,5317818.15724615,-4204498.85074544,-398561.348213472,5321107.91715365,1105.73158735983,-7555.82466958428,250.28942885147,5.34542722604815,0.506715621520524,-6.76503838976109,6759052.77140344,1.03644514778395,-2.14154E-11,-0.202248028919585,-1.68587E-10,-2.46629730751522,0.121020701499671,-1.30315482430807,0.0,-0.0011222300308759,0.0,428431.765927847,2.0149E-12,1002.46813964843,5.34542738511692,0.506714550537144,-6.76503835278077
240.0,-2828892.47524573,3130615.39746072,5320688.58793888,-4128583.60460241,-850652.767754475,5323936.48925895,1423.87586404479,-7508.1279077046,-156.122794825929,5.25535647937499,1.08281409525298,-6.776945284303,6759052.65243749,1.04082041719676,-3.36689E-11,-0.202075238189054,-1.706873E-10,-2.46002784010144,0.173452091771061,-1.26044066321393,0.0,-0.0011222300308759,0.0,425678.483223286,2.1986E-12,1011.51983642578,5.25535669902253,1.08281293288501,-6.77694530947787
300.0,-3154729.00794336,2835438.18066719,5299186.08179787,-4033756.27563903,-1298847.0897737,5302377.24663136,1735.89436562031,-7425.95586359774,-562.331494558642,5.14128921233179,1.65546789303525,-6.75823084349499,6759052.52206426,1.04519568660958,-4.50739E-11,-0.201845708497466,-1.380214E-10,-2.45140153205805,0.225567630798514,-1.21693635378426,0.0,-0.0011222300308759,0.0,422659.09189066,2.4127E-12,1021.03753662109,5.14128950295166,1.65546663017833,-6.75823094306232
360.0,-3468783.02471027,2530109.82504351,5253377.7929018,-3920427.3924023,-1741083.52488452,5256497.58437412,2040.35814484943,-7309.59159514104,-966.496445310683,5.00360418429726,2.22212987706982,-6.70881817207896,6759052.37843976,1.04957095602238,-5.30012E-11,-0.201556575937561,-6.45397E-11,-2.44031230013045,0.277260684707744,-1.17238261416931,0.0,-0.0011222300308759,0.0,419388.217863101,2.6601E-12,1030.88061523437,5.00360455804651,2.22212850515608,-6.70881836085178
420.0,-3769681.81270985,2215900.17824006,5183441.28319321,-3789092.47612996,-2175322.85497777,5186475.37247195,2335.86410078686,-7159.47111179855,-1366.77666758563,4.84278429964902,2.78025044243898,-6.62875952084464,6759052.2195479,1.0539462254352,-5.43127E-11,-0.201205235827201,5.68497E-11,-2.42662344889344,0.328415660266557,-1.12650470862728,0.0,-0.0011222300308759,0.0,415883.257315781,2.9435E-12,1040.90124511718,4.84278477050794,2.78024895390884,-6.62875981640734
480.0,-4056096.80869941,1894111.16650228,5089664.33452343,-3640330.30213265,-2599556.60876277,5092598.76683236,2621.04124551004,-6976.18322159304,-1761.33826347183,4.65941714558336,3.3272876390981,-6.51823913602127,6759052.0431959,1.05832149484801,-4.52936E-11,-0.200789355925192,2.342994E-10,-2.41016608239322,0.378905419131052,-1.0790089514122,0.0,-0.0011222300308759,0.0,412164.273102307,3.266E-12,1050.95715332031,4.65941772937139,3.32728602794034,-6.51823955888081
540.0,-4326749.57360816,1566071.69964483,4972444.28592613,-3474800.78443908,-3011816.20959609,4975265.54526108,2894.55699124908,-6760.46875524041,-2148.36241221244,4.45419512605547,3.860717808919,-6.37757571668797,6759051.84700954,1.06269676426082,-2.1561E-11,-0.200306888688446,4.770403E-10,-2.39073755366847,0.428588383753787,-1.0295794903433,0.0,-0.0011222300308759,0.0,408253.851456261,3.6305E-12,1060.92248535156,4.4541958404067,3.86071607124318,-6.3775762903766
600.0,-4580417.67473248,1233132.44641494,4832286.88729409,-3293242.48323689,-3410182.05731036,4834981.95954439,3155.12343219974,-6513.21913705135,-2526.05349982526,4.22791514232234,4.37804671903052,-6.20722441450583,6759051.62842779,1.06707203367362,2.20183E-11,-0.199756082490663,7.953492E-10,-2.36810028788343,0.477305292218567,-0.977875673880674,0.0,-0.0011222300308759,0.0,404176.919673109,4.0402E-12,1070.69116210937,4.22791600662152,4.37804485366189,-6.2072251656343
660.0,-4815940.44746099,896660.495508595,4669804.66228128,-3096469.73627404,-3792792.50397217,4672361.0964599,3401.50359233145,-6235.47427367358,-2892.64735328063,3.98147777074024,4.87682116107504,-6.00777830778804,6759051.38470137,1.07144730308643,9.14065E-11,-0.199135491722174,1.2004655E-9,-2.34198150063524,0.524875583926532,-0.923530494777539,0.0,-0.0011222300308759,0.0,399960.526090979,4.498E-12,1080.177734375,3.98147880596923,4.87681917026419,-6.00777926600213
720.0,-5032224.60722732,558033.918810911,4485714.77514367,-2885369.41719524,-4157852.68182448,4488120.74242986,3632.51760756825,-5928.41973392643,-3246.41954562293,3.71588588951345,5.35464097406631,-5.7799692806463,6759051.11289805,1.07582257249925,1.93482E-10,-0.198443985690714,1.7044925E-9,-2.31207459618589,0.571093444366567,-0.866150869914831,0.0,-0.0011222300308759,0.0,395633.584320955,5.0068E-12,1089.31481933593,3.71588711801465,5.35463886423692,-5.77997047847721
780.0,-5228249.68131886,218636.254782716,4280836.39837239,-2660897.32577082,-4503643.14014782,4283080.74867276,3847.04880788794,-5593.38319590686,-3585.69373426382,3.43224270846238,5.80917143557223,-5.5246682381226,6759050.80991827,1.08019784191205,3.360943E-10,-0.197680756243906,2.320194E-9,-2.27804338383755,0.615723617558463,-0.805320872516,0.0,-0.0011222300308759,0.0,391226.584331736,5.569E-12,1098.04907226562,3.43224415356793,5.80916921815117,-5.52466971067096
840.0,-5403073.22927861,-120149.068711217,4056087.58036125,-2424074.21712379,-4828528.24645232,4058159.89609921,4044.04966222196,-5231.83014124129,-3908.84999056433,3.13174915919592,6.23815595325733,-5.24288458960425,6759050.47252495,1.08457311132487,5.281249E-10,-0.196845324036255,3.0607216E-9,-2.23953068907123,0.658497225379091,-0.740609474166256,0.0,-0.0011222300308759,0.0,386771.273660896,6.1865E-12,1106.33776855468,3.13175084471569,6.2381536455195,-5.24288637403176
900.0,-5555835.81995812,-456944.351463297,3812481.61498212,-2175981.47936166,-5130964.30633552,3814372.26183109,4222.54754661658,-4845.35878082844,-4214.33307484432,2.8157006077933,6.63942897570446,-4.93576493588263,6759050.09738929,1.08894838073768,7.795037E-10,-0.195937543366424,3.9392135E-9,-2.19617340961103,0.699108032028672,-0.671584830106973,0.0,-0.0011222300308759,0.0,382300.312691416,6.86E-12,1114.14501953125,2.81570255729861,6.63942660164322,-4.93576707062661
960.0,-5685765.73284543,-790383.255854442,3551122.91780555,-1917756.47145745,-5409507.35555483,3552823.0920888,4381.6502940077,-4435.69420166032,-4500.66060720332,2.48548285776038,7.01092902903872,-4.60459089957543,6759049.68115526,1.09332365015049,1.1012111E-9,-0.19495760551466,4.9682991E-9,-2.14762643769663,0.737209873135473,-0.597837514579706,0.0,-0.0011222300308759,0.0,377846.908583014,7.5891E-12,1121.44067382812,2.48548509371881,7.01092662009151,-4.60459342332227
1020.0,-5792183.35113494,-1119116.43634257,3273202.41678374,-1650587.53577621,-5662820.57741481,3274704.18927318,4520.55148223866,-4004.68173029238,-4766.43108110389,2.14256741826903,7.35071177345798,-4.25077604499927,6759049.2205244,1.0976989195633,1.5052167E-9,-0.193906040515549,6.1594451E-9,-2.09359785573929,0.772416327370403,-0.519015100770647,0.0,-0.0011222300308759,0.0,373444.433063014,8.3718E-12,1128.19848632812,2.14256996099793,7.35070936906366,-4.2507789953662
1080.0,-5874505.21415397,-1441817.13898048,2979992.46848674,-1375708.70228696,-5889681.29850068,2981288.82434444,4638.53541568536,-3554.27951521942,-5010.33166365233,1.7885060208101,7.65696296273198,-3.87586184130722,6759048.71236023,1.10207418897612,2.0044122E-9,-0.192783717307802,7.5221949E-9,-2.03389693995753,0.804304094033309,-0.434869608934642,0.0,-0.0011222300308759,0.0,369126.02984037,9.2041E-12,1134.39477539062,1.78850888720421,7.65696061067127,-3.87586525315911
1140.0,-5932247.69724275,-1757186.74533062,2672841.31442232,-1094394.10420212,-6088987.516142,2673926.18904203,4734.98175511194,-3086.5503377389,-5231.14572401216,1.42492437644182,7.92801117988838,-3.48151263182849,6759048.15381188,1.10644945838892,2.6124097E-9,-0.191591842210323,9.0632705E-9,-1.96849415270049,0.832421822232577,-0.345316993749399,0.0,-0.0011222300308759,0.0,364924.217886461,1.00798E-11,1140.00866699218,1.42492757864858,7.92800893616219,-3.48151653541162
1200.0,-5965030.28801966,-2063960.23418308,2353167.0955415,-807952.127517819,-6259763.91179882,2354035.40606354,4809.36975022641,-2603.65266876457,-5427.76002949641,1.05351517650708,8.16234021335763,-3.06950958398424,6759047.54245397,1.11082472780174,3.3433401E-9,-0.190331955682945,1.0785614E-8,-1.89758795589187,0.856306076248981,-0.250503494814382,0.0,-0.0011222300308759,0.0,360870.497202545,1.09903E-11,1145.02197265625,1.05351872050769,8.16233814161602,-3.06951400282211
1260.0,-5972578.42917215,-2360911.5336918,2022451.44669663,-517719.319647986,-6401167.30585872,2023099.11898687,4861.28202989226,-2107.83099739198,-5599.17154769501,0.676030350387791,8.35860093159824,-2.64174360607803,6759046.87643756,1.11519999721455,4.2115262E-9,-0.189005927340134,1.26873634E-8,-1.82166713533882,0.875505392693561,-0.150867532462575,0.0,-0.0011222300308759,0.0,356994.96394427,1.19245E-11,1149.41821289062,0.676034234620041,8.35859910198711,-2.64174855478583
1320.0,-5954725.89950834,-2646858.73594974,1682232.69653112,-225054.085017124,-6512491.5111402,1682656.68743544,4890.40790612532,-1601.40546569349,-5744.49379258555,0.2942726058379,8.51562250946222,-2.20020723116983,6759046.154646,1.11957526662736,5.231124E-9,-0.187615949197337,1.47608733E-8,-1.7415511375468,0.889611721282002,-0.0471796437191331,0.0,-0.0011222300308759,0.0,353325.941876981,1.28685E-11,1153.18408203125,0.294276819942308,8.51562099685408,-2.20021271329281
1380.0,-5911416.70698901,-2920669.14566041,1334098.7019925,68669.801945059,-6593171.54473219,1334297.01669988,4896.54614989668,-1086.76085309664,-5862.96265301984,-0.089913710481085,8.63242285752902,-1.74698548283776,6759045.37684571,1.12395053604017,6.4156364E-9,-0.18616452714181,1.69918302E-8,-1.65838836912135,0.898296021828842,0.0594595977066979,0.0,-0.0011222300308759,0.0,349889.637073448,1.38063E-11,1156.30712890625,-0.0899091866653133,8.63242173912242,-1.74699148888506
1440.0,-5842706.46983643,-3181264.13444963,979679.350318824,362069.833519855,-6642787.16066861,979651.054690544,4879.60719939328,-566.334962626891,-5953.94164333134,-0.474652382278585,8.70821810612036,-1.28424575312096,6759044.54382116,1.12832580545299,7.7774224E-9,-0.184654470633058,1.93585455E-8,-1.57359783702499,0.901342141266714,0.167678304848762,0.0,-0.0011222300308759,0.0,346709.822525877,1.47198E-11,1158.77880859375,-0.474647579272652,8.70821745844757,-1.28425225907495
1500.0,-5748763.2645769,-3427623.77251904,620638.764897477,653761.519976164,-6661065.66933903,620383.992645967,4839.61476476148,-42.6064701076314,-6016.92651811182,-0.858045660178317,8.74243099896882,-0.814226739319386,6759043.65748032,1.13270107486579,9.3271097E-9,-0.183088880651994,2.18315842E-8,-1.48875448812956,0.898671653795967,0.275948291265886,0.0,-0.0011222300308759,0.0,343807.558919174,1.55896E-11,1160.59375,-0.858040618961138,8.74243089447789,-0.814233705683588
1560.0,-5629867.92300175,-3658791.20979661,258667.254777644,942365.218218079,-6647884.01345984,258187.209406376,4776.70679746442,481.917694063401,-6051.54919648206,-1.23818509131111,8.73469805789089,-0.339226502185355,6759042.72091996,1.1370763442786,1.10730124E-8,-0.181471135932508,2.43737224E-8,-1.40543846448682,0.890353388948973,0.382736163904747,0.0,-0.0011222300308759,0.0,341200.957203917,1.63954E-11,1161.75,-1.23817986281031,8.73469856127453,-0.339233873812377
1620.0,-5486413.76350457,-3873876.77949548,-104526.949226247,1226512.9988427,-6603270.07485216,-105229.997781169,4691.13579719096,1004.7153528825,-6057.5809454309,-1.6131627561876,8.68487538895866,0.138410275572773,6759041.73844116,1.14145161369142,1.30205596E-8,-0.179804877524213,2.69403728E-8,-1.32508311261193,0.876595054569623,0.486655661784611,0.0,-0.0011222300308759,0.0,338904.987822901,1.71177E-11,1162.24877929687,-1.61315740011514,8.68487655349563,0.138402568741599
1680.0,-5318905.74604075,-4072061.7980606,-467226.126029805,1504855.51118437,-6527403.19115931,-468148.850084937,4583.26843471426,1523.26239535716,-6034.93477699954,-1.98108281664218,8.59304301291632,0.616305735909567,6759040.71550789,1.14582688310422,1.51717302E-8,-0.178093991750312,2.94804579E-8,-1.24885711271878,0.85771923976088,0.586585879597261,0.0,-0.0011222300308759,0.0,336931.340501739,1.77376E-11,1162.09521484375,-1.98107739976611,8.59304487710551,0.616297777252935
1740.0,-5127959.04401818,-4252602.03687054,-827711.615029107,1776068.80480413,-6420613.86694512,-828849.643162686,4453.58447514801,2035.04630207691,-5983.66702020029,-2.3400732697552,8.45950761757063,1.09206288836983,6759039.65864615,1.15020215251704,1.75246192E-8,-0.176342591639809,3.19377471E-8,-1.17760219101813,0.834129904159406,0.68173391824915,0.0,-0.0011222300308759,0.0,335288.337435974,1.82391E-11,1161.29663085937,-2.34006786355813,8.4595102023713,1.09205477199996
1800.0,-4914297.03072155,-4414830.84276117,-1184272.43562144,2038861.06514448,-6283382.66928995,-1185620.37197043,4302.67499260373,2537.57978642599,-5903.9780355125,-2.68829779453269,8.28480364762801,1.56328012650142,6759038.5752856,1.15457742192984,2.0073064E-8,-0.174554996928133,3.42526074E-8,-1.11182802207597,0.806276688012889,0.771640360705694,0.0,-0.0011222300308759,0.0,333980.901526667,1.86089E-11,1159.86315917968,-2.6882924725273,8.28480695454531,1.56327195400009
1860.0,-4678748.68234678,-4558161.88643874,-1535213.92331025,2291979.22073689,-6116338.30398023,-1536765.37208667,4131.23987421667,3028.41444964105,-5796.21204750497,-3.02396757269359,8.06969266739705,2.02756608394508,6759037.47354981,1.15895269134266,2.28064218E-8,-0.172735712734734,3.63640567E-8,-1.05175040534477,0.77462306776475,0.856141494719452,0.0,-0.0011222300308759,0.0,333010.580068893,1.88376E-11,1157.80737304687,-3.0239624074964,8.06969667762523,2.02755796051163
1920.0,-4422245.40431378,-4682091.52014455,-1878866.32898886,2534215.37944411,-5920254.87459885,-1880613.92411347,3940.0846187691,3505.15434469699,-5660.85607948198,-3.3453529606604,7.81516095383949,2.48255468630179,6759036.36200842,1.16332796075546,2.57095167E-8,-0.170889407039858,3.82120032E-8,-0.997352736796593,0.73962176709494,0.935308267671963,0.0,-0.0011222300308759,0.0,332375.623026051,1.89205E-11,1155.14331054687,-3.34534802104844,7.81516562857652,2.48254671659721
1980.0,-4145817.29218287,-4786200.72848731,-2213593.32729473,2764413.05175571,-5696048.33318671,-2215528.76701302,3730.11644257249,3965.4693421527,-5498.53798290738,-3.65079488810119,7.52241530107651,2.92592024762492,6759035.24940443,1.16770323016828,2.87627446E-8,-0.169020887095325,3.97395011E-8,-0.948452948061652,0.701698275210366,1.00937980788807,0.0,-0.0011222300308759,0.0,332071.113767263,1.88572E-11,1151.88793945312,-3.6507902363123,7.52242058297104,2.92591253168303
2040.0,-3850588.843146,-4870156.65915937,-2537800.37976588,2981473.12013904,-5444772.13757798,-2539914.46607903,3502.33971274708,4407.10819068845,-5310.02356358442,-3.93871585893938,7.19287704198216,3.35539245583873,6759034.14437535,1.17207849958109,3.19423323E-8,-0.167135074915628,4.08949043E-8,-0.904764166288617,0.661241595862654,1.0787032667267,0.0,-0.0011222300308759,0.0,332089.148949756,1.86519E-11,1148.06030273437,-3.93871154834762,7.19288285765249,3.35538508524073
2100.0,-3537774.13864499,-4933713.72325175,-2849942.89893144,3184359.51487886,-5167612.13692161,-2852225.58164298,3257.85073541807,4827.91116616451,-5096.21281599614,-4.20763043324978,6.82817431786928,3.76877108900293,6759033.05518597,1.1764537689939,3.52207581E-8,-0.165236982005679,4.16337433E-8,-0.865943568734036,0.618600566254685,1.14368551589134,0.0,-0.0011222300308759,0.0,332419.063129767,1.83133E-11,1143.681640625,-4.20762650661743,6.82818058125463,3.76876414365224
2160.0,-3208671.52310722,-4976714.25805419,-3148534.16043503,3372104.55870553,-4865880.71320167,-3150974.58558376,2997.83193349664,5225.82220564242,-4858.13528667479,-4.45615507363556,6.43013265233676,4.16394030542206,6759031.98948748,1.18082903840671,3.85673166E-8,-0.163331683489947,4.19201921E-8,-0.831628391105283,0.574083990424484,1.2047577505116,0.0,-0.0011222300308759,0.0,333047.692720315,1.78534E-11,1138.77685546875,-4.45615156202962,6.43013926860768,4.16393385110655
2220.0,-2864657.80802536,-4999088.7485215,-3432152.91182175,3543813.94479759,-4541010.21266636,-3434739.47424246,2723.54545549659,5598.90042691933,-4596.9445967978,-4.68301724685072,6.00076390996394,4.5388823542173,6759030.95411732,1.18520430781953,4.19487485E-8,-0.161424291814396,4.17281089E-8,-0.801460521907341,0.527963099871486,1.26235157666585,0.0,-0.0011222300308759,0.0,333959.673109128,1.72875E-11,1133.37451171875,-4.68301416924834,6.00077077969526,4.53887644106348
2280.0,-2507182.03457989,-5000855.60696134,-3699450.62870159,3698671.31542311,-4194545.706883,-3702171.0284282,2436.32626312112,5945.33093967765,-4313.91216322831,-4.88706368070791,5.54225374406973,4.89169055945307,6759029.9549482,1.18957957723233,4.53299711E-8,-0.15951993019745,4.10415507E-8,-0.775102065187466,0.480475238081622,1.31688421346123,0.0,-0.0011222300308759,0.0,335137.762126619,1.66324E-11,1127.50744628906,-4.88706104429054,5.5422607672991,4.89168522136247
2340.0,-2137758.83164685,-4982120.51390773,-3949158.37161265,3835942.41152127,-3828137.1285697,-3951999.6738134,2137.57475102272,6263.43486126215,-4010.42016576297,-5.06726768768629,5.05694765911941,5.22058144050596,6759028.99679065,1.19395484664514,4.86748159E-8,-0.157623706009029,3.98548129E-8,-0.752244307993015,0.431828027988439,1.36875038773088,0.0,-0.0011222300308759,0.0,336563.182623552,1.59066E-11,1121.21435546875,-5.06726548864524,5.05695473924223,5.22057669533938
2400.0,-1757961.40930106,-4943075.3265363,-4180093.20001136,3954978.76688232,-3443530.83233458,-4183041.89812342,1828.74895708312,6551.67845824859,-3687.95381626077,-5.22273547913336,4.54733583386352,5.52390584240611,6759028.08334945,1.19833011605796,5.19467702E-8,-0.155740684257501,3.81720159E-8,-0.732612172484477,0.382203568208541,1.4183188579445,0.0,-0.0011222300308759,0.0,338215.976687292,1.51283E-11,1114.53881835937,-5.22273370403921,4.5473428807076,5.5239016931459
2460.0,-1369414.23077002,-4883996.5643038,-4391164.10337297,4055220.92421288,-3042560.63491161,-4394206.18508398,1511.35642568897,6808.6813442134,-3348.09299245885,-5.35271140885496,4.01603686649613,5.80015896529267,6759027.21723033,1.20270538547076,5.51096664E-8,-0.15387586136318,3.60063406E-8,-0.715965760350232,0.331762408032793,1.46593197870649,0.0,-0.0011222300308759,0.0,340075.363989424,1.43159E-11,1107.53063964843,-5.35271003623339,4.01604379901969,5.80015540158106
2520.0,-973785.40817369,-4805243.48471038,-4581377.41334292,4136201.15422395,-2627138.39335631,-4584498.42904999,1186.94578972052,7033.22367428507,-2992.50330550679,-5.45658209938629,3.46578061918321,6.04798919655139,6759026.39998917,1.20708065488357,5.81283386E-8,-0.152034139393762,3.33789748E-8,-0.702100154233367,0.280647185725018,1.51190716295657,0.0,-0.0011222300308759,0.0,342120.096907865,1.3486E-11,1100.24597167968,-5.45658110154311,3.46578736715623,6.0479861968178
2580.0,-572778.869274815,-4707255.76513974,-4749841.66517989,4197545.66289585,-2199244.18290607,-4753026.79854278,857.098139271687,7224.25228796432,-2622.92667546527,-5.53387942093594,2.89939034778413,6.26620566832028,6759025.63221646,1.21145592429638,6.09691702E-8,-0.15022030093186,3.0317897E-8,-0.69084428134151,0.228985897809069,1.55653946163284,0.0,-0.0011222300308759,0.0,344328.805387152,1.26538E-11,1092.74584960937,-5.53387876577768,2.89939685281417,6.26620320205931
2640.0,-168126.343841941,-4590550.80958906,-4895771.8813124,4238976.27620031,-1760916.13877924,-4899006.02150674,523.418246449722,7380.88576313477,-2241.17149313294,-5.58428230884763,2.31976431107771,6.45378448085734,6759024.9136483,1.2158311937092,6.36005746E-8,-0.148438984737742,2.68565586E-8,-0.68205937556801,0.176894815150489,1.60010475273602,0.0,-0.0011222300308759,0.0,346680.324972026,1.18325E-11,1085.09582519531,-5.58428196162349,2.31977052689028,6.45378251097629
2700.0,238420.780919,-4455720.70171927,-5018493.25462444,4260311.59573595,-1314240.02806077,-5021761.06989324,187.525715953117,7502.41835593384,-1849.1024495318,-5.60761742191081,1.72985705652613,6.60987355225293,6759024.24329332,1.220206463122,6.59933685E-8,-0.146694662361587,2.30325961E-8,-0.675637384064755,0.124481087420364,1.64286322554042,0.0,-0.0011222300308759,0.0,349154.002049281,1.10333E-11,1077.36328125,-5.60761734677586,1.7298629486531,6.60987203731339
2760.0,645099.686079136,-4303428.82800263,-5117444.21402135,4261467.62290201,-861338.618986386,-5120730.22611859,-148.953869489234,7588.32281300192,-1448.6301161664,-5.60385865965416,1.1326605797496,6.73379607459796,6759023.61956911,1.22458173253482,6.81210649E-8,-0.144991615849196,1.8886594E-8,-0.671499534654979,0.0718450898757906,1.68506297847409,0.0,-0.0011222300308759,0.0,351729.971037058,1.02646E-11,1069.615234375,-5.60385882099674,1.13266612467772,6.73379497085977
2820.0,1050144.3782476,-4134406.1967916,-5192178.85983518,4242457.85333784,-404360.915393221,-5195467.51895416,-484.39774128188,7638.25205435482,-1041.70035977124,-5.5731255719034,0.531185550954056,6.82505257643561,6759023.0404399,1.22895700194763,6.99600618E-8,-0.143333916673316,1.4460979E-8,-0.66959519502099,0.019082571213091,1.72694363719345,0.0,-0.0011222300308759,0.0,354389.399044688,9.533E-12,1061.91357421875,-5.57312593539283,0.531190734885938,6.82505183960603
2880.0,1451793.92946162,-3949447.48085835,-5242368.76163703,4203392.84733971,54528.6761340591,-5245644.52141777,-817.194609617409,7652.03973652914,-630.28367469905,-5.5156807079073,-0.0715572055225231,6.88332161030389,6759022.50354932,1.23333227136044,7.14897772E-8,-0.141725406009915,9.7990713E-9,-0.669901099476352,-0.0337133377076358,1.76873995557681,0.0,-0.0011222300308759,0.0,357114.694366353,8.8428E-12,1054.31262207031,-5.51568124126072,-0.0715523880319117,6.88332119692731
2940.0,1848300.65194441,-3749406.81234334,-5267804.11596545,4144479.28577996,513161.179801237,-5271051.50818061,-1145.75313873753,7629.69971653656,-216.364514427972,-5.43192596507931,-0.672574802068237,6.90845910212601,6759022.00634203,1.23770754077325,7.26926997E-8,-0.140169676464803,4.9443042E-9,-0.672420983678893,-0.0864501949294761,1.81068539611172,0.0,-0.0011222300308759,0.0,359889.676046004,8.1964E-12,1046.85620117187,-5.43192663855456,-0.672570349669354,6.9084589706403
3000.0,2237938.16156267,-3535193.36009451,-5268394.26628918,4066018.5246517,969373.819748182,-5271597.97481557,-1468.5101748609,7571.4244473602,198.069299049743,-5.32239800851344,-1.26890978616783,6.90049641597771,6759021.54616985,1.24208281018606,7.35543938E-8,-0.138670055341578,-6.03687E-11,-0.677185643697243,-0.139034339584227,1.85301570355682,0.0,-0.0011222300308759,0.0,362699.702638228,7.5945E-12,1039.576171875,-5.32239879517316,-1.26890569214563,6.90049652742275
3060.0,2619009.28580434,-3307766.7200744,-5244167.59214014,3968404.66470445,1421020.66184871,-5247312.52583311,-1783.93867339945,7477.58234507795,611.037012861057,-5.18776284187315,-1.85765689782044,6.85963720261163,6759021.12037691,1.24645807959887,7.40634673E-8,-0.137229589526841,-5.1729277E-9,-0.684253416884716,-0.19136894674547,1.89597249013483,0.0,-0.0011222300308759,0.0,365531.759172649,7.0367E-12,1032.4931640625,-5.18776371765676,-1.85765315144048,6.8596375210516
3120.0,2989853.77444182,-3068132.14986434,-5195270.77872462,3852122.15568935,1865983.06787923,-5198342.14282596,-2090.5552771558,7348.71417608505,1020.57515731811,-5.02880961774518,-2.43597895515352,6.78625311324999,6759020.72636726,1.25083334901168,7.42114876E-8,-0.13585103205348,-1.03525893E-8,-0.693711062268097,-0.243351986118792,1.9398068427127,0.0,-0.0011222300308759,0.0,368374.502192168,6.5216E-12,1025.61889648437,-5.02881056140569,-2.43597554280467,6.78625360595953
3180.0,3348855.7736901,-2817335.67831217,-5121967.48239992,3717742.95746818,2302179.90490162,-5124950.84812462,-2386.92750265726,7185.52852019676,1424.74747105631,-4.84644378114779,-3.00112175565478,6.68087847105856,6759020.36164918,1.2552086184245,7.39929153E-8,-0.134536830387674,-1.55600298E-8,-0.705674991732331,-0.294874025042401,1.98478294093232,0.0,-0.0011222300308759,0.0,371218.263563634,6.0471E-12,1018.95983886718,-4.84644477411665,-3.0011186617337,6.68087910854735
3240.0,3694451.02756385,-2556459.12107005,-5024636.41115202,3565923.28264064,2727577.45624422,-5027517.78311666,-2671.68049752362,6988.89637159036,1821.65447770254,-4.64167964357359,-3.55042789976846,6.54420400147783,6759020.02386442,1.2595838878373,7.34049724E-8,-0.133289116470384,-2.07574999E-8,-0.720292763285769,-0.345815816062111,2.03118163602414,0.0,-0.0011222300308759,0.0,374055.014543642,5.6108E-12,1012.51928710937,-4.64168066975814,-3.55042510744692,6.54420475739372
3300.0,4025133.77322892,-2286615.0321693,-4903768.84259334,3397399.94739333,3140198.98433746,-4906534.72376765,-2943.50333766608,6759.84494453014,2209.44266080491,-4.41563248654122,-4.08134946397431,6.37706972895347,6759019.71080279,1.26395915725012,7.2447542E-8,-0.13210969852962,-2.59089242E-8,-0.737744685351931,-0.396045611154715,2.07930387610949,0.0,-0.0011222300308759,0.0,376878.292310222,5.2102E-12,1006.30139160156,-4.41563353211427,-4.08134695574784,6.37707057992226
3360.0,4339463.30037587,-2008941.62090524,-4759965.60499896,3212986.35896821,3538133.89979726,-4762603.05888252,-3201.15483906211,6499.55075460953,2586.31319034497,-4.16951029360968,-4.5914594699817,6.18045715179094,6759019.42040843,1.26833442666293,7.11230384E-8,-0.131000054666015,-3.09799438E-8,-0.758245284877132,-0.445416151127867,2.12947376484057,0.0,-0.0011222300308759,0.0,379683.091837395,4.8428E-12,1000.31164550781,-4.16951134679093,-4.5914572280997,6.18045807721662
3420.0,4636070.14796255,-1724597.66218727,-4593933.54949564,3013568.16948587,3919546.49547713,-4596430.2592433,-3443.46886473768,6209.33204884239,2950.53016092336,-3.90460520788816,-5.07846211651321,5.95548080873646,6759019.15077837,1.27270969607574,6.94362808E-8,-0.129961328201237,-3.59379628E-8,-0.782044247406728,-0.49376129409111,2.18204089227347,0.0,-0.0011222300308759,0.0,382465.726585208,4.506E-12,994.557556152343,-3.90460625872753,-5.07846012331107,5.95548179058045
3480.0,4913661.91503012,-1434757.4271719,-4406481.54370791,2800098.62684874,4282684.20865896,-4408825.86794986,-3669.35911331646,5890.64065938589,3300.42830853061,-3.62228480866104,-5.54020175886992,5.70337935066685,6759018.90015806,1.27708496548855,6.73943551E-8,-0.128994324766694,-4.07521668E-8,-0.809426226850038,-0.540892277825509,2.23738136302057,0.0,-0.0011222300308759,0.0,385223.661997857,4.1974E-12,989.049072265625,-3.62228584884026,-5.54019999700352,5.70338037322937
3540.0,5171028.66564136,-1140605.65947715,-4198516.01894601,2573593.65410151,4625885.37905513,-4200697.04407193,-3877.82338097546,5545.05335602857,3634.42017956204,-3.32398329599175,-5.97467063905113,5.42550622863846,6759018.66693413,1.28146023490136,6.50064786E-8,-0.128099511099081,-4.53935419E-8,-0.840708629415185,-0.58659366726692,2.29589665020629,0.0,-0.0011222300308759,0.0,387955.326240801,3.9147E-12,983.7978515625,-3.32398431862571,-5.97466909169364,5.42550727833031
3600.0,5407047.91127731,-843332.620607689,-3971036.10440324,2335126.68895941,4947586.47478797,-3973043.69310331,-4067.94729380271,5174.26277191263,3951.00273229945,-3.01119266610549,-6.38001538561747,5.12332010552215,6759018.44962612,1.28583550431417,6.22838653E-8,-0.127277015499317,-4.9834884E-8,-0.876236091451137,-0.630619133920288,2.35800901597991,0.0,-0.0011222300308759,0.0,390659.902960467,3.6557E-12,978.81689453125,-3.0111936655723,-6.38001403657963,5.12332117065819
3660.0,5620689.15721959,-544129.226429238,-3725128.38282638,2085823.3152502,5246328.76293654,-3726953.21870592,-4238.90751231916,4780.06797536614,4248.76335736023,-2.68545395350326,-6.75454231692184,4.79837509304416,6759018.24687779,1.29021077372699,5.92395956E-8,-0.126526629902923,-5.40508098E-8,-0.916369911527046,-0.672687366096092,2.42415177721545,0.0,-0.0011222300308759,0.0,393337.111112362,3.4186E-12,974.11865234375,-2.68545492527786,-6.75454115075172,4.79837616363658
3720.0,5811018.00250345,-244182.294661186,-3461961.30275334,1826855.71777781,5520764.40554559,-3463594.9308616,-4389.97441425278,4364.36475830278,4526.38530952197,-2.34834860795853,-7.09672159433674,4.45231090912847,6759018.05744783,1.29458604313979,5.58884725E-8,-0.125847813502266,-5.8017773E-8,-0.961470237109994,-0.712478635094777,2.49475223266743,0.0,-0.0011222300308759,0.0,395986.9770721,3.2013E-12,969.715454101562,-2.34834954846815,-7.09672059637656,4.45231197670023
3780.0,5977199.78592139,55330.078570621,-3182779.2827022,1559436.9916323,5769661.96612734,-3184214.14583945,-4520.51426550026,3929.13570851734,4782.65254879466,-2.00149006637744,-7.40519028290368,4.08684304259615,6759017.88020119,1.29896131255261,5.22468853E-8,-0.125239697854949,-6.17140718E-8,-1.01186852629548,-0.749632852328397,2.57020478586589,0.0,-0.0011222300308759,0.0,398609.604316453,3.0024E-12,965.618041992187,-2.00149097287165,-7.40518943932275,4.08684410000875
3840.0,6118502.77326529,353242.997026195,-2888896.54267169,1284815.33627226,5991911.31561807,-2890126.01336191,-4629.99089255209,3476.44012947789,5016.45399357531,-1.64651557090631,-7.67875438582584,3.70375300350553,6759017.71410003,1.30333658196542,4.83326778E-8,-0.12470109340751,-6.51198581E-8,-1.06782805043226,-0.783750328974827,2.65083204163588,0.0,-0.0011222300308759,0.0,401204.945936512,2.8201E-12,961.83544921875,-1.64651644133652,-7.67875368363822,3.70375404479634
3900.0,6234300.88349522,648409.083333316,-2581690.69800891,1004268.16382145,6186527.93044332,-2582709.10604804,-4717.9668724802,3008.40386701276,5226.78719313951,-1.28507827595362,-7.91638992618811,3.30487872806195,6759017.5581956,1.30771185137822,4.41650137E-8,-0.124230497359695,-6.82171453E-8,-1.12949151109656,-0.814396819756836,2.7368329602205,0.0,-0.0011222300308759,0.0,403772.585122588,2.6531E-12,958.374694824218,-1.28507910887444,-7.91638935324691,3.30487974830616
3960.0,6324075.95380302,939702.626413641,-2262596.15014648,719096.149984342,6352656.57877383,-2263398.80565824,-4784.10425888724,2527.20909772859,5412.76143057151,-0.91883967819106,-8.1172431542484,2.89210519738745,6759017.41162018,1.31208712079104,3.97642483E-8,-0.123826102791741,-7.09898342E-8,-1.19681784475776,-0.841114629553721,2.8282201515927,0.0,-0.0011222300308759,0.0,406311.5285413,2.5001E-12,955.238647460937,-0.918840472663618,-8.11724269923749,2.89210619256212
4020.0,6387419.54558898,1226023.54696063,-1933097.30794589,430617.25482477,6489574.39420144,-1933680.51989825,-4828.16486400458,2035.08412919021,5573.60027049492,-0.549462395084174,-8.28062996182901,2.46735531951711,6759017.27357953,1.31646239020385,3.51517951E-8,-0.123485808975341,-7.34236985E-8,-1.26951533539894,-0.863441309578536,2.92475343839355,0.0,-0.0011222300308759,0.0,408820.017213893,2.36E-12,952.428405761718,-0.549463150601984,-8.28062961423801,2.46735628639248
4080.0,6424034.29518826,1506301.17235144,-1594721.67243944,140160.739399853,6596693.3389186,-1595082.76259514,-4850.01011841648,1534.29325695491,5708.64356863653,-0.178603309502954,-8.40603458661008,2.03258111431152,6759017.14334589,1.32083765961666,3.03499938E-8,-0.123207232788013,-7.55064155E-8,-1.34698461078523,-0.880936440031047,3.02588327048359,0.0,-0.0011222300308759,0.0,411295.35910629,2.2316E-12,949.940795898437,-0.178604025914473,-8.4060343367116,2.0325820503382
4140.0,6433734.81476829,1779497.81405929,-1249032.81667669,-150938.797074469,6673562.06104081,-1249170.12897085,-4849.60053070721,1027.1267185846,5817.34896234601,0.192092909749944,-8.49310768888495,1.58975523130679,6759017.02025149,1.32521292902947,2.53819987E-8,-0.122987721150628,-7.72275575E-8,-1.42829053635165,-0.893215002224395,3.13072301165945,0.0,-0.0011222300308759,0.0,413733.787162245,2.114E-12,947.76953125,0.192092232293593,-8.4931075277001,1.58975613453511
4200.0,6416448.15017812,2044612.14220719,-897623.291186564,-441347.336200989,6719867.15297188,-897536.196542442,-4826.99476970723,515.890779855318,5899.29286272267,0.56099990857608,-8.54166388145904,1.14086282151715,6759016.90368271,1.32958819844228,2.027164E-8,-0.122824364408527,-7.85786014E-8,-1.51218227312267,-0.899983160543928,-3.04511593621518,0.0,-0.0011222300308759,0.0,416130.345963255,2.0064E-12,945.904296875,0.560999269681756,-8.54166380072783,1.14086369050599
4260.0,6372213.80367165,2300682.35335483,-542107.484295351,-729737.293558508,6735433.81968056,-541796.380907137,-4782.34839199103,2.89798362865346,5954.1709699948,0.926515372966765,-8.55167879027719,0.687893775428011,6759016.79307441,1.33396346785509,1.50433082E-8,-0.122714010577988,-7.95529279E-8,-1.59717197381108,-0.901069871971563,-2.9367038488501,0.0,-0.0011222300308759,0.0,418478.809591544,1.908E-12,944.3310546875,0.926514772045329,-8.5516787824239,0.687894609172681
4320.0,6301183.33036266,2546789.12893963,-184114.465226214,-1014793.28542468,6720225.96744897,-183580.77435396,-4715.91223689358,-509.54241267879,5981.79833429278,1.28706638830344,-8.52328571899225,0.232835331535745,6759016.68790529,1.33833873726791,9.7218385E-9,-0.12265328038165,-8.01458152E-8,-1.68166505609281,-0.89644704301764,-2.82877389835315,0.0,-0.0011222300308759,0.0,420771.632621902,1.8182E-12,943.0322265625,1.28706582460819,-8.52328577709139,0.232836129406599
4380.0,6203619.51801614,2782058.38297836,174719.163425239,-1295217.78976676,6674345.72507937,175473.006087838,-4628.03051060921,-1019.13378933082,5982.10898399352,1.64111444669673,-8.4567719853796,-0.222334947530711,6759016.58769209,1.34271400668071,4.3323957E-9,-0.122638582998771,-8.03544299E-8,-1.76411567120826,-0.886232965669883,-2.72282510839868,0.0,-0.0011222300308759,0.0,422999.935486088,1.7363E-12,941.993469238281,1.64111391934848,-8.45677210312578,-0.222334185830268
4440.0,6079895.16035347,3005663.79869004,532756.378564947,-1569736.68346815,6598032.41072997,533726.935874736,-4519.13857996092,-1523.6012884071,5955.15514343761,1.98716012062587,-8.35257499133204,-0.675655840753817,6759016.49197912,1.34708927609353,-1.0996469E-9,-0.122666132458801,-8.01778483E-8,-1.84317052155359,-0.870678089088046,-2.62016349474822,0.0,-0.0011222300308759,0.0,425153.524758241,1.662E-12,941.212585449218,1.98715962860499,-8.3525751630279,-0.675655115178964
4500.0,5930491.43447004,3216829.15461235,888366.790836542,-1837104.63895949,6491660.95851136,889549.641448153,-4389.76049523348,-2020.70069553759,5901.10606108755,2.32374742436557,-8.21127808139826,-1.12518879123858,6759016.40033233,1.35146454550634,-6.5488151E-9,-0.122731964609465,-7.96170324E-8,-1.91776909583999,-0.850136948458812,-2.52180147441182,0.0,-0.0011222300308759,0.0,427220.948215606,1.5949E-12,940.683532714843,2.32374696656124,-8.21127830194183,-1.12518810147447
4560.0,5755995.89325305,3414830.44155595,1239933.6174653,-2096110.36454558,6355739.81973824,1241323.37723983,-4240.50626008342,-2508.22706801476,5820.24646814021,2.64946788752238,-8.03360623746564,-1.56902390554904,6759016.31233758,1.35583981491915,-1.1989641E-8,-0.122831954593462,-7.86748065E-8,-1.98718556628081,-0.825033102458931,-2.42841560096919,0.0,-0.0011222300308759,0.0,429189.583851431,1.5348E-12,940.397094726562,2.64946746276955,-8.03360650233504,-1.56902325106585
4620.0,5557100.08386576,3598997.77238146,1585860.5521173,-2345581.67375571,6190908.3543239,1587450.89957868,-4072.06886503048,-2984.02310068943,5712.97468629321,2.96296436655235,-7.82042164954756,-2.00528565346724,6759016.22759875,1.36021508433196,-1.73967678E-8,-0.122961834770747,-7.73558031E-8,-2.05101696053429,-0.795824203051975,-2.34035800786405,0.0,-0.0011222300308759,0.0,431045.761371745,1.4814E-12,940.33935546875,2.96296397367202,-7.82042195477919,-2.00528503358129
4680.0,5334596.80345581,3768717.08709213,1924578.51125775,-2584390.36998792,5997933.72825283,1926362.21697192,-3885.22109944416,-3445.98722321921,5579.8004018503,3.2629346212881,-7.57271919476724,-2.43213829492151,6759016.14573632,1.36459035374478,-2.27450658E-8,-0.123117213026255,-7.56664224E-8,-2.10913471816483,-0.762972396574035,-2.25770444406967,0.0,-0.0011222300308759,0.0,432774.914106815,1.4344E-12,940.491943359375,3.26293425912235,-7.57271953693012,-2.43213770885005
4740.0,5089377.0032738,3923431.65611878,2254552.23747383,-2811456.93356331,5777707.33339999,2256521.19721489,-3680.81215530527,-3892.08142392608,5421.34212167979,3.54813468379204,-7.2916218487179,-2.84779106288854,6759016.06638644,1.36896562315758,-2.8009709E-8,-0.123293591405513,-7.36147765E-8,-2.16161960390319,-0.726922527686617,-2.18031892349574,0.0,-0.0011222300308759,0.0,434361.758723425,1.3935E-12,940.828125,3.54813435124154,-7.29162222487766,-2.84779050981062
4800.0,4822426.35237283,4062643.38494408,2574286.74110432,-3025754.99905461,5531240.74621065,2576432.01266217,-3459.7640343898,-4320.33879673371,5238.32432476907,3.8173820465399,-6.97837604547445,-3.25050313239293,6759015.98920138,1.37334089257039,-3.31662965E-8,-0.123486385023161,-7.12106216E-8,-2.20869593669379,-0.688088294298438,-2.10791902214452,0.0,-0.0011222300308759,0.0,435790.499643978,1.3585E-12,941.319702148437,3.81738174258755,-6.97837645316232,-3.25050261148959
4860.0,4534821.47202736,4185913.92337587,2882333.56228816,-3226315.61140348,5259661.24194275,2884645.40576211,-3223.06776892512,-4728.87080839288,5031.57432128676,4.06955869601141,-6.63434699467068,-3.63858840628063,6759015.91382954,1.37771616198321,-3.81909213E-8,-0.123690941191511,-6.84653553E-8,-2.25067462690234,-0.646845110070019,-2.04013232282387,0.0,-0.0011222300308759,0.0,437045.054670339,1.3299E-12,942.022338867187,4.06955841961942,-6.63434743204892,-3.63858791655196
4920.0,4227725.85198043,4292865.58284279,3177296.83620352,-3412231.24989867,4964206.88132932,3179764.7576175,-2971.77946426584,-5115.8742835046,4802.01882926007,4.30361401566945,-6.26101395731615,-4.01042014719499,6759015.83989291,1.38209143139601,-4.30602809E-8,-0.123902558718319,-6.53920156E-8,-2.28790877446855,-0.603527920650346,-1.97654024581924,0.0,-0.0011222300308759,0.0,438109.297976405,1.3081E-12,942.996948242187,4.30361376583809,-6.26101442321398,-4.01041968753315
4980.0,3902385.45962063,4383182.06506795,3457839.14482196,-3582659.60955736,4646221.18667023,3460451.94288808,-2707.01617073598,-5479.63810471333,4550.68027720135,4.51856758098499,-5.85996547402077,-4.36443548540431,6759015.76699004,1.38646670080883,-4.77517623E-8,-0.124116507324092,-6.2005146E-8,-2.32076181037765,-0.558432284164275,-1.91670927313967,0.0,-0.0011222300308759,0.0,438967.316376942,1.2935E-12,944.293334960937,4.51856735682851,-5.85996596793268,-4.36443505469941
5040.0,3560124.05322687,4456609.00537986,3722687.13895013,-3736827.12984171,4307147.42453519,3725432.95479881,-2429.95159051451,-5818.54962486899,4278.67283931109,4.71351186594495,-5.43289453315337,-4.69913982935141,6759015.69469573,1.39084197022164,-5.22435392E-8,-0.124328047130524,-5.83207051E-8,-2.34958628449506,-0.511817356427928,-1.86021145185712,0.0,-0.0011222300308759,0.0,439603.67459909,1.2866E-12,945.956481933593,4.71351166675714,-5.43289505523622,-4.69913942658342
5100.0,3202338.21052082,4512954.33376167,3970636.9146818,-3874032.2609624,3948522.51247849,3973503.28436845,-2141.81162436783,-6131.10078702617,3987.19820834881,4.88761487743664,-4.98159366033821,-5.01311120333811,6759015.62255803,1.39521723963445,-5.65146386E-8,-0.124532448172364,-5.43559345E-8,-2.37471082650669,-0.46390980836245,-1.80663663667872,0.0,-0.0011222300308759,0.0,440003.685175141,1.2878E-12,948.030151367187,4.88761470274434,-4.98159421143091,-5.01311082764642
5160.0,2830492.08394306,4552088.45653204,4200559.12864639,-3993648.45828147,3571970.56745023,4203533.03823657,-1843.86976215242,-6415.89394686556,3677.54110989099,5.04012273035481,-4.50794990527086,-5.3050045335077,6759015.55009274,1.39959250904726,-6.05450157E-8,-0.124725009884901,-5.01292805E-8,-2.39643293827752,-0.414908042555858,-1.7555987983573,0.0,-0.0011222300308759,0.0,440153.678535204,1.2979E-12,950.557861328125,5.04012257997982,-4.50795048690296,-5.30500418427517
5220.0,2446111.89434226,4573944.26130434,4411403.83662698,-4095126.8955413,3179196.11396038,4414471.77965409,-1537.44232035421,-6671.64739053124,3351.06456053455,5.17036217241156,-4.01393969692656,-5.57355589954263,6759015.47677617,1.40396777846008,-6.43156546E-8,-0.124901080519867,-4.56602235E-8,-2.4150156964756,-0.364986333715105,-1.70673830173959,0.0,-0.0011222300308759,0.0,440041.268902353,1.3176E-12,953.584228515625,5.17036204653166,-4.01394031134875,-5.57355557647295
5280.0,2050780.17514686,4578516.94759788,4602205.04024585,-4177998.88782906,2771976.97052668,4605353.07732747,-1223.88352952013,-6897.20053902016,3009.20487169277,5.27774306334838,-3.50162353431699,-5.81758676499716,6759015.4020355,1.40834304787288,-6.7808602E-8,-0.125056076440728,-4.0969185E-8,-2.43068691717071,-0.314298696084885,-1.65972158179642,0.0,-0.0011222300308759,0.0,439655.611673144,1.3478E-12,957.155944824218,5.27774296256814,-3.50162418453873,-5.81758646820422
5340.0,1646129.77958572,4565863.68519073,4772084.9264933,-4241878.01535148,2352156.83353059,4775298.74688486,-904.58047428722,-7091.51882818725,2653.46639999717,5.36176080878549,-2.97314047667539,-6.03600819433782,6759015.32523727,1.4127183172857,-7.10070428E-8,-0.125185501248211,-3.60773666E-8,-2.44363975142843,-0.26298239579649,-1.61423922575493,0.0,-0.0011222300308759,0.0,438987.648097617,1.3897E-12,961.320434570312,5.36176073421999,-2.97314116650913,-6.03600792445127
5400.0,1233837.66414853,4536103.10201743,4920257.78492535,-4286461.93925923,1921637.57832806,4923522.76978199,-580.947888841349,-7253.69825118774,2285.41604499379,5.42199874424244,-2.43070239463287,-6.22782505940759,6759015.24567368,1.41709358669851,-7.3895355E-8,-0.125284964685012,-3.10066265E-8,-2.45403400877066,-0.211161095556478,-1.57000313840737,0.0,-0.0011222300308759,0.0,438030.333248917,1.4448E-12,966.125549316406,5.42199869761706,-2.43070312874103,-6.22782481770018
5460.0,815618.462235585,4489414.60314081,5046033.58739546,-4311533.90094138,1482371.29832298,5049334.87450556,-254.422811049891,-7382.96954782578,1906.67749482923,5.45813046002952,-1.876587942552,-6.39214023231149,6759015.16254685,1.42146885611132,-7.64591567E-8,-0.125350201266672,-2.57792896E-8,-2.46199774545593,-0.158947658320501,-1.52674322420175,0.0,-0.0011222300308759,0.0,436778.843487804,1.5147E-12,971.61474609375,5.45813044379896,-1.87658872649103,-6.39214002085363
5520.0,393217.862839168,4426037.52207734,5148821.2152357,-4316963.89642452,1036352.10371491,5152143.76498234,73.5409007823275,-7478.70202287197,1518.92522098123,5.46992205280057,-1.31313621179586,-6.52815875569166,6759015.07495229,1.42584412552413,-7.86853422E-8,-0.125377088583694,-2.04179691E-8,-2.46762882203642,-0.106446656936529,-1.48420384882469,0.0,-0.0011222300308759,0.0,435230.759877274,1.6014E-12,977.822387695312,5.46992207028877,-1.31313705203684,-6.52815857754079
5580.0,-31594.1898703511,4346270.10554052,5228131.31888648,-4302709.51777675,585607.702781176,5231459.98118567,401.478183584239,-7540.40697301153,1123.87822381722,5.45723428464518,-0.742740025337352,-6.63519197510956,6759014.9818619,1.43021939493695,-8.05621207E-8,-0.125361665217283,-1.49453671E-8,-2.47099624731991,-0.0537566459671152,-1.4421402272546,0.0,-0.0011222300308759,0.0,433386.224283652,1.7072E-12,984.765502929687,5.45723434020376,-0.742740929245106,-6.63519183453497
5640.0,-457030.459014028,4250468.33249847,5283578.79511135,-4268816.45375087,132190.789844245,5286898.37706906,727.918511374217,-7567.74069975726,723.293531872839,5.42002462575382,-0.167838835856469,-6.71266161184448,6759014.88210845,1.43459466434975,-8.2079022E-8,-0.125300148208482,-9.3840554E-9,-2.47214119952928,-9.722550904567E-4,-1.4003148094445,0.0,-0.0011222300308759,0.0,431248.065210846,1.8347E-12,992.434326171875,5.42002472493241,-0.167839811602722,-6.71266151458468
5700.0,-881293.52119675,4139044.56833109,5314884.86715037,-4215418.64232199,-321829.734498374,5318180.20117366,1051.39175547775,-7560.50708346857,318.959459237576,5.3583491519969,0.409088807669126,-6.76010374796051,6759014.77437274,1.43896993376255,-8.32269173E-8,-0.125188950017665,-3.7562418E-9,-2.47107766277146,0.0518138361921575,-1.35849368717525,0.0,-0.0011222300308759,0.0,428821.890752987,1.9865E-12,1000.78619384765,5.35834930171327,0.409087751286794,-6.76010370150266
5760.0,-1302582.99667512,4012466.05482773,5321878.75348212,-4142738.06829797,-774377.683752061,5325134.76557335,1370.43415343004,-7518.659691634,-87.3113726834832,5.27236426430012,0.985533255900403,-6.77717268908537,6759014.65717502,1.44334520317537,-8.39980038E-8,-0.125024694908364,1.9164622E-9,-2.46779264761457,0.104508983454315,-1.31644301801356,0.0,-0.0011222300308759,0.0,426116.146416749,2.1653E-12,1009.74096679687,5.27236447299749,0.985532109727096,-6.77717270294805
5820.0,-1719102.88223105,3871253.23679785,5304498.91130673,-4051084.19982433,-1223378.61771771,5307700.68926385,1683.59437477358,-7442.30339286166,-493.689240500843,5.16232819257388,1.55896224339073,-6.76364466408278,6759014.52886887,1.44772047258818,-8.43857825E-8,-0.124804234686633,7.6132738E-9,-2.46224598612698,0.157018663318149,-1.27392544961733,0.0,-0.0011222300308759,0.0,423142.13596042,2.374E-12,1019.18493652343,5.16232847035247,1.55896099827756,-6.76364475008552
5880.0,-2129068.96386692,3715977.92618283,5262793.84145055,-3940853.05838161,-1666768.95594994,5265926.7026911,1989.43966961312,-7331.69544666065,-898.334740103643,5.0286022432537,2.12682988064075,-6.71942131483296,6759014.38763866,1.45209574200099,-8.43850336E-8,-0.124524663724265,1.33144389E-8,-2.45436971032266,0.20924450198541,-1.23069652740909,0.0,-0.0011222300308759,0.0,419914.003822955,2.6155E-12,1028.98083496093,5.02860260196747,2.1268285278849,-6.71942148733581
5940.0,-2530716.28475192,3547261.30476286,5196922.44214957,-3812525.91779743,-2102505.14010573,5199972.00087136,2286.56208323532,-7187.24603814474,-1299.40640971705,4.87165174633547,2.68658616593324,-6.64453292376836,6759014.23149709,1.4564710114138,-8.39917648E-8,-0.124183333191715,1.90014408E-8,-2.44406704429908,0.261082187264187,-1.18650108084246,0.0,-0.0011222300308759,0.0,416448.678174891,2.8925E-12,1038.98059082031,4.87165219965352,2.68658469776287,-6.6445331998731
6000.0,-2922306.64211219,3365771.76685423,5107153.90011367,-3666667.62887779,-2528572.81094009,5110106.1335012,2573.58471737447,-7009.51822632574,-1695.0685373219,4.6920466552599,3.23568702029054,-6.53914132180253,6759014.0582809,1.46084628082662,-8.32031597E-8,-0.123777864424294,2.46571363E-8,-2.43121107058207,0.31241920437856,-1.1410696104705,0.0,-0.0011222300308759,0.0,412765.774115992,3.2082E-12,1049.04089355468,4.69204721869166,3.23568543038681,-6.53914172151234
6060.0,-3302136.08499566,3172222.60379516,4993867.10842477,-3503924.56751265,-2942995.96382456,4996708.42160715,2849.16801584885,-6799.22727474756,-2083.49913142935,4.49046175119795,3.77160483926808,-6.40354241497267,6759013.86564611,1.46522155023942,-8.20175052E-8,-0.123306161343321,3.02659193E-8,-2.41564317774313,0.363132336113502,-1.09411474478224,0.0,-0.0011222300308759,0.0,408887.457073027,3.5654E-12,1059.03198242187,4.49046244207736,3.77160312332886,-6.40354296130479
6120.0,-3668542.38308816,2967369.53252154,4857549.60219451,-3325022.20553519,-3343846.04480719,4860266.89165898,3112.01604935141,-6557.23933390071,-2462.89803039349,4.26767640230905,4.29183954473524,-6.23816826462117,6759013.65106243,1.46959681965224,-8.04341205E-8,-0.122766421852719,3.58137844E-8,-2.39717146884324,0.413084870885049,-1.04532791036793,0.0,-0.0011222300308759,0.0,404838.267014848,3.9672E-12,1068.84411621093,4.26767723973714,4.29183770106936,-6.23816898366921
6180.0,-4019912.43503979,2752008.07114083,4698796.00451394,-3130762.30521632,-3729250.94743632,4701376.71967796,3360.88277120817,-6284.5694462103,-2831.49512145425,4.02457382854228,4.79393010827999,-6.04358865346378,6759013.41181135,1.47397208906505,-7.84532795E-8,-0.122157148130666,4.12884141E-8,-2.37556942123049,0.462123471252948,-0.994376472986117,0.0,-0.0011222300308759,0.0,400644.904699562,4.4167E-12,1078.388671875,4.02457483325014,4.79392813849835,-6.04358957437258
6240.0,-4354689.58311419,2526970.76512143,4518305.97707761,-2922019.74005551,-4097403.86887551,4520738.17972318,3594.5782129732,-5982.37884644552,-3187.55863659482,3.76213982345135,5.27546650596436,-5.82051206844271,6759013.1449894,1.47834735847786,-7.60761248E-8,-0.121477155736103,4.66791783E-8,-2.35057525339132,0.510074675203608,-0.940901775664823,0.0,-0.0011222300308759,0.0,396335.981796002,4.9168E-12,1087.59521484375,3.76214101758072,5.2754644157187,-5.82051322328049
6300.0,-4671380.7994393,2293124.26852053,4316881.67196277,-2699738.94648375,-4446571.98228889,4319154.09323842,3811.97458587677,-5651.97153319944,-3529.40348814279,3.48146088663532,5.73410205136024,-5.56978603117938,6759012.84752247,1.48272262789067,-7.33045839E-8,-0.12072558145069,5.19770676E-8,-2.32189269165758,0.556741040894066,-0.884518740462406,0.0,-0.0011222300308759,0.0,391941.737373378,5.4699E-12,1096.40795898437,3.48146229339416,5.7340998511594,-5.56978745465497
6360.0,-4968563.70775074,2051366.28557184,4095424.68339066,-2464930.01321433,-4775104.88111748,4097526.77809033,4012.01225144776,-5294.79009065032,-3855.39960292083,3.18372172358611,6.16756604103946,-5.29239670803691,6759012.51619255,1.48709789730349,-7.01412917E-8,-0.119901889778597,5.71745312E-8,-2.28919415402699,0.601897013634745,-0.824818028173493,0.0,-0.0011222300308759,0.0,387493.72391819,6.078E-12,1104.78247070312,3.18372336674718,6.16756374711735,-5.29239843701157
6420.0,-5244893.40331974,1802622.37893964,3854932.50088823,-2218664.41725414,-5081442.74974631,3856854.49872125,4193.70552216571,-4912.41074415711,-4163.98020974763,2.87020207411118,6.57367663376287,-4.98946773447702,6759012.14768079,1.49147316671629,-6.65895295E-8,-0.119005878029389,6.22652196E-8,-2.25212778266201,0.645284706791703,-0.761372167496752,0.0,-0.0011222300308759,0.0,383024.466705703,6.7422E-12,1112.68188476562,2.87020397735909,6.57367426890759,-4.98946980725702
6480.0,-5499109.03278799,1547842.65200222,3596494.46809369,-1962070.41800273,-5364124.21422504,3598227.42166743,4356.14825083204,-4506.53763835248,-4453.65003129241,2.54227283622327,6.95035387174972,-4.66225819276322,6759011.73862881,1.4958484361291,-6.26531824E-8,-0.118037679913146,6.72435843E-8,-2.21033022875974,0.686609963966138,-0.693747539914065,0.0,-0.0011222300308759,0.0,378567.101007557,7.4621E-12,1120.0751953125,2.54227502229836,6.95035146608644,-4.66226064809944
6540.0,-5730040.09493034,1287998.31364847,3321287.25449367,-1696328.12340136,-5621793.82619625,3322823.08373949,4498.51916555904,-4078.99633225756,-4722.99332779415,2.20139145908275,7.29563274041551,-4.31215968779852,6759011.28572009,1.50022370554192,-5.8336718E-8,-0.116997767582076,7.21043398E-8,-2.16344751917136,0.725539324498344,-0.62152453449937,0.0,-0.0011222300308759,0.0,374154.992239919,8.2362E-12,1126.93530273437,2.2013939487533,7.29563033200911,-4.31216256360512
6600.0,-5936612.42297058,1024078.13524097,3030569.85062201,-1422664.24472274,-5853209.1330512,3031901.38340609,4620.08690592814,-3631.72651251141,-4970.68173706473,1.84909658671398,7.60767615138685,-3.94069247353743,6759010.78578075,1.50459897495472,-5.36452173E-8,-0.115886952059086,7.68417955E-8,-2.11116648256385,0.76169885110673,-0.544328337265104,0.0,-0.0011222300308759,0.0,369821.344726273,9.0607E-12,1133.23803710937,1.8490993975599,7.60767378660477,-3.94069580529159
6660.0,-6117853.8090252,757084.810597275,2725678.10066382,-1142346.55928699,-6057247.28761164,2726799.10933794,4720.214715037,-3166.77393302931,-5195.48185260371,1.4870019431812,7.88478772352766,-3.54950059138762,6759010.23590051,1.50897424436754,-4.85844619E-8,-0.114706382001341,8.14490482E-8,-2.05325867240219,0.794676165023059,-0.461872280830448,0.0,-0.0011222300308759,0.0,365598.805244167,9.9298E-12,1138.9619140625,1.48700508826177,7.88478545701599,-3.54950441027635
6720.0,-6272899.23157449,488031.231053666,2408018.78995914,-856678.103116973,-6232911.1513663,2408924.02362161,4798.3647418974,-2686.28159719517,-5396.26247965444,1.11678946012603,8.12542422779234,-3.14034599283169,6759009.63356993,1.51334951378035,-4.31610453E-8,-0.113457540755546,8.59170772E-8,-1.98963690421089,0.824027369037132,-0.374013861811316,0.0,-0.0011222300308759,0.0,361519.067920024,1.08355E-11,1144.08850097656,1.11679294657671,8.12542212198315,-3.140350323688
6780.0,-6400995.64759065,217936.688882422,2079063.30855209,-566991.118270197,-6379334.84650299,2079748.52080688,4854.10190902238,-2192.48020696086,-5572.00150771891,0.740201658459813,8.32820755480947,-2.71510163056322,6759008.97682997,1.51772478319316,-3.73825974E-8,-0.112142241671509,9.02337553E-8,-1.92042083050516,0.849290618027179,-0.280819840468176,0.0,-0.0011222300308759,0.0,357612.487310061,1.17668E-11,1148.60095214843,0.740205486099602,8.32820567887206,-2.71510648968432
6840.0,-6501506.31211256,-52176.9764911715,1740340.91563843,-274640.782266276,-6495788.71369686,1740802.88765992,4887.09730109596,-1687.67791185023,-5721.79233750438,0.359033307679547,8.49193605916522,-2.27574351591221,6759008.26442761,1.52210005260597,-3.12580389E-8,-0.110762621651676,9.43829045E-8,-1.84600229841244,0.870007613278844,-0.182631159780648,0.0,-0.0011222300308759,0.0,353907.706634183,1.27106E-11,1152.48498535156,0.359037467712266,8.49193448734948,-2.27574890886248
6900.0,-6573914.58966252,-321289.273900434,1393431.63347934,19001.2503742405,-6581683.63485986,1393668.19221225,4897.13103238675,-1174.24939971633,-5844.84980057111,-0.0248776017061577,8.61559513185258,-1.8243417547452,6759007.49596842,1.52647532201879,-2.47979114E-8,-0.10932113292641,9.83433843E-8,-1.76709475097376,0.88575294132683,-0.0801119379068729,0.0,-0.0011222300308759,0.0,350431.308096981,1.36511E-11,1155.72839355468,-0.0248731277103636,8.61559394117706,-1.82434767439117
6960.0,-6617827.22396426,-588384.980852522,1039958.80301984,312553.461994911,-6636574.68283549,1039968.83436751,4884.09455307237,-654.624380026475,-5940.51551114703,-0.409659524558076,8.69836685229006,-1.3630505897276,6759006.67205506,1.53085059143159,-1.80147676E-8,-0.107820533057777,1.020883595E-7,-1.6847467526945,0.896168883908466,0.0257373917735071,0.0,-0.0011222300308759,0.0,347207.492020566,1.45704E-11,1158.32177734375,-0.40965476534604,8.69836611965831,-1.36305701460109
7020.0,-6632977.03494493,-852458.071369873,681581.33702105,604631.206291294,-6660164.06333481,681364.793901197,4847.99235788931,-131.275519290786,-6008.26259171536,-0.793417606109865,8.73963857428531,-0.894097492512538,6759005.79439838,1.53522586084441,-1.09236152E-8,-0.106263873188572,1.055848431E-7,-1.60030225774549,0.901000595278352,0.133620180487214,0.0,-0.0011222300308759,0.0,344257.791120449,1.54493E-11,1160.2587890625,-0.793412600926801,8.73963837312076,-0.894104385754537
7080.0,-6619225.01498277,-1112515.6328461,319985.709928839,893853.526561443,-6652303.31824698,319543.615103183,4788.94306450579,393.294103166647,-6047.69971709286,-1.17424443321115,8.73901030597448,-0.41977136584631,6759004.86589071,1.53960113025722,-3.5423508E-9,-0.104654484567745,1.087935701E-7,-1.51530238754947,0.900124562500365,0.242042142501802,0.0,-0.0011222300308759,0.0,341600.825678245,1.62678E-11,1161.53662109375,-1.17423923135394,8.73901070257134,-0.419778674953886
7140.0,-6576561.79978031,-1367581.75280974,-43122.2731009462,1178850.01903985,-6612994.76379527,-43787.8294873283,4707.17983370524,916.563942746062,-6058.57442580105,-1.55023120780247,8.69630075254724,0.0575900680284136,6759003.89063021,1.54397639967003,4.1077849E-9,-0.102995963398399,1.116693181E-7,-1.43134273028522,0.893563437366627,0.349454404842461,0.0,-0.0011222300308759,0.0,339252.104608372,1.70059E-11,1162.15710449218,-1.55022586762814,8.69630180239093,0.0575824107072027
7200.0,-6505108.49307868,-1616701.35595999,-406025.882676501,1458267.70111841,-6542392.14182098,-406911.750880086,4603.05010882118,1436.0092565367,-6040.77565257608,-1.91947924849183,8.61155190227821,0.535613601227083,6759002.87388947,1.54835166908284,1.20018112E-8,-0.101292154069719,1.141616651E-7,-1.34991762923145,0.881483265049424,0.454409566428303,0.0,-0.0011222300308759,0.0,337223.876498527,1.76448E-11,1162.12377929687,-1.91947383572845,8.61155364661068,0.535605676972584
7260.0,-6405116.82864849,-1858943.97148742,-767005.99920545,1730777.84308002,-6440800.46771706,-768107.98299565,4477.01465781754,1949.11459907781,-5994.33544182387,-2.28011171616714,8.48503205090407,1.01190448931616,6759001.82202443,1.55272693849566,2.01106619E-8,-0.099547130849405,1.162162161E-7,-1.27228841016179,0.864173870642326,0.555693821438278,0.0,-0.0011222300308759,0.0,335525.033646355,1.81678E-11,1161.443359375,-2.28010630168366,8.48503451384298,1.01189639063396
7320.0,-6276968.65755469,-2093407.41053422,-1124349.72434333,1995082.72116634,-6308675.06414992,-1125662.59941019,4329.64590788452,2453.38745049409,-5919.42980864334,-2.63028545195244,8.3172371766893,1.48406089544369,6759000.74232604,1.55710220790846,2.84009751E-8,-0.0977651781282037,1.177762467E-7,-1.19940253500273,0.842017545908924,0.652408164787773,0.0,-0.0011222300308759,0.0,334161.070948886,1.8561E-11,1160.12609863281,-2.6302801091452,8.31724036314296,1.48405272293992
7380.0,-6121174.7535477,-2319221.33370204,-1476359.01792876,2249922.24939807,-6146619.77563965,-1477876.55552382,4161.62556931914,2946.37187589973,-5816.37872162348,-2.96820280967161,8.10889059806282,1.94968869746272,6758999.64281794,1.56147747732127,3.68349811E-8,-0.095950769322577,1.187846847E-7,-1.13187148462223,0.815453293051793,0.743990882124168,0.0,-0.0011222300308759,0.0,333134.100262443,1.88144E-11,1158.18347167968,-2.96819761154333,8.10889449268729,1.94968055604377
