time,gePosition_m_X,gePosition_m_Y,gePosition_m_Z,eiPosition_m_X,eiPosition_m_Y,eiPosition_m_Z,eiVelocity_m_s_X,eiVelocity_m_s_Y,eiVelocity_m_s_Z,eiAccel_m_s2_X,eiAccel_m_s2_Y,eiAccel_m_s2_Z,semiMajorAxis_m,gast_rad,eulerAngle_rad_Roll,eulerAngle_rad_Pitch,eulerAngle_rad_Yaw,eulerAngleWrtEi_rad_Roll,eulerAngleWrtEi_rad_Pitch,eulerAngleWrtEi_rad_Yaw,bodyAngularRateWrtEi_rad_s_Roll,bodyAngularRateWrtEi_rad_s_Pitch,bodyAngularRateWrtEi_rad_s_Yaw,altitudeMsl_m,airDensity_kg_m3,ambientTemperature_dgK,eiGravitation_m_s2_X,eiGravitation_m_s2_Y,eiGravitation_m_s2_Z
0.0,-1436381.4663574744,4185811.709981752,5163944.671561651,-4315967.74,960356.1999999998,5167269.529999999,129.09103699999832,-7491.513854999997,1452.5156539999987,5.4694140599253265,-1.2170114272880495,-6.548227230853623,6759053.075789562,1.0233194459853856,5.666859310090004E-17,-0.20245819323134254,-4.604323189448128E-17,-2.471593905564226,-0.03718896475784017,-1.428993135204368,4.658681209898652E-20,-0.0011222300308759384,4.0657581468206416E-20,434989.54081172694,1.6159166507157113E-12,978.0522572877376,5.469414083491855,-1.2170122767063871,-6.548227058940051
60.0,-1794950.0342989087,3943126.030730259,5239239.620111988,-4298383.7550353715,509016.7271123617,5242568.014129262,456.8734507242932,-7547.421681203881,1056.4130503978008,5.452579179721045,-0.6456962114614642,-6.650294560327216,6759052.981820733,1.027694715234372,-3.0428062828370988E-12,-0.20243605987268268,-7.921161407170736E-11,-2.472045194408246,0.015605902028426027,-1.3871941836888853,4.658681209898652E-20,-0.0011222300308759384,4.0657581468206416E-20,433093.8649334711,1.7268595292597638E-12,985.1050725957873,5.452579242223135,-0.6456971267272024,-6.650294426666182
120.0,-2147547.1673062476,3685627.2177063506,5290617.598657344,-4261177.842013712,55353.974990547424,5293934.334227222,782.9101055352627,-7568.915604458355,655.07336080879,5.411225944938555,-0.07029245608144244,-6.722713022201443,6759052.880869033,1.0320699844833425,-1.0719344211574022E-11,-0.20236718972397402,-1.3636636360433773E-10,-2.4702868220479717,0.06837346634951039,-1.3453262663514858,4.658681209898652E-20,-0.0011222300308759384,4.0657581468206416E-20,430905.28025692306,1.859490428792579E-12,992.8730188025398,5.411226052194246,-0.0702934453023935,-6.722712932919586
180.0,-2492684.2408266207,3414408.912915157,5317817.997184914,-4204498.850744406,-398561.3482324128,5321107.917156703,1105.731587369352,-7555.824669719065,250.28942887052767,5.345427225916854,0.5067156223738081,-6.765038389785109,6759052.771646035,1.0364452537322815,-2.1562773299099445E-11,-0.20224802891688087,-1.6802965469232542E-10,-2.4662973075153496,0.12102070149999372,-1.3031548243083342,4.658681209898652E-20,-0.0011222300308759384,4.0657581468206416E-20,428429.87766834645,2.016417482360713E-12,1001.3073018500754,5.345427385108881,0.5067145505605869,-6.765038352776143
240.0,-2828892.4716009246,3130615.6575259417,5320688.436865394,-4128583.6046008295,-850652.7677811796,5323936.489263141,1423.875864053974,-7508.127907833481,-156.12279480777616,5.255356479188664,1.0828140961901176,-6.776945284271765,6759052.652672857,1.0408205229812044,-3.3750806784966955E-11,-0.2020752381851932,-1.6999829350720515E-10,-2.460027840101518,0.17345209177142892,-1.2604406632143343,4.658681209898652E-20,-0.0011222300308759384,4.0657581468206416E-20,425676.5914639324,2.2003120496194766E-12,1010.3226917958045,5.255356699007381,1.0828129329163036,-6.77694530946625
300.0,-3154729.008457787,2835438.444272477,5299185.94045627,-4033756.2756369542,-1298847.0898079658,5302377.2466366105,1735.8943656308577,-7425.95586373106,-562.3314945413564,5.141289212171622,1.6554678936636238,-6.758230843426943,6759052.522311805,1.0451957922300796,-4.516101269647146E-11,-0.20184570849258468,-1.3720152411515905E-10,-2.451401532058155,0.22556763079897746,-1.21693635378477,4.658681209898652E-20,-0.0011222300308759384,4.0657581468206416E-20,422657.21375598514,2.41385253515518E-12,1019.8018834271465,5.14128950292763,1.655466630215119,-6.75823094304091
360.0,-3468783.0291533833,2530110.090798032,5253377.661994632,-3920427.3923994345,-1741083.524927453,5256497.5843802225,2040.35814487006,-7309.591595313942,-966.4964452980114,5.003604184311754,2.2221298769298548,-6.708818172069903,6759052.378764224,1.049571061478955,-5.307863941687779E-11,-0.20155657593150583,-6.358486979801752E-11,-2.440312300130583,0.2772606847082967,-1.1723826141699925,4.658681209898652E-20,-0.0011222300308759384,4.0657581468206416E-20,419386.3702790496,2.6597038281789547E-12,1029.606104605169,5.00360455801172,2.222128505197048,-6.708818360817823
420.0,-3769681.8208409213,2215900.44474192,5183441.163377683,-3789092.476125162,-2175322.8550335034,5186475.372478378,2335.864100837891,-7159.471112075556,-1366.7766675903329,4.8427843000739665,2.7802504409866162,-6.628759521091547,6759052.220071208,1.0539463307277828,-5.431957895939675E-11,-0.20120523581937144,5.787680280882852E-11,-2.4266234488935607,0.3284156602672077,-1.1265047086281983,4.658681209898652E-20,-0.0011222300308759384,4.0657581468206416E-20,415881.45670856064,2.9405323545075575E-12,1039.5891332632282,4.8427847704587546,2.7802489539553616,-6.628759816356622
480.0,-4056096.820270428,1894111.432344536,5089664.226407227,-3640330.3021231405,-2599556.6088402835,5092598.766837466,2621.041245628698,-6976.183222071898,-1761.3382635222333,4.6594171467545085,3.327287635727806,-6.518239136845364,6759052.044109842,1.0583215999766105,-4.530292790043242E-11,-0.20078935591416278,2.3531524460558336E-10,-2.410166082393471,0.37890541913182324,-1.079008951413574,4.658681209898652E-20,-0.0011222300308759384,4.0657581468206416E-20,412162.5351028433,3.2590373847749596E-12,1049.610714308334,4.65941772930057,3.3272860279976753,-6.5182395588052975
540.0,-4326749.588367295,1566071.9634202595,4972444.190062804,-3474800.784419038,-3011816.209711306,4975265.545260669,2894.5569914959583,-6760.468756055331,-2148.3624123605014,4.454195128419424,3.860717802989442,-6.377575718556169,6759051.848589989,1.0626968692254064,-2.1612804196874056E-11,-0.20030688867178434,4.775460157118797E-10,-2.390737553668885,0.4285883837546494,-1.0295794903450843,4.658681209898652E-20,-0.0011222300308759384,4.0657581468206416E-20,408252.19061513175,3.617968967093978E-12,1059.5461481439963,4.454195840300876,3.8607160713214195,-6.377576290261335
600.0,-4580417.692427553,1233132.7067210244,4832286.804178593,-3293242.4831961347,-3410182.0574884373,4834981.959530265,3155.123432665678,-6513.219138375001,-2526.053500155821,4.227915146455854,4.378046709867562,-6.207224418058377,6759051.63105147,1.0670721384741706,2.1695573413822945E-11,-0.19975608246439389,7.944209986026495E-10,-2.3681002878841557,0.47730529221938167,-0.9778756738827268,4.658681209898652E-20,-0.0011222300308759384,4.0657581468206416E-20,404175.3491919399,4.020105818986047E-12,1069.2908170583664,4.227916006457255,4.378044853774592,-6.20722516545181
660.0,-4815940.467842487,896660.750951953,4669804.592344921,-3096469.736195842,-3792792.504249765,4672361.09641757,3401.503593145125,-6235.474275717223,-2892.6473539220365,3.981477777346971,4.8768211480303645,-6.0077783138486875,6759051.388862766,1.0714474077229348,9.085869872502639E-11,-0.19913549168056216,1.1968278119589271E-9,-2.3419815006359914,0.5248755839273315,-0.9235304947795272,4.658681209898652E-20,-0.0011222300308759384,4.0657581468206416E-20,399959.05757434014,4.468177923895037E-12,1078.7603115575137,3.981478805708867,4.876819170425379,-6.007779265706547
720.0,-5032224.630050643,558034.1680181627,4485714.718748572,-2885369.4170537055,-4157852.6822520625,4488120.7423354965,3632.517608903811,-5928.419736937273,-3246.419546758073,3.7158858994283297,5.354640956548301,-5.779969290236096,6759051.1192256315,1.075822676973096,1.9246466529796392E-10,-0.19844398562525933,1.6966137257723705E-9,-2.3120745961866445,0.5710934443673489,-0.8661508699167281,4.658681209898652E-20,-0.0011222300308759384,4.0657581468206416E-20,395632.2275542338,4.964730600375434E-12,1087.8877879010092,3.7158871176019455,5.354638864455517,-5.779970477997249
780.0,-5228249.706349783,218636.49638306818,4280836.355805642,-2660897.325528105,-4503643.140791621,4283080.748489634,3847.04880997254,-5593.383200163628,-3585.6937361418923,3.432242722638619,5.80917141310172,-5.524668252455387,6759050.819192384,1.0801979462217968,3.3414566906992497E-10,-0.19768075614299566,2.3059667253973687E-9,-2.2780433838384093,0.615723617559181,-0.8053208725177817,4.658681209898652E-20,-0.0011222300308759384,4.0657581468206416E-20,391225.3470900112,5.511934761818395E-12,1096.6202149984179,3.4322441529238814,5.809169218421433,-5.524669709902008
840.0,-5403073.256292108,-120148.83606196445,4056087.5518285884,-2424074.2167267036,-4828528.247396136,4058159.895773367,4044.049665341972,-5231.830147045557,-3908.8499935116592,3.1317491786923832,6.238155925509112,-5.242884610079196,6759050.48569183,1.0845732154704657,5.246845460796684E-10,-0.19684532388456302,3.0374407813574873E-9,-2.2395306890722204,0.6584972253796945,-0.740609474167974,4.658681209898652E-20,-0.0011222300308759384,4.0657581468206416E-20,386770.16155305976,6.111351773828889E-12,1104.914685957608,3.1317508437351176,6.238153645807522,-5.242886372828049
900.0,-5555835.848740914,-456944.12908627535,3812481.6006012782,-2175981.4787378483,-5130964.307681656,3814372.261286397,4222.547551122478,-4845.358788493682,-4214.333079273916,2.815700633719025,6.639428942592483,-4.935764964027834,6759050.115573185,1.0889484847191346,7.738501740727841E-10,-0.1959375431445935,3.903506171010201E-9,-2.196173409612028,0.6991080320292795,-0.6715848301085134,4.658681209898652E-20,-0.0011222300308759384,4.0657581468206416E-20,382299.329043377,6.7636628989155985E-12,1112.7354026457056,2.8157025558484206,6.639426601868978,-4.935767068794683
960.0,-5685765.763196684,-790383.0450449177,3551122.91759951,-1917756.4705115634,-5409507.357424337,3552823.0912216124,4381.6503003165135,-4435.694211497465,-4500.660613621696,2.4854828912426545,7.0109289907394645,-4.604590937008813,6759049.705665742,1.0933237539677718,1.092599737845731E-9,-0.19495760519861435,4.91591472044845E-9,-2.1476264376971796,0.7372098731360949,-0.5978375145808231,4.658681209898652E-20,-0.0011222300308759384,4.0657581468206416E-20,377846.0543635902,7.468374938450605E-12,1120.0515128615612,2.4854850916389633,7.0109266201057014,-4.604593420616349
1020.0,-5792183.382866037,-1119116.2383669324,3273202.430673896,-1650587.5343859252,-5662820.579946916,3274704.187946594,4520.551490832972,-4004.681742592839,-4766.431090114041,2.1425674604109255,7.35071173043038,-4.250776093373576,6759049.252857024,1.0976990232163775,1.4922999887451944E-9,-0.19390604007583156,6.085378729903991E-9,-2.0935978557393606,0.7724163273709495,-0.5190151007713463,4.658681209898652E-20,-0.0011222300308759384,4.0657581468206416E-20,373443.70685476734,8.223516444507672E-12,1126.835733101098,2.1425699581058817,7.350709368619984,-4.250778991486922
1080.0,-5874505.247087486,-1441816.9550726209,2979992.496286279,-1375708.7002990674,-5889681.301851131,2981288.822382433,4638.535427108557,-3554.2795302365234,-5010.331675951343,1.7885060725756468,7.656962915778177,-3.875861902163808,6759048.7541889455,1.1020742924649671,1.9853914076916286E-9,-0.19278371670939937,7.420723848844239E-9,-2.033896939957247,0.8043040940336778,-0.4348696089350727,4.658681209898652E-20,-0.0011222300308759384,4.0657581468206416E-20,369125.4278569884,9.025342842287912E-12,1133.0635837180473,1.7885088833042078,7.65696060939463,-3.875865247757302
1140.0,-5932247.73121034,-1757186.5766881243,2672841.3558303844,-1094394.1014292147,-6088987.520480083,2673926.1862241295,4734.9817699589,-3086.550355669534,-5231.145740382692,1.4249244386058475,7.928011130108415,-3.4815127065148865,6759048.206971833,1.1064495617135248,2.585057631046743E-9,-0.1915918414127119,8.928105660515646E-9,-1.9684941526999837,0.8324218222327848,-0.3453169937497679,4.658681209898652E-20,-0.0011222300308759384,4.0657581468206416E-20,364923.7340371973,9.868073334822653E-12,1138.7130391115932,1.4249275735470235,7.928008933513951,-3.4815165280992995
1200.0,-5965030.322859456,-2063960.0819627359,2353167.150138378,-807952.123735549,-6259763.917303557,2354035.402120034,4809.36976912945,-2603.6526897326494,-5427.760050791143,1.05351524956972,8.162340162105298,-3.0695096735219076,6759047.608913367,1.110824830962067,3.304840926279894E-9,-0.19033195464045669,1.0609973775962691E-8,-1.8975879558911621,0.8563060762491734,-0.2505034948146101,4.658681209898652E-20,-0.0011222300308759384,4.0657581468206416E-20,360870.1232034336,1.0743686478669812E-11,1143.7644071523714,1.0535187140352869,8.162338136858047,-3.06951399319147
1260.0,-5972578.464725568,-2360911.399004069,2022451.5139404936,-517719.31459342176,-6401167.312713959,2023099.1135953893,4861.282053502625,-2107.8310214361295,-5599.171574812971,0.6760304345111476,8.358600880385206,-2.641743711047713,6759046.958256396,1.115200100210593,4.158598257794073E-9,-0.18900592600216906,1.2464103476546111E-8,-1.8216671353379268,0.875505392693743,-0.1508675324626657,4.658681209898652E-20,-0.0011222300308759384,4.0657581468206416E-20,356994.68947434664,1.1641803394377001E-11,1148.2002670666338,0.6760342266617999,8.358599094147769,-2.641748542438891
1320.0,-5954725.93561693,-2646858.6198527752,1682232.7757566432,-225054.0783882039,-6512491.519529459,1682656.680218958,4890.407935090957,-1601.4054927616344,-5744.493826442384,0.2942727007896388,8.515622459827103,-2.200207351597066,6759046.253924115,1.1195753694590873,5.159974724841887E-9,-0.1876159475093683,1.4482819587732852E-8,-1.741551137545755,0.8896117212821428,-0.04717964371912847,4.658681209898652E-20,-0.0011222300308759384,4.0657581468206416E-20,353325.75477726996,1.2549685201692704E-11,1152.0052652391753,0.294276810475315,8.515620984698945,-2.200212697881826
1380.0,-5911416.743491543,-2920669.049153161,1334098.7924118862,68669.81048858745,-6593171.554833174,1334297.0072268066,4896.546184838159,-1086.7608830498998,-5862.9626945120435,-0.08991360536520157,8.632422810868633,-1.7469856180946435,6759045.495659341,1.123950638707566,6.321927300620406E-9,-0.18616452504681832,1.665221522187254E-8,-1.6583883691202068,0.8982960218289323,0.05945959770671923,4.658681209898652E-20,-0.0011222300308759384,4.0657581468206416E-20,349889.523584806,1.3452387995337228E-11,1155.1662409326786,-0.08990919752624016,8.632421721134543,-1.7469914701652174
1440.0,-5842706.506566884,-3181264.058464318,979679.4510253938,362069.8443540396,-6642787.172648268,979651.0424770371,4879.607240879375,-566.3349952546341,-5953.941693297535,-0.47465226804349114,8.708218063478748,-1.2842459019399872,6759044.68415032,1.1283259079560126,7.656292664653522E-9,-0.18465446807348546,1.8951361102542465E-8,-1.5735978370238188,0.9013421412667296,0.167678304848736,4.658681209898652E-20,-0.0011222300308759384,4.0657581468206416E-20,346709.76756134967,1.433311392916688E-11,1157.673072352397,-0.4746475912227499,8.708217432821673,-1.2842522369686904
1500.0,-5748763.301364429,-3427623.71791369,620638.8748719298,653761.5335090897,-6661065.683350335,620383.9771605877,4839.614813287604,-42.606505154824795,-6016.9265772943345,-0.8580455381991733,8.742430960835737,-0.8142268998077286,6759043.821132039,1.1327011772044275,9.173234701077612E-9,-0.18308887757226366,2.1351892371026497E-8,-1.4887544881284087,0.8986716537957294,0.2759482912658581,4.658681209898652E-20,-0.0011222300308759384,4.0657581468206416E-20,343807.54636602633,1.5173735607842925E-11,1159.5192069512302,-0.8580406314487108,8.742430859131906,-0.8142336803548453
1560.0,-5629867.959672135,-3658791.1773477327,258667.37289682296,942365.2348849253,-6647884.029639983,258187.1900768655,4776.706853436372,481.9176568568026,-6051.549265492721,-1.2381849631799045,8.734698024009504,-0.33922667192830336,6759042.909448703,1.1370764464528427,1.0880765690771913E-8,-0.18147113228180375,2.3818320817330742E-8,-1.405438464485857,0.8903533889484055,0.3827361639045078,4.658681209898652E-20,-0.0011222300308759384,4.0657581468206416E-20,341200.970248211,1.5955477970394417E-11,1160.7018439862213,-1.2381798749778345,8.734698513885572,-0.33923384574908394
1620.0,-5486413.799884381,-3873876.7698920807,-104526.82417837865,1226513.019100079,-6603270.093323817,-105230.02155921409,4691.135860917454,1004.7153137319424,-6057.581024726265,-1.6131626235304606,8.684875358178093,0.1384100993015633,6759041.953075271,1.1414517157012258,1.278406722083009E-8,-0.17980487326012615,2.630814237287238E-8,-1.3250831126112976,0.876595054568748,0.4866556617840166,4.658681209898652E-20,-0.0011222300308759384,4.0657581468206416E-20,338905.0092909555,1.6659727017177854E-11,1161.221875941852,-1.6131574107420388,8.684876491561656,0.13840259864126198
1680.0,-5318905.781964191,-4072061.811899447,-467225.99534977187,1504855.5355045903,-6527403.2120348215,-468148.8789383057,4583.268506410563,1523.2623543771326,-6034.934866868764,-1.9810826809530073,8.59304298310918,0.6163055559441137,6759040.9570840895,1.1458269849495775,1.4885096582973481E-8,-0.17809398684267416,2.877266640766157E-8,-1.248857112718567,0.8577192397597972,0.586585879596162,4.658681209898652E-20,-0.0011222300308759384,4.0657581468206416E-20,336931.35321057425,1.7268915467601267E-11,1161.083665176501,-1.981077407218082,8.593044798037011,0.6162978075953135
1740.0,-5127959.079336889,-4252602.074654062,-827711.4800809904,1776068.833669925,-6420613.89033446,-828849.6777305751,4453.584554952083,2035.0462592228737,-5983.667120770368,-2.3400731321341577,8.459507585657406,1.0920627072896238,6759039.92755982,1.1502022541979289,1.7182017336698055E-8,-0.1763425860749784,3.115812407806941E-8,-1.1776021910183951,0.8341299041581928,0.6817339182474753,4.658681209898652E-20,-0.0011222300308759384,4.0657581468206416E-20,335288.32454596326,1.77674205648016E-11,1160.2947297991748,-2.3400678657471596,8.459510103612235,1.0920548008178543
1800.0,-4914297.065316288,-4414830.9048986565,-1184272.2978244869,2038861.0990452608,-6283382.695311893,-1185620.4128953144,4302.675080606041,2537.57974144072,-5903.978146772432,-2.6882976554857856,8.284803609701347,1.5632799463279077,6759038.871459584,1.154577523446217,1.9668977915957396E-8,-0.17455499071337716,3.340743712004134E-8,-1.1118280220767305,0.8062766880116068,0.7716403607034311,4.658681209898652E-20,-0.0011222300308759384,4.0657581468206416E-20,333980.8468882554,1.814240098292702E-11,1158.865411692109,-2.68829246688823,8.284806833723321,1.5632719786884473
1860.0,-4678748.716141492,-4558161.973250092,-1535213.784128292,2291979.2601670697,-6116338.332776416,-1536765.4200072747,4131.239970502386,3028.414402012375,-5796.212169350363,-3.0239674319345524,8.069692618963852,2.027565905810979,6759037.79642587,1.1589527926945367,2.233573880641932E-8,-0.17273570590277224,3.54620986241058E-8,-1.0517504053459263,0.7746230677634026,0.8561414947168459,4.658681209898652E-20,-0.0011222300308759384,4.0657581468206416E-20,333010.4685560862,1.8384500103151744E-11,1156.8085941976517,-3.023962390984495,8.069696532727129,2.0275579777841215
1920.0,-4422245.437289489,-4682091.631869166,-1878866.1899226885,2534215.424904335,-5920254.906350089,-1880613.979660953,3940.084723470698,3505.154293633241,-5660.856211777727,-3.3453528169507383,7.8151608901790235,2.482554510142586,6759036.71056199,1.163328061942793,2.5167807474606443E-8,-0.1708893996529414,3.72644593703593E-8,-0.9973527367978705,0.7396217670936759,0.9353082676694179,4.658681209898652E-20,-0.0011222300308759384,4.0657581468206416E-20,332375.44084965845,1.8488352536384616E-11,1154.1395258547293,-3.345347990161909,7.815165458142573,2.482546722469996
1980.0,-4145817.324391618,-4786200.86529523,-2213593.189878398,2764413.103757407,-5696048.368129638,-2215528.8308113986,3730.116555929135,3965.4692865820825,-5498.538125565901,-3.6507947391929,7.522415217656767,2.925920071995198,6759035.62218227,1.1677033311910492,2.814650545436446E-8,-0.16902087924888395,3.8759173446724834E-8,-0.9484529480630111,0.7016982752092156,1.0093798078855842,4.658681209898652E-20,-0.0011222300308759384,4.0657581468206416E-20,332070.8487605396,1.8452848820744864E-11,1150.8757902243524,-3.650790187143611,7.522420386301257,2.9259125214918735
2040.0,-3850588.874729368,-4870156.821161309,-2537800.2455679043,2981473.1792127364,-5444772.176021346,-2539914.538750661,3502.3398351661804,4407.108129285862,-5310.023716653955,-3.938715701567085,7.192876934950448,3.35539227777554,6759034.539554785,1.1720786004407024,3.124887606256093E-8,-0.1671350667418524,3.989595093609996E-8,-0.9047641662901265,0.6612415958616468,1.0787032667242924,4.658681209898652E-20,-0.0011222300308759384,4.0657581468206416E-20,332088.7908211562,1.8281137294639774E-11,1147.0374420399485,-3.9387114766639875,7.1928826350129125,3.355385053695005
2100.0,-3537774.169821619,-4933713.910533701,-2849942.769561064,3184359.581586045,-5167612.179259918,-2852225.6638193796,3257.850867533424,4827.911097407697,-5096.212979751754,-4.207630263224623,6.828174184545774,3.768770904025644,6759033.470648757,1.176453869688895,3.444878704857141E-8,-0.16523697367642848,4.0631133788156906E-8,-0.8659435687353036,0.618600566253703,1.1436855158892063,4.658681209898652E-20,-0.0011222300308759384,4.0657581468206416E-20,332418.6036768173,1.7980368704362588E-11,1142.6473089706194,-4.207626407971023,6.828180334074243,3.768764084928397
2160.0,-3208671.5541967982,-4976714.470679697,-3148534.037553966,3372104.633653717,-4865880.759924696,-3150974.677922065,2997.832076218691,5225.822127896735,-4858.135461706173,-4.456154886026958,6.430132491670328,4.163940107659652,6759032.422906352,1.180829138937088,3.771649907071546E-8,-0.16333167521834258,4.092901323810764E-8,-0.8316283911062119,0.5740839904233815,1.2047577505096667,4.658681209898652E-20,-0.0011222300308759384,4.0657581468206416E-20,333047.1260005967,1.756121418189103E-11,1137.7314383762516,-4.456151431894928,6.430138999653315,4.163933758981032
2220.0,-2864657.8394386997,-4999088.9865580015,-3432152.7971602306,3543814.0286581405,-4541010.264362672,-3434739.577446375,2723.545610049274,5598.900338548165,-4596.944784085488,-4.683017036236392,6.000763722926085,4.538882136640642,6759031.403046388,1.1852044081852489,4.101948974027212E-8,-0.161424283856046,4.0763526364411595E-8,-0.8014605219080256,0.5279630998703915,1.2623515766642455,4.658681209898652E-20,-0.0011222300308759384,4.0657581468206416E-20,333958.9955645961,1.7037207241512092E-11,1132.3196508704386,-4.683014003183671,6.000770493214448,4.538876309082474
2280.0,-2507182.0668089623,-5000855.870499902,-3699450.524078882,3698671.4089508075,-4194545.764236225,-3702171.1432735105,2436.3264310618447,5945.330839172345,-4313.912364202981,-4.887063441502899,5.542253533885684,4.891690314253292,6759030.416912854,1.1895796774333782,4.432405312589587E-8,-0.15951992285067884,4.0117594572979135E-8,-0.7751020651879247,0.48047523808041687,1.3168842134597762,4.658681209898652E-20,-0.0011222300308759384,4.0657581468206416E-20,335136.9726592894,1.6423972865033705E-11,1126.4461472251378,-4.8870608381175185,5.542260469119495,4.891685043044429
2340.0,-2137758.8652471006,-4982120.80308117,-3949158.2789601902,3835942.5155744283,-3828137.192346669,-3951999.8011762626,2137.5749342428385,6263.434747386143,-4010.420382342047,-5.0672674144347,5.056947431542167,5.220581159408496,6759029.469372214,1.1939549466814758,4.7594845302381766E-8,-0.1576236996143403,3.898460300125442E-8,-0.752244307993298,0.4318280279871511,1.3687503877295812,4.658681209898652E-20,-0.0011222300308759384,4.0657581468206416E-20,336562.2826213528,1.5738410512148503E-11,1120.1501004248387,-5.067265238639665,5.056954436820352,5.2205764644031705
2400.0,-1757961.4448662282,-4943075.64153396,-4180093.1213971055,3954978.882442242,-3443530.9033643804,-4183042.0390099264,1828.7491577875855,6551.678330186155,-3687.9540508591476,-5.222735166914306,4.547335597042265,5.523905517238342,6759028.564257741,1.1983302159295892,5.07963369840095E-8,-0.15574067919613957,3.736715229013926E-8,-0.7326121724846089,0.38220356820713147,1.418318857943312,4.658681209898652E-20,-0.0011222300308759384,4.0657581468206416E-20,338214.9699995942,1.4997893454619678E-11,1113.476147512942,-5.222733407126627,4.547342583121044,5.523901403757061
2460.0,-1369414.2688987148,-4883996.905383019,-4391164.041025672,4055221.052401602,-3042560.7140559214,-4394206.340659663,1511.3566463554396,6808.681201716409,-3348.0932479719295,-5.352711053564838,4.0160366310302384,5.800158588335052,6759027.704363517,1.2027054851776549,5.389313684388665E-8,-0.15387585805484372,3.527687423205515E-8,-0.7159657603502887,0.33176240803136536,1.4659319787053153,4.658681209898652E-20,-0.0011222300308759384,4.0657581468206416E-20,340074.2568538945,1.4219535905868156E-11,1106.4746731839432,-5.35270969018054,4.016043516898991,5.800155048606315
2520.0,-973785.4494302813,-4805243.852202741,-4581377.36967451,4136201.2963188384,-2627138.4814714673,-4584498.600667501,1186.9460330394447,7033.223517809432,-2992.5035852666083,-5.456581698068283,3.465780397806344,6.047988761043359,6759026.891478314,1.207080754425705,5.6850709302122855E-8,-0.15203413829410786,3.273323287145362E-8,-0.7021001542334692,0.28064718572357594,1.5119071629553567,4.658681209898652E-20,-0.0011222300308759384,4.0657581468206416E-20,342118.8978304738,1.34195645486214E-11,1099.2017483249524,-5.456580705137597,3.46578711255659,6.047985776078212
2580.0,-572778.9141433012,-4707256.159452113,-4749841.64280435,4197545.820340266,-2199244.2807967407,-4753026.98776602,857.0984080696851,7224.252118790149,-2622.9269831709544,-5.533878972026817,2.8993901550618313,6.266205168848771,6759026.126454097,1.211456023673723,5.963609718556446E-8,-0.15022030252912483,2.9762596146938425E-8,-0.6908442813416954,0.2289858978076191,1.5565394616316075,4.658681209898652E-20,-0.0011222300308759384,4.0657581468206416E-20,344327.52497807186,1.2612815151392158E-11,1091.7185582344905,-5.533878318989701,2.8993966390286143,6.266202710573183
2640.0,-168126.3926764711,-4590551.231198884,-4895771.883060062,4238976.450609002,-1760916.2471461708,-4899006.230130394,523.4185435994992,7380.885583463921,-2241.171832758643,-5.584281812373346,2.3197641630004138,6.453783913702597,6759025.40930154,1.2158312929217412,6.221822855026299E-8,-0.1484389895490184,2.6396817715539138E-8,-0.6820593755682828,0.1768948151490494,1.6001047527347216,4.658681209898652E-20,-0.0011222300308759384,4.0657581468206416E-20,346678.97574182035,1.1812360828012505E-11,1084.0901456869562,-5.584281465741271,2.3197703682095927,6.453781947181566
2700.0,238420.72794781157,-4455721.151164281,-5018493.28355004,4260311.7888950445,-1314240.1474431113,-5021761.299955958,187.52604427362309,7502.41816896236,-1849.1028252164053,-5.607616879619045,1.7298569700813275,6.609872915654179,6759024.739304913,1.2202065621697118,6.45683259056717E-8,-0.14669467092887153,2.267215956276404E-8,-0.6756373840650823,0.12448108741901312,1.642863225539049,4.658681209898652E-20,-0.0011222300308759384,4.0657581468206416E-20,349152.5981696136,1.1029268426433903E-11,1076.3833369833214,-5.60761680451099,1.7298628600787014,6.60987140126183
2760.0,645099.6290386914,-4303429.305864634,-5117444.273405191,4261467.836762449,-861338.7497005195,-5120730.479909241,-148.95350733887344,7588.322622963941,-1448.630532088881,-5.603858075088899,1.1326605724274426,6.733795368959107,6759024.115146434,1.2245818314176822,6.666022523085694E-8,-0.14499162873536273,1.8627922012272837E-8,-0.6714995346552755,0.07184508987452876,1.6850629784726325,4.658681209898652E-20,-0.0011222300308759384,4.0657581468206416E-20,351728.52807093505,1.0272474727370936E-11,1068.6638551158844,-5.603858236554612,1.1326661215962543,6.73379426437644
2820.0,1050144.3174983682,-4134406.7036753255,-5192178.95317661,4242458.090002764,-404361.0574699306,-5195467.799010177,-484.397342910803,7638.251866537265,-1041.7008200164819,-5.573124950415949,0.5311856402210047,6.825051804454162,6759023.5350364875,1.228957100665621,6.84705952970917E-8,-0.14333393445798265,1.4305424513849676E-8,-0.6695951950211226,0.019082571211794665,1.7269436371919207,4.658681209898652E-20,-0.0011222300308759384,4.0657581468206416E-20,354387.9336522058,9.548773933007812E-12,1060.9928716666539,-5.573125314505454,0.5311908327147195,6.82505106640728
2880.0,1451793.8657101837,-3949448.0173650263,-5242368.892639922,4203393.1090448275,54528.52301246771,-5245644.830515453,-817.1941730105169,7652.039557256816,-630.2841831185485,-5.515680056616362,-0.07155700264617766,6.883320777010427,6759022.996839573,1.2333323699135281,6.99786785006156E-8,-0.14172542928511267,9.747163009047197E-9,-0.6699010994764639,-0.03371333770906496,1.7687399555752512,4.658681209898652E-20,-0.0011222300308759384,4.0657581468206416E-20,357113.2239912218,8.862909318460692E-12,1053.4235582948545,-5.515680591180433,-0.07155217421811512,6.883320362694987
2940.0,1848300.5862939314,-3749407.3790406003,-5267804.288515244,4144479.5748680905,513161.01636207494,-5271051.849316758,-1145.7526623589347,7629.699553128868,-216.36507449962093,-5.43192529277841,-0.672574469524438,6.9084582148767915,6759022.498192858,1.2377076391614352,7.116707578862871E-8,-0.1401697058307416,4.995926965047585E-9,-0.672420983679099,-0.08645019493101144,1.8106853961101195,4.658681209898652E-20,-0.0011222300308759384,4.0657581468206416E-20,359888.2185892199,8.217760347830245E-12,1045.9984243291165,-5.4319259680088585,-0.6725700055201004,6.908458083048006
3000.0,2237938.09555895,-3535193.9574824856,-5268394.484422192,4066018.8435410005,969373.6471860663,-5271598.351181126,-1468.509657750575,7571.424308060791,198.06868435901706,-5.322397325541394,-1.2689093092611121,6.9004954843748205,6759022.036610918,1.2420829084093103,7.202147196888681E-8,-0.13867009140273923,9.415234436495762E-11,-0.6771856436975451,-0.13903433958580858,1.8530157035551638,4.658681209898652E-20,-0.0011222300308759384,4.0657581468206416E-20,362698.2761248794,7.614608834414411E-12,1038.7481817407058,-5.322398114280749,-1.268905204414492,6.900495596114177
3060.0,2619009.221476195,-3307767.3485492934,-5244167.860004737,3968405.0158512043,1421020.4818783167,-5247312.94077856,-1783.9381152608792,7477.582238960061,611.0363412263216,-5.187762159943586,-1.857656263635295,6.859636238375096,6759021.609571668,1.246458177657154,7.25304554701623E-8,-0.13722963288818665,-4.916616762439005E-9,-0.6842534168851083,-0.1913689467470913,1.8959724901330555,4.658681209898652E-20,-0.0011222300308759384,4.0657581468206416E-20,365530.38141747017,7.053455590403564E-12,1031.6924808686401,-5.18776303780802,-1.857652508352963,6.859636557571418
3120.0,2989853.714334841,-3068132.809680105,-5195271.100534829,3852122.541545736,1865982.8827815645,-5198342.599818827,-2090.554678432516,7348.714112933549,1020.5744271782776,-5.02880894974562,-2.4359781529183335,6.786252130039698,6759021.214583296,1.2508334469049975,7.268561247618558E-8,-0.13585108331691945,-9.995871907403412E-9,-0.6937110622685335,-0.2433519861205107,1.939806842710843,4.658681209898652E-20,-0.0011222300308759384,4.0657581468206416E-20,368373.19046961394,6.533349461988727E-12,1024.8422588459312,-5.028809895110512,-2.4359747344053604,6.786252623638929
3180.0,3348855.7208932056,-2817336.369541159,-5121967.862382634,3717743.3804360745,2302179.7175628017,-5124951.35070034,-2386.926864596797,7185.528510370924,1424.7466817241543,-4.846443140928047,-3.0011207770098087,6.680877484263138,6759020.849232405,1.2552087161527934,7.24812853210434E-8,-0.1345368901483687,-1.5104508524270395E-8,-0.7056749917328229,-0.2948740250441486,1.9847829409303654,4.658681209898652E-20,-0.0011222300308759384,4.0657581468206416E-20,371217.0342887004,6.0526909073924245E-12,1018.202954188715,-4.846444134822366,-3.0011176802043136,6.680878122345891
3240.0,3694450.985726846,-2556459.8435636265,-5024636.853488335,3565923.74502154,2727577.2701853556,-5027518.334823287,-2671.6798222275643,6988.89642586944,1821.6536294607981,-4.64167904569578,-3.550426739062659,6.544203027962414,6759020.511214848,1.2595839854005895,7.191460392699145E-8,-0.1332891853136898,-2.0205182441320894E-8,-0.720292763286296,-0.3458158160639617,2.031181636021894,4.658681209898652E-20,-0.0011222300308759384,4.0657581468206416E-20,374053.8829683323,5.609483523062487E-12,1011.7777096247366,-4.641680071642336,-3.550423947387998,6.544203783702825
3300.0,4025133.746571824,-2286615.785518753,-4903769.351354866,3397400.451336215,3140198.803734842,-4906535.328105255,-2943.502628125392,6759.84507394522,2209.441754986662,-4.415631946029797,-4.0813481184580125,6.377068786785597,6759020.198353966,1.2639592546483536,7.09854492826426E-8,-0.13210977702805976,-2.5261881512505282E-8,-0.7377446853523599,-0.39604561115662457,2.079303876106844,4.658681209898652E-20,-0.0011222300308759384,4.0657581468206416E-20,376877.2722411327,5.201523401213399E-12,1005.5699052706326,-4.4156329898574525,-4.081345614417906,6.3770696363337125
3360.0,4339463.2936881585,-2008942.404404491,-4759966.184079717,3212986.9064152543,3538133.7294920916,-4762603.719237859,-3201.15409917691,6499.550970264196,2586.312229396772,-4.169509825690084,-4.591457939962029,6.18045625994512,6759019.9086080445,1.268334523896086,6.969621542993347E-8,-0.13100014337672225,-3.024008265940695E-8,-0.7582452848773432,-0.44541615112965127,2.1294737648377815,4.658681209898652E-20,-0.0011222300308759384,4.0657581468206416E-20,379682.19537870405,4.826530356088338E-12,999.5847364437504,-4.169510875334469,-4.591455705608267,6.180457182262848
3420.0,4636070.166590751,-1724598.4748046277,-4593934.202541739,3013568.7621179796,3919546.340974536,-4596430.978821926,-3443.4680993209827,6209.332361726254,2950.5291484500867,-3.904604827717713,-5.078460405460549,5.955479986779115,6759019.6400738405,1.2727097931452471,6.805125569225207E-8,-0.12996142766332308,-3.510791094679591E-8,-0.7820442474068606,-0.4937612940929427,2.1820408922704075,4.658681209898652E-20,-0.0011222300308759384,4.0657581468206416E-20,382464.96391287004,4.48223278494698E-12,993.8298699623111,-3.9046058730202637,-5.078458422759926,5.955480963449721
3480.0,4913661.964865391,-1434758.2674978522,-4406482.27404482,2800099.266030801,4282684.076115046,-4408826.649705547,-3669.3583280823186,5890.64108018318,3300.4272493214426,-3.6222845310702194,-5.5401998734547035,5.703378618441039,6759019.390982586,1.2770850623929477,6.605766284904108E-8,-0.12899443549914894,-3.9834250462708746E-8,-0.8094262268502738,-0.5408922778272944,2.237381363017668,4.658681209898652E-20,-0.0011222300308759384,4.0657581468206416E-20,385223.0411673499,4.1664195453414275E-12,988.3153881561173,-3.622285563581288,-5.540198124576188,5.703379633465179
3540.0,5171028.75308159,-1140606.5257153537,-4198516.829505467,2573594.340829298,4625885.275253235,-4200697.890635357,-3877.8225825112463,5545.053894925812,3634.4190795968543,-3.3239831352167593,-5.974668589152671,5.425505605930571,6759019.159696871,1.2814603316406326,6.372463004978758E-8,-0.1280996335983305,-4.4390674939777145E-8,-0.840708629415457,-0.5865936672686118,2.295896650203597,4.658681209898652E-20,-0.0011222300308759384,4.0657581468206416E-20,387954.853033611,3.876970239031766E-12,983.0532738579647,-3.323984148006312,-5.974667056690368,5.4255066455174585
3600.0,5407048.043190254,-843333.5105438731,-3971036.997650671,2335127.4238081668,4947586.407102806,-3973044.6067109355,-4067.946489525953,5174.263438408038,3951.0015987359693,-3.011192635544651,-6.380013184255504,5.123319611744798,6759018.944703535,1.2858356008883016,6.106312321160177E-8,-0.12727715023759495,-4.875029400746736E-8,-0.8762360914514021,-0.6306191339218377,2.3580090159774167,4.658681209898652E-20,-0.0011222300308759384,4.0657581468206416E-20,390659.5807710702,3.611872125268086E-12,978.0566567284538,-3.0111936230228835,-6.3800118513988915,5.123320664104476
3660.0,5620689.340894154,-544130.1374117595,-3725129.3606899553,2085824.0983266889,5246328.739287441,-3726954.201130134,-4238.906710419875,4780.068778083912,4248.762198501561,-2.6854540654746444,-6.754539980158248,4.798374746912608,6759018.744607716,1.2902108701359387,5.808599081910788E-8,-0.1265267773266861,-5.288814361649735E-8,-0.9163699115272735,-0.6726873660975076,2.4241517772131123,4.658681209898652E-20,-0.0011222300308759384,4.0657581468206416E-20,393336.94087873027,3.3692289674757454E-12,973.3389806123232,-2.6854550232241166,-6.754538830818451,4.798375802053642
3720.0,5811018.245591846,-244183.22358661224,-3461962.3665560223,1826856.5486759846,5520764.434338671,-3463595.983343546,-4389.973623622134,4364.365704815293,4526.38413476558,-2.3483488734801234,-7.096719141120297,4.4523107283546945,6759018.558125632,1.29458613938356,5.4807595079651256E-8,-0.12584797403100476,-5.6780995578717876E-8,-0.9614702371105424,-0.7124786350961471,2.4947522326655,4.658681209898652E-20,-0.0011222300308759384,4.0657581468206416E-20,395986.9572507128,3.147264967078922E-12,968.9131922880688,-2.348349798100483,-7.0967181600195754,4.45231177789049
3780.0,5977200.096373102,55329.13526699563,-3182780.43309756,1559437.8693936667,5769662.056187362,-3184215.269025236,-4520.513495646165,3929.1368051776017,4782.651368563252,-2.0014904949657812,-7.40518773487379,4.0868430435972325,6759018.384076864,1.2989614086311496,5.1244116564750485E-8,-0.12523987187955363,-6.040753696643964E-8,-1.011868526296583,-0.7496328523296835,2.5702047858644868,4.658681209898652E-20,-0.0011222300308759384,4.0657581468206416E-20,398609.7309023776,2.944325559657332E-12,964.7910057521398,-2.001491383931647,-7.405186907604315,4.086844080563201
3840.0,6118503.159253305,353242.04337307933,-2888897.7795849303,1284816.259351717,5991911.476110517,-2890127.2072437075,-4629.990153503604,3476.441381264813,5016.452819230544,-1.6465161703917024,-7.678751767081437,3.7037532011250267,6759018.221376963,1.3033366778787392,4.741321294148752E-8,-0.12470128128928455,-6.374836803166215E-8,-1.06782805043393,-0.7837503289759215,2.6508320416349607,4.658681209898652E-20,-0.0011222300308759384,4.0657581468206416E-20,401205.21252823266,2.7588760549894486E-12,960.9822648325617,-1.6465170219238534,-7.678751080138769,3.7037542198081264
3900.0,6234301.35333537,648408.1238210938,-2581692.020583554,1004269.1300591369,6186528.170787565,-2582710.3699105214,-4717.966174681458,3008.40527739191,5226.786036880031,-1.2850790523272035,-7.916387263013994,3.3048791353227025,6759018.06903022,1.307711947126297,4.333379785184881E-8,-0.12423069942954007,-6.678601196809047E-8,-1.1294915110986394,-0.814396819757678,2.736832960219874,4.658681209898652E-20,-0.0011222300308759384,4.0657581468206416E-20,403772.98302998004,2.589498686379662E-12,957.4944078841936,-1.2850798652768314,-7.916386703810026,3.3048801311041496
3960.0,6324076.515867643,939701.6659856536,-2262597.5566984834,719097.1565841342,6352656.908548729,-2263400.1380320494,-4784.103613082888,2527.2106685298495,5412.760305316507,-0.9188406354663863,-8.117240474818196,2.892105825256748,6759017.926123495,1.312087216373823,3.9025833546628475E-8,-0.12382631934960373,-6.95048224368757E-8,-1.1968178447601836,-0.8411146295543159,2.8282201515922627,4.658681209898652E-20,-0.0011222300308759384,4.0657581468206416E-20,406312.04693518975,2.4348884344762573E-12,954.3320279826296,-0.9188414092118646,-8.117240031677778,2.892106794468142
4020.0,6387420.208215466,1226022.5909978831,-1933098.7959249949,430618.29833987606,6489574.823043895,-1933681.9185204117,-4828.164281118053,2035.0858605042608,5573.599189754984,-0.5494635351970104,-8.280627295874202,2.467356176713122,6759017.791818746,1.3164624856213492,3.451045067387552E-8,-0.12348604028973437,-7.189109009338066E-8,-1.2695153354017101,-0.8634413095790334,2.9247534383934064,4.658681209898652E-20,-0.0011222300308759384,4.0657581468206416E-20,408820.64331322716,2.2938478999099015E-12,951.4965171521753,-0.5494642695524031,-8.280626958019072,2.4673571165057906
4080.0,6424035.066583817,1506300.2266520998,-1594723.2383991135,140161.81572591074,6596693.876416763,-1595084.2243777842,-4850.009609422588,1534.2951470501737,5708.64254637306,-0.1786046322252681,-8.406031965074353,2.0325822071225152,6759017.665347087,1.3208377548688435,2.9809522269377785E-8,-0.12320747909524157,-7.393276037943032E-8,-1.3469846107882495,-0.8809364400313974,3.02588327048368,4.658681209898652E-20,-0.0011222300308759384,4.0657581468206416E-20,411296.07839981146,2.165281455012213E-12,948.9857813236035,-0.1786053273596582,-8.406031722597442,2.0325831153495364
4140.0,6433735.702911678,1779496.8848119553,-1249034.4562532075,-150937.69269859724,6673562.716622662,-1249171.6499786489,-4849.600106500982,1027.1287638456313,5817.3480128213905,0.19209140685139073,-8.493105143554105,1.5897565634631046,6759017.546002307,1.325213024116306,2.494570988489087E-8,-0.1229879826546801,-7.561980782999308E-8,-1.4282905363548632,-0.8932150022245605,3.1307230116596725,4.658681209898652E-20,-0.0011222300308759384,4.0657581468206416E-20,413734.5836596823,2.048188875596261E-12,946.794012255233,0.19209075048475183,-8.493104987386745,1.5897574385732212
4200.0,6416449.162719862,2044611.235957885,-897624.9990874416,-441346.20918441494,6719867.935790818,-897537.7719791926,-4826.994440970518,515.892974743492,5899.292000343089,0.5609982301686159,-8.54166144458588,1.1408643940750742,6759017.4331355095,1.3295882933637686,1.9942377416455513E-8,-0.12282464128091285,-7.694406010788427E-8,-1.5121822731259915,-0.8999831605438784,-3.0451159362149447,4.658681209898652E-20,-0.0011222300308759384,4.0657581468206416E-20,416131.20247130276,1.9416586234819596E-12,944.9115024740086,0.5609976118943499,-8.541661366459923,1.1408652350175945
4260.0,6372214.947833447,2300681.4769698456,-542109.2542978044,-729736.149941504,6735434.738499415,-541798.0051120151,-4782.3481690586605,2.900320665776409,5954.1702091476345,0.926513525944335,-8.551676494195084,0.6878955866975027,6759017.326149937,1.3339635626111994,1.4823457225752263E-8,-0.1227143029577271,-7.789920679650037E-8,-1.5971719738144268,-0.9010698719712734,-2.93670384884992,4.658681209898652E-20,-0.0011222300308759384,4.0657581468206416E-20,418479.70800948347,1.844860913226683E-12,943.3244886272704,0.926512944919155,-8.551676486601506,0.687896392837186
4320.0,6301184.612838184,2546788.289562269,-184116.29018570657,-1014792.1318538876,6720227.0305240825,-183582.4408076045,-4715.912129620609,-509.53994290360305,5981.79768918032,1.2870643817492349,-8.523283595726404,0.23283737704495347,6759017.224496853,1.3383388318585985,9.6133298358567E-9,-0.12265358837531667,-7.848059438335905E-8,-1.681665056096015,-0.8964470430168959,-2.828773898353105,4.658681209898652E-20,-0.0011222300308759384,4.0657581468206416E-20,420772.55425163556,1.7570414205404833E-12,942.0150966202108,1.2870638370090328,-8.523283651871575,0.23283814808621286
4380.0,6203620.94487261,2782057.5879810737,174717.29155610397,-1295216.6334624588,6674346.940044875,175471.30474718873,-4628.03052824129,-1019.1311981310887,5982.108468465864,1.641112291831419,-8.456770066262163,-0.22233267505405802,6759017.127669119,1.3427141011059978,4.3365758883891915E-9,-0.12263890668057216,-7.868579655883831E-8,-1.764115671211135,-0.8862329656686865,-2.722825108398981,4.658681209898652E-20,-0.0011222300308759384,4.0657581468206416E-20,423000.8613496651,1.6775835194797734E-12,940.9695914878903,1.6411117823112624,-8.456770180027378,-0.22233193910452384
4440.0,6079896.736936848,3005663.0556233916,532754.4687072791,-1569735.532183947,6598033.784485608,533725.2078250992,-4519.138731008774,-1523.5985889459603,5955.154770825519,1.9871578307100548,-8.35257330662296,-0.6756533513403308,6759017.035191508,1.347089370353365,-9.819525454497116E-10,-0.12266647187090736,-7.851409241811968E-8,-1.8431705215560032,-0.8706780890864685,-2.620163494749016,4.658681209898652E-20,-0.0011222300308759384,4.0657581468206416E-20,425154.43591923534,1.6060432584693106E-12,940.1850082485619,1.9871573552491115,-8.352573472539747,-0.6756526501861854
4500.0,5930493.165313919,3216828.4711491168,888364.8527457897,-1837103.5009345966,6491662.497113304,889547.8956476934,-4389.760787353586,-2020.697902752411,5901.105844038372,2.3237450145974416,-8.211276659916638,-1.125186097629828,6759016.946614136,1.3514646396007006,-6.317351334197862E-9,-0.12273231976230745,-7.796655308912983E-8,-1.9177690958418172,-0.8501369484569624,-2.5218014744132558,4.658681209898652E-20,-0.0011222300308759384,4.0657581468206416E-20,427221.8260970167,1.5420199052208244E-12,939.6554448256197,2.3237445719803325,-8.211276873143564,-1.1251854307480553
4560.0,5755997.781993036,3414829.8254322377,1239931.6616819578,-2096109.2484500892,6355741.528295526,1241321.6233810526,-4240.506699965696,-2508.2241985200335,5820.24641845803,2.6494653748995045,-8.033605106237431,-1.5690210231005977,6759016.861510607,1.3558399088480522,-1.1644678460277647E-8,-0.12283232546624184,-7.704599727099184E-8,-1.9871855662819926,-0.8250331024568904,-2.4284156009713205,4.658681209898652E-20,-0.0011222300308759384,4.0657581468206416E-20,429190.41054585576,1.4851438230607739E-12,939.3706809886888,2.649464963896661,-8.03360536253222,-1.5690203898042379
4620.0,5557102.133159389,3598997.231336486,1585858.5899079097,-2345580.588629563,6190910.236901355,1587449.14803317,-4072.06945829482,-2984.0201726590726,5712.974814785256,2.9629617697188033,-7.820420833469519,-2.0052826000309434,6759016.779476175,1.360215178095356,-1.693914617832683E-8,-0.12296222131193671,-7.575698942868661E-8,-2.0510169605348225,-0.7958242030497785,-2.340358007866869,4.658681209898652E-20,-0.0011222300308759384,4.0657581468206416E-20,431046.519938399,1.435076649279209E-12,939.3162043299953,2.9629613891222286,-7.820421129157475,-2.005281999526339
4680.0,5334599.0149103645,3768716.6288042576,1924576.5545467993,-2584389.3251737044,5997935.7877814835,1926360.478726111,-3885.2218505468495,-3445.984256249264,5579.800718181585,3.2629319603589297,-7.572718716294903,-2.432135090694369,6759016.700125558,1.3645904473426438,-2.2176121730748934E-8,-0.12311761515436985,-7.410598951455947E-8,-2.109134718164929,-0.7629723965717383,-2.257704444072794,4.658681209898652E-20,-0.0011222300308759384,4.0657581468206416E-20,432775.58885009587,1.3915065592563011E-12,939.4725732812229,3.262931609014911,-7.5727190482333935,-2.432134522135147
4740.0,5089379.377386963,3923431.2881340836,2254550.29876699,-2811455.9386340994,5777709.571596078,2256519.483797481,-3680.813067456319,-3892.0784388795723,5421.342634237487,3.5481319801608464,-7.291621727579246,-2.8477877302348236,6759016.623091593,1.3689657165913447,-2.7331385286151356E-8,-0.12329400900936205,-7.210103980164397E-8,-2.1616196039030005,-0.7269225276843889,-2.1803189234989433,4.658681209898652E-20,-0.0011222300308759384,4.0657581468206416E-20,434362.33544861083,1.3541233758082183E-12,939.8118073999256,3.548131657004389,-7.2916220931127,-2.847787192780563
4800.0,4822428.8884606,4062643.1146335187,2574284.833403671,-3025754.06373678,5531243.163505139,2576430.3360635745,-3459.7651094823655,-4320.3358155690385,5238.325040538605,3.8173793226751207,-6.978376298405006,-3.25049969564928,6759016.548026673,1.373340985838585,-3.2381140708353294E-8,-0.1234868179627174,-6.97514169688151E-8,-2.208695936693314,-0.688088294296269,-2.1079190221478163,4.658681209898652E-20,-0.0011222300308759384,4.0657581468206416E-20,435790.96588621545,1.322680836140171E-12,940.3062301190685,3.81737902674466,-6.978376695332814,-3.2504991884936554
4860.0,4534824.168194131,4185913.7578470297,2882331.699000264,-3226314.745496008,5259663.837420732,2884643.7783469944,-3223.0690074774957,-4728.8678539771545,5031.575245739731,4.0695559752335715,-6.63434763518686,-3.638584891527655,6759016.474579224,1.3777162550858253,-3.7302019551498336E-8,-0.12369138929881653,-6.706834705308746E-8,-2.2506746269016698,-0.6468451100679354,-2.040132322827171,4.658681209898652E-20,-0.0011222300308759384,4.0657581468206416E-20,437045.39989201725,1.297567150795667E-12,941.0146401959857,4.069555705566208,-6.634348061923234,-3.638584413714201
4920.0,4227728.705077618,4292865.528883358,3177295.031040987,-3412230.4631893593,4964209.652681655,3179763.192030946,-2971.780865377327,-5115.871379414716,4802.019966257227,4.3036113219150645,-6.261014995526526,-4.010416582003727,6759016.402373766,1.3820915243330338,-4.207149186608633E-8,-0.12390302179852067,-6.406452679118885E-8,-2.287908774468102,-0.6035279206482173,-1.9765402458222783,4.658681209898652E-20,-0.0011222300308759384,4.0657581468206416E-20,438109.513730753,1.2792009890882916E-12,941.9970381343805,4.303611077605181,-6.261015451127153,-4.010416132500891
4980.0,3902388.4652211396,4383182.129081917,3457837.411699604,-3582658.911736582,4646224.130156921,3460450.4519564393,-2707.0177320572466,-5479.6352750265905,4550.681628910995,4.518564938566817,-5.859966916470869,-4.3644318985720405,6759016.3310128655,1.3864667935802266,-4.666719831424217E-8,-0.12411698515591,-6.075408340569773E-8,-2.3207618103773924,-0.5584322841620808,-1.9167092731424884,4.658681209898652E-20,-0.0011222300308759384,4.0657581468206416E-20,438967.3964339968,1.2679708576637559E-12,943.302336886853,4.518564718837885,-5.859967400626476,-4.3644314763745635
5040.0,3560127.2056112234,4456609.193325877,3722685.4918764965,-3736826.530414882,4307150.534962123,3725431.55142604,-2429.9533082320972,-5818.546893945684,4278.674406143719,4.713509299310123,-5.432896382698406,-4.699136250629554,6759016.260077359,1.3908420628273876,-5.106778756703254E-8,-0.12432853946755446,-5.715252425194316E-8,-2.3495862844949564,-0.5118173564256316,-1.860211451859788,4.658681209898652E-20,-0.0011222300308759384,4.0657581468206416E-20,439603.61503284366,1.2643032146680408E-12,944.9750605904035,4.71350910357246,-5.4328968957376125,-4.69913585483807
5100.0,3202341.502674313,4512954.651093968,3970635.367647251,-3874031.769162294,3948525.7831870005,3973501.9814291056,-2141.813493203717,-6131.098179285399,3987.1999889086223,4.8876124109143655,-4.981595916071653,-5.013107663132969,6759016.18912172,1.3952173320745327,-5.525277277693468E-8,-0.12453295474406466,-5.327665372611276E-8,-2.37471082650672,-0.46390980836002876,-1.8066366366813176,4.658681209898652E-20,-0.0011222300308759384,4.0657581468206416E-20,440003.4844099879,1.2687020980346488E-12,947.0580013973495,4.887612238819233,-4.981596458970492,-5.01310729302689
5160.0,2830495.5075646485,4552088.90814424,4200557.695508881,-3993648.0829805126,3571973.990320438,4203531.848466562,-1843.871775378406,-6415.891486558075,3677.543100945368,5.040120387910961,-4.50795256247498,-5.305001062587572,6759016.117669525,1.399592601321678,-5.9202466208948416E-8,-0.12472553039788371,-4.914449872149981E-8,-2.3964329382776426,-0.41490804255330865,-1.7555987983597992,4.658681209898652E-20,-0.0011222300308759384,4.0657581468206416E-20,440153.337351374,1.2817836800602953E-12,949.5938895381754,5.040120239405669,-4.507953136874458,-5.305000717697442
5220.0,2446115.4398649093,4573944.851477016,4411402.530996232,-4095126.645165404,3179199.6794281346,4414470.715539854,-1537.4444698211355,-6671.645101510893,3351.06675700166,5.17035997740104,-4.013942747077007,-5.573552528728548,6759016.045205414,1.4039678705687753,-6.289832118798727E-8,-0.12490161465891285,-4.4774951941242284E-8,-2.4150156964757974,-0.36498633371242606,-1.7067383017420825,4.658681209898652E-20,-0.0011222300308759384,4.0657581468206416E-20,440040.79040032916,1.3043105209745623E-12,952.6265422900427,5.1703598527889225,-4.013943355310008,-5.5735522089128855
5280.0,2050783.8317701907,4578517.679949895,4602203.875367504,-4177998.770273675,2771980.667614199,4605352.150995216,-1223.885805701811,-6897.198444516302,3009.2072666474533,5.277741038273838,-3.5016269651259027,-5.817583524853949,6759015.971165091,1.4083431398158728,-6.63226051216683E-8,-0.12505662387002808,-4.0188035118731504E-8,-2.4306869171708305,-0.31429869608224187,-1.6597215817989592,4.658681209898652E-20,-0.0011222300308759384,4.0657581468206416E-20,439655.00119840575,1.3372266547128692E-12,956.2014529368616,5.277740938282909,-3.501627610253685,-5.817583230385817
5340.0,1646133.53531928,4565864.562635557,4772083.915133776,-4241878.03790055,2352160.6498907176,4775297.969990468,-904.5828663384972,-7091.516950581429,2653.4689846956558,5.361758975064951,-2.973144272174565,-6.03600511486752,6759015.894924597,1.4127184090629386,-6.945893764536811E-8,-0.12518606161303963,-3.5404245332242605E-8,-2.4436397514284307,-0.2629823957937972,-1.6142392257575313,4.658681209898652E-20,-0.0011222300308759384,4.0657581468206416E-20,438986.91312716523,1.3816925883036181E-12,960.3655281252317,5.361758900929119,-2.9731449580310763,-6.036004846536661
5400.0,1233841.5058667813,4536104.126724136,4920256.939258995,-4286462.108508141,1921641.5003015627,4923522.153403223,-580.9503846699491,-7253.696611796366,2285.4188089164572,5.421997121987474,-2.430706535296399,-6.227822169747723,6759015.81578639,1.4170936783099726,-7.229203056393366E-8,-0.12528553761276048,-3.044495734321711E-8,-2.4540340087705137,-0.21116109555377027,-1.5700031384100477,4.658681209898652E-20,-0.0011222300308759384,4.0657581468206416E-20,438029.4832422561,1.4391171813568077E-12,965.1655037704278,5.421997075544082,-2.4307072665353595,-6.227821928984651
5460.0,815622.3757438468,4489415.776500714,5046032.918894558,-4311534.222724716,1482375.3110089072,5049334.429037147,-254.42539740103697,-7382.968166691266,1906.6804257412794,5.45812906783685,-1.8765924054620862,-6.392137560440215,6759015.732963662,1.4214689475570224,-7.480780351155553E-8,-0.12535078636840194,-2.5331906750408744E-8,-2.4619977454556436,-0.15894765831782084,-1.5267432242044991,4.658681209898652E-20,-0.0011222300308759384,4.0657581468206416E-20,436777.88970531547,1.5111809906726034E-12,970.6444977108787,5.458129051643387,-1.8765931875970205,-6.3921373494686256
5520.0,393221.8329487633,4426038.844676313,5148820.734565049,-4316964.37574906,1036356.1910528977,5152143.500035499,73.53823822920484,-7478.700918565298,1518.9283050107097,5.469920907560061,-1.3131409708446453,-6.528156328146428,6759015.6455650395,1.4258442168040246,-7.699344611359712E-8,-0.12537768545555836,-2.0087135027117743E-8,-2.4676288220360627,-0.10644665693396521,-1.4842038488275404,4.658681209898652E-20,-0.0011222300308759384,4.0657581468206416E-20,435229.71516927565,1.5998436285702136E-12,976.8363156523301,5.469920925030936,-1.31314181026615,-6.528156150168909
5580.0,-31590.179256019208,4346271.57713721,5228131.0358027285,-4302710.158760751,585611.8476454288,5231459.905492371,401.47546010786044,-7540.406162447607,1123.881445549472,5.457233401367396,-0.742745051466488,-6.635189816721268,6759015.552577098,1.430219486051027,-7.883743850023174E-8,-0.12536227344228743,-1.4732685003635299E-8,-2.4709962473196057,-0.053756645964594486,-1.4421402272575161,4.658681209898652E-20,-0.0011222300308759384,4.0657581468206416E-20,433385.1028537802,1.70732746985144E-12,983.757669435058,5.457233456928208,-0.7427459554153719,-6.635189676139865
5640.0,-457026.4248056776,4250469.952008876,5283578.7183690965,-4268817.259570148,132194.97414802044,5286898.49839297,727.9157430940481,-7567.740198026133,723.2968744603154,5.4200240174183465,-0.1678440973309523,-6.712659745490983,6759015.4528515,1.4345947552979816,-8.032944763630499E-8,-0.12530076735787934,-9.290513674785823E-9,-2.4721411995291023,-9.722550879028907E-4,-1.4003148094474709,4.658681209898652E-20,-0.0011222300308759384,4.0657581468206416E-20,431246.8823582169,1.8360736243669895E-12,991.3994389753072,5.420024116670411,-0.16784507380319233,-6.712659648158361
5700.0,-881289.4810166379,4139046.3338190913,5314885.004414911,-4215419.615162909,-321825.52968861,5318180.526227627,1051.3889592282317,-7560.506903683227,318.96290452375405,5.358348829424631,0.4090833449631487,-6.760102194344989,6759015.345090818,1.4389700245449362,-8.146017992450264E-8,-0.12518957965264219,-3.782215451358553E-9,-2.471077662771196,0.051813836194886755,-1.3584936871782474,4.658681209898652E-20,-0.0011222300308759384,4.0657581468206416E-20,428820.66259636544,1.9886744881010275E-12,999.7192422610782,5.358348979307974,0.40908228740012853,-6.76010214783471
5760.0,-1302578.9687481446,4012467.9635025146,5321879.111250383,-4142739.209318813,-774373.4780939459,5325135.299944913,1370.4313466278109,-7518.659844797297,-87.30784402757665,5.272364236051359,0.9855276281217059,-6.777171466538768,6759015.227842793,1.443345293791875,-8.22220700984874E-8,-0.1250253345813749,1.7710538912853737E-9,-2.4677926476141483,0.10450898345709932,-1.3164430180165996,4.658681209898652E-20,-0.0011222300308759384,4.0657581468206416E-20,426114.8896060348,2.1677981962917565E-12,1008.6381946322158,5.2723644449919345,0.9855264806105397,-6.777171480417069
5820.0,-1719098.8852693278,3871255.2850173255,5304499.494836904,-4051085.509124298,-1223374.4314628984,5307701.437349293,1683.5915752795258,-7442.3038877540985,-493.68564882915734,5.162328464873905,1.5589564883908882,-6.763643788397606,6759015.099495962,1.447720563038782,-8.260875549227734E-8,-0.12480488394336028,7.34911341251392E-9,-2.462245986126408,0.15701866332095402,-1.2739254496204302,4.658681209898652E-20,-0.0011222300308759384,4.0657581468206416E-20,423140.86737906275,2.3761276059514144E-12,1018.0440668519741,5.162328742902242,1.558955242156267,-6.763643874477174
5880.0,-2129065.0169494944,3715980.1094636023,5262794.654700952,-3940854.5349784745,-1666764.8098078966,5265927.667638612,1989.4368955904863,-7331.696289749118,-898.3311066385565,5.028602819945317,2.1268240376009517,-6.719420799128398,6759014.958278226,1.4520958322856732,-8.261506545042257E-8,-0.12452532210526956,1.2932740722880402E-8,-2.4543697103219726,0.20924450198826042,-1.2306965274122534,4.658681209898652E-20,-0.0011222300308759384,4.0657581468206416E-20,419912.7402861577,2.6163329020090938E-12,1027.8009463836077,5.028603178779017,2.1268226843909064,-6.719420971688449
5940.0,-2530712.407200841,3547263.6177961775,5196923.4877275275,-3812527.559613668,-2102501.055102761,5199973.18453401,2286.55935300603,-7187.247233513979,-1299.4027563856023,4.871652628860251,2.6865802749869943,-6.644532778388728,6759014.802257074,1.4564711015325642,-8.223698848066075E-8,-0.12418400023401431,1.850390741136618E-8,-2.4440670442983072,0.2610821872671011,-1.1865010808457017,4.658681209898652E-20,-0.0011222300308759384,4.0657581468206416E-20,416447.4361282305,2.8910812779884046E-12,1037.7629372876406,4.871653081948594,2.6865788075586914,-6.644533054353097
6000.0,-2922302.8533659237,3365774.2035279777,5107155.179234017,-3666669.432735469,-2528568.808274915,5110107.536399245,2573.582049275067,-7009.519775632482,-1695.0648865869832,4.692047842667707,3.2356811221452353,-6.539141554250003,6759014.629336357,1.4608463707794237,-8.147161789028337E-8,-0.1237785396629699,2.404581039420887E-8,-2.43121107058118,0.3124192043814793,-1.141069610473814,4.658681209898652E-20,-0.0011222300308759384,4.0657581468206416E-20,412764.5693387675,3.2030672956890845E-12,1047.787952780843,4.692048405199414,3.235679534779386,-6.539141953320827
6060.0,-3302132.4044808103,3172225.1572213727,4993868.620879602,-3503926.52913672,-2942992.0647218605,4996710.042901463,2849.1654280877324,-6799.229177196834,-2083.4955061178775,4.490463240179374,3.771598974833954,-6.4035430298714395,6759014.437253501,1.4652216400262512,-8.031719059959955E-8,-0.12330684431314301,2.9543461999732785E-8,-2.4156431777421714,0.36313233611652485,-1.0941147447858857,4.658681209898652E-20,-0.0011222300308759384,4.0657581468206416E-20,408886.304392193,3.5550351143969216E-12,1057.748116726003,4.490463929051863,3.7715972638773696,-6.403543574616063
6120.0,-3668538.830086634,2967372.1950747543,4857551.346332965,-3325024.3195655528,-3343842.2703703344,4860268.729134181,3112.0135598689276,-6557.2415862453145,-2462.894453523314,4.267678187261105,4.2918337547437,-6.238169263720083,6759014.223575762,1.4695969092745076,-7.877302301823768E-8,-0.12276711208979578,3.498283587477397E-8,-2.39717146884231,0.4130848708881216,-1.0453279103719386,4.658681209898652E-20,-0.0011222300308759384,4.0657581468206416E-20,404837.18003370485,3.949764601725145E-12,1067.5351674434933,4.267679021002635,4.2918319191920595,-6.238169979602205
