time,gePosition_m_X,gePosition_m_Y,gePosition_m_Z,eiPosition_m_X,eiPosition_m_Y,eiPosition_m_Z,eiVelocity_m_s_X,eiVelocity_m_s_Y,eiVelocity_m_s_Z,eiAccel_m_s2_X,eiAccel_m_s2_Y,eiAccel_m_s2_Z,semiMajorAxis_m,gast_rad,eulerAngle_rad_Roll,eulerAngle_rad_Pitch,eulerAngle_rad_Yaw,eulerAngleWrtEi_rad_Roll,eulerAngleWrtEi_rad_Pitch,eulerAngleWrtEi_rad_Yaw,bodyAngularRateWrtEi_rad_s_Roll,bodyAngularRateWrtEi_rad_s_Pitch,bodyAngularRateWrtEi_rad_s_Yaw,altitudeMsl_m,airDensity_kg_m3,ambientTemperature_dgK,eiGravitation_m_s2_X,eiGravitation_m_s2_Y,eiGravitation_m_s2_Z
0.0,-1428622.33421604,4163200.23408806,5136049.85325658,-4292653.40999999,955168.470000001,5139356.56999999,109.649662999999,-7527.72648999999,1484.521489,5.52898588900194,-1.23026784864071,-6.61955055896397,6758662.11722884,1.02331933954551,0.0,-0.202458193231342,-2.0E-16,-2.4715939053549,-0.0371889644761349,-1.42899313488854,0.0,-0.0011344542745508,0.0,398254.541169311,3.4018E-12,990.9677734375,5.52898588900194,-1.23026784864071,-6.61955055896397
60.0,-1789712.66744926,3920255.07395507,5213136.77746043,-4276130.76483305,501640.150725502,5216447.94650899,440.899463506811,-7584.04304242897,1084.18935646735,5.50841600846778,-0.646201635305633,-6.71971308812443,6758662.09728454,1.02769460895833,-2.3652471813E-6,-0.20245604266314,-1.006078496256E-4,-2.47205929657798,0.016120423674086,-1.38666117966429,-7.049133021E-7,-0.0011344779883362,-3.3028527039E-6,398336.992200068,3.2024E-12,984.492431640625,5.50841600846778,-0.646201635305633,-6.71971308812443
120.0,-2144732.04879744,3662345.06867506,5266057.40331781,-4239785.46975929,45786.4496808596,5269357.67524557,770.149774607671,-7605.2077508663,678.777160963181,5.46235954098326,-0.0589892294161074,-6.78881820190217,6758662.0746854,1.03206987837114,-2.512081582E-5,-0.202449047001306,-4.002720109456E-4,-2.47030794948922,0.0692802951960854,-1.34410218239072,-1.5682337123E-6,-0.0011344959092939,-6.615081428E-6,398282.350588274,3.31E-12,992.429565429687,5.46235954098326,-0.0589892294161074,-6.78881820190217
180.0,-2492166.1363241,3390598.75815713,5294563.00477717,-4183783.26866824,-410279.479706163,5297837.07854026,1095.87675837023,-7591.1128927818,270.159130175798,5.39101443341057,0.528665862950702,-6.82653019133848,6758662.04983597,1.03644514778395,-9.1801141984E-5,-0.202436414076567,-8.945557522528E-4,-2.46631584767114,0.122194573081485,-1.3010762841751,-2.589767053E-6,-0.0011345075710701,-9.9359410654E-6,398087.265184897,3.4386E-12,1001.05029296875,5.39101443341057,0.528665862950702,-6.82653019133848
240.0,-2830524.94503951,3106195.61033392,5298517.75727983,-4108380.90980048,-864442.8918862,5301750.4510315,1416.57193263095,-7541.8131716158,-139.774651105501,5.294694451442,1.11405497404055,-6.83265644917353,6758662.02317948,1.04082041719676,-2.259093992509E-4,-0.202417402719698,-0.001577414039322,-2.46003131551207,0.174763491844318,-1.2573391712887,-3.7692822606E-6,-0.0011345124462374,-1.32646798766E-5,397750.655509521,3.5884E-12,1010.26550292968,5.294694451442,1.11405497404055,-6.83265644917353
300.0,-3158349.28260548,2810360.89068415,5277899.4312891,-4013925.01653078,-1314597.1967367,5281075.75268749,1730.74908869743,-7457.52566128525,-549.126866602716,5.17382804742207,1.69447645695069,-6.80714868354129,6758661.99519046,1.04519568660958,-4.508037632069E-4,-0.202391345402949,-0.0024412220225527,-2.45137464563143,0.226881529601776,-1.21263857844644,-5.1065108489E-6,-0.0011345099468991,-1.66005389141E-5,397273.753524825,3.7594E-12,1019.95324707031,5.17382804742207,1.69447645695069,-6.80714868354129
360.0,-3474217.09991656,2504360.37302997,5232799.56679382,-3900850.54543165,-1758653.68182583,5235904.78248021,2036.95112589179,-7338.62901854542,-956.001648278214,5.02895672060365,2.2672478996184,-6.75010350643718,6758661.96636637,1.04957095602238,-7.895838863028E-4,-0.202357668395997,-0.0034768111425843,-2.44023743940509,0.278435209191047,-1.16671093034142,-6.6011463063E-6,-0.0011344994253703,-1.99427514561E-5,396660.105554845,3.9509E-12,1029.97082519531,5.02895672060365,2.2672478996184,-6.75010350643718
420.0,-3776749.7289413,2189494.91379002,5163423.12666805,-3769678.83751984,-2194551.16543661,5166442.83059601,2333.75677250818,-7185.6619628256,-1358.51327237643,4.86073287106473,2.82971831985964,-6.66176238763014,6758661.9372193,1.0539462254352,-0.0012649780739291,-0.202315908683411,-0.0046735126830145,-2.42648179091992,0.329300716765542,-1.11927819399991,-8.25284343E-6,-0.0011344801749376,-2.32905424503E-5,395915.534145618,4.162E-12,1040.1689453125,4.86073287106473,2.82971831985964,-6.66176238763014
480.0,-4064617.98031969,1867094.91233823,5070087.62905032,-3621015.27041099,-2620265.53646462,5073007.80935065,2619.78716289038,-6999.32102621806,-1754.79483348019,4.66991715050064,3.37928028986862,-6.5425109669127,6758661.90826718,1.05832149484801,-0.0018992316689413,-0.202265726963818,-0.0060192085556594,-2.40993951105965,0.379341293356083,-1.07004508673896,-1.00612175976E-5,-0.001134451430697,-2.66431279689E-5,395048.060292833,4.3915E-12,1050.40612792968,4.66991715050064,3.37928028986862,-6.5425109669127
540.0,-4336548.07344288,1538514.68050735,4953221.76121418,-3455546.52091764,-3033819.13755693,4956028.86528628,2893.71224059051,-6780.45757942645,-2143.00685792777,4.45737531519927,3.91338193755189,-6.39287771996512,6758661.88002474,1.06269676426082,-0.0027139971665223,-0.202206916141229,-0.0075003890643486,-2.39041168720869,0.428404367937177,-1.01869688944024,-1.202584398E-5,-0.001134412370472,-2.99997146785E-5,394067.787089357,4.6383E-12,1060.55871582031,4.45737531519927,3.91338193755189,-6.39287771996512
600.0,-4591327.37209293,1205126.7445818,4813363.47972636,-3274037.44941804,-3433289.94830342,4816044.47725376,3154.25695795359,-6530.07414266462,-2521.34581772928,4.22407458870228,4.42953877120282,-6.21353197565605,6758661.85299481,1.06707203367362,-0.0037302265933684,-0.202139404824429,-0.0091022173582118,-2.36766901631591,0.476318424105564,-0.964898263034113,-1.41462566979E-5,-0.0011343621158125,-3.33594993257E-5,392986.746470127,4.901E-12,1070.52355957031,4.22407458870228,4.42953877120282,-6.21353197565605
660.0,-4827809.89919504,868316.103343993,4651157.60402158,-3077327.61908689,-3816820.52592789,4653700.04761808,3400.20724299141,-6249.31999372753,-2888.05250607033,3.97107954394441,4.92534527335463,-6.00528128530937,6758661.8276594,1.07144730308643,-0.0049680666932325,-0.202063255469035,-0.0108086002555716,-2.3414535456287,0.522889633075078,-0.908293668095628,-1.64219479237E-5,-0.0011342997330758,-3.67216682397E-5,391818.711347957,5.1782E-12,1080.2197265625,3.97107954394441,4.92534527335463,-6.00528128530937
720.0,-5044921.604836,529474.465872015,4467352.9128536,-2866327.46480884,-4182626.66175765,4469744.99605623,3630.41570506711,-5939.4860887199,-3241.42023560814,3.69954751703734,5.39848620921193,-5.76906814732841,6758661.80447138,1.07582257249925,-0.0064467574637282,-0.201978656926325,-0.01260226509507,-2.31148271250427,0.56789835224245,-0.848510249397178,-1.88523669335E-5,-0.0011342242345904,-4.0085396856E-5,390578.976034727,5.4681E-12,1089.58361816406,3.69954751703734,5.39848620921193,-5.76906814732841
780.0,-5241665.36243172,189994.492828733,4262798.75540071,-2642014.12828076,-4529005.7127775,4265029.36773723,3843.80705171529,-5601.99931421103,-3579.80282105798,3.41072356731086,5.84674759488071,-5.50596609357606,6758661.78384642,1.08019784191205,-0.0081845345860078,-0.201885911300652,-0.0144648422516715,-2.27745688458706,0.611095692257106,-0.785164361375987,-2.14369191117E-5,-0.001134134579904,-4.34498492607E-5,389284.10841957,5.7689E-12,1098.56665039062,3.41072356731086,5.84674759488071,-5.50596609357606
840.0,-5417125.66878539,-148735.93506748,4038441.19109917,-2405426.97744144,-4854344.56879889,4040499.9699703,4039.38318987385,-5238.41609286959,-3901.62230804556,3.10593500072722,6.26802727072501,-5.2171751470499,6758661.76615561,1.08457311132487,-0.0101985362785313,-0.201785415160444,-0.0163769529414797,-2.23907192557852,0.652200508187307,-0.71787323805694,-2.41749649113E-5,-0.0011340296771168,-4.68141777596E-5,387951.677920475,6.0783E-12,1107.12976074218,3.10593500072722,6.26802727072501,-5.2171751470499
900.0,-5570473.02476603,-485339.397844301,3795318.67453931,-2157662.82993851,-5157127.21719654,3797196.05366975,4216.22798590697,-4850.41536790087,-4205.37641087042,2.78658547632681,6.66034502559969,-4.90401666364708,6758661.75171861,1.08894838073768,-0.0125047150882717,-0.201677635293267,-0.018318301930125,-2.19603855333312,0.690897380047464,-0.646273555586467,-2.7065818775E-5,-0.0011339083843006,-5.01775224717E-5,386599.963726443,6.3938E-12,1115.24084472656,2.78658547632681,6.66034502559969,-4.90401666364708
960.0,-5700967.97445392,-818454.543040346,3534557.30397389,-1899870.90184273,-5435941.86878129,3536244.55820147,4373.51166005481,-4439.79099484365,-4489.64562269293,2.45414871792465,7.02185221846947,-4.56792757416716,6758661.74079778,1.09332365015049,-0.0151177551068513,-0.20156307934043,-0.0202677747541757,-2.14811022807532,0.72683640931669,-0.570048609223604,-3.01087480198E-5,-0.0011337695110054,-5.35390109515E-5,385247.648292451,6.7121E-12,1122.87268066406,2.45414871792465,7.02185221846947,-4.56792757416716
1020.0,-5807964.78184483,-1146741.59546199,3257365.6541453,-1633247.50424019,-5689487.61018712,3258854.94033386,4510.49479235561,-4008.44357246075,-4753.09996272952,2.11016185583439,7.35084084504595,-4.21045404612667,6758661.73359317,1.0976989195633,-0.0180509950656107,-0.201442261787818,-0.0222035390624693,-2.09512070477014,0.759635936089083,-0.488965225083085,-3.33029716901E-5,-0.0011336118198538,-5.68977578405E-5,383913.501425405,7.0298E-12,1130.00073242187,2.11016185583439,7.35084084504595,-4.21045404612667
1080.0,-5890914.7255748,-1468887.74739355,2965029.21622492,-1359030.51166388,-5916580.55014754,2966313.61010375,4626.53191864845,-3558.37174755714,-4994.50532631831,1.75621842592583,7.64575199857401,-3.83324458843177,6758661.73023853,1.10207418897612,-0.0213163577227133,-0.20131566592406,-0.0241031496831081,-2.03703080974181,0.788889489458547,-0.402919954835919,-3.66476593835E-5,-0.0011334340282243,-6.02528645498E-5,382616.060592897,7.3429E-12,1136.60229492187,1.75621842592583,7.64575199857401,-3.83324458843177
1140.0,-5949368.9936198,-1783612.40725158,2658904.46966117,-1078493.62755923,-6116159.42921748,2659977.99841257,4721.07469697794,-3091.66303155589,-5212.72940520575,1.39396105579703,7.90518367579318,-3.43804262544425,6758661.73079845,1.10644945838892,-0.0249242859079459,-0.201183702501912,-0.0259436570210025,-1.97398111842579,0.814178265786963,-0.311991219900802,-4.01419300543E-5,-0.0011332348100249,-6.36034189763E-5,381373.313284604,7.6472E-12,1142.65637207031,1.39396105579703,7.90518367579318,-3.43804262544425
1200.0,-5982981.16153456,-2089672.2853035,2340412.61264132,-792940.473103567,-6287290.66485301,2341270.28307711,4793.67462658116,-2610.48416953468,-5406.74714710051,1.02507387023472,8.12789788139628,-3.0266785704515,6758661.73526675,1.11082472780174,-0.0288836855380883,-0.201046665950852,-0.0277017183885735,-1.90634307497056,0.835089972321782,-0.216489936760809,-4.37848507987E-5,-0.0011330127975558,-6.6948495255E-5,380202.387346004,7.9379E-12,1148.14245605468,1.02507387023472,8.12789788139628,-3.0266785704515
1260.0,-5991509.23951656,-2385866.29579582,2011032.97967224,-503698.52670974,-6429172.80628613,2011670.80186036,4843.98530363683,-2117.07110514654,-5575.64572544515,0.651274650420141,8.31282698701287,-2.60106143197525,6758661.74356595,1.11519999721455,-0.0332018758587286,-0.200904689086019,-0.029353711867514,-1.83475664618078,0.851243784821475,-0.116996707856743,-4.75754356284E-5,-0.0011327665834643,-7.02871535474E-5,379119.25517562,8.2104E-12,1153.041015625,0.651274650420141,8.31282698701287,-2.60106143197525
1320.0,-5974817.2754101,-2671040.25565532,1672296.17646513,-212112.942429545,-6541140.37631455,1672711.18268863,4871.76420008908,-1613.71858739568,-5718.62899246272,0.274306783480748,8.45907930385829,-2.16316998969397,6758661.75554816,1.11957526662736,-0.0378845471091732,-0.200757697338116,-0.0308758522910354,-1.76013998069248,0.86231944204951,-0.0143710417531475,-5.15126442362E-5,-0.0011324947227896,-7.36184398693E-5,378138.457522232,8.4599E-12,1157.33276367187,0.274306783480748,8.45907930385829,-2.16316998969397
1380.0,-5932876.50269048,-2944091.36084094,1325776.96385724,80459.72377286,-6622667.07995611,1325967.22280971,4876.87395411448,-1102.76946758755,-5835.02139083907,-0.104068959035334,8.56594383170338,-1.71504357997148,6758661.77099721,1.12395053604017,-0.0429357257471762,-0.200605363589061,-0.032244308922708,-1.6836585856624,0.868086516076109,0.0902798916576643,-5.55953807602E-5,-0.0011321957351003,-7.69413859595E-5,377272.852332811,8.6819E-12,1160.99853515625,-0.104068959035334,8.56594383170338,-1.71504357997148
1440.0,-5865766.0244842,-3203972.42242796,973086.923907252,372657.85029223,-6673368.36288166,973051.550051209,4859.28316317004,-586.603736897421,-5924.27130189396,-0.482082773405609,8.63289415072432,-1.2587725340409,6758661.7896321,1.12832580545299,-0.0483577473116447,-0.200447064737042,-0.0334353243894121,-1.60665000629539,0.868428468380828,0.195676991573157,-5.98224925516E-5,-0.0011318681067218,-8.02550091913E-5,376533.393685342,8.8719E-12,1164.02099609375,-0.482082773405609,8.63289415072432,-1.2587725340409
1500.0,-5773673.02677728,-3449695.8455938,615866.942550349,663121.118642669,-6693003.30562433,615606.100587766,4819.06667302914,-67.6273568818822,-5985.95381076379,-0.857964264787211,8.65959142706872,-0.796488314752183,6758661.81111151,1.13270107486579,-0.0541512369461156,-0.200281841131107,-0.0344253344013905,-1.5305133020835,0.863356170099092,0.300480154021395,-6.4192768953E-5,-0.0011315102930566,-8.35583125273E-5,375928.945296859,9.0263E-12,1166.38500976562,-0.857964264787211,8.65959142706872,-0.796488314752183
1560.0,-5656892.5161285,-3680337.33585006,255779.544282734,950496.884332398,-6681475.84275271,255294.448710465,4756.40535876757,451.739063129423,-6019.77287195321,-1.22995093385822,8.64588650759656,-0.330353400414857,6758661.83503972,1.1370763442786,-0.0603150975555738,-0.200108360008536,-0.0351910877621757,-1.45658518635423,0.853007572517419,0.403412535601837,-6.87049400917E-5,-0.0011311207209936,-8.68502845211E-5,375466.132436153,9.1419E-12,1168.07775878906,-1.22995093385822,8.64588650759656,-0.330353400414857
1620.0,-5515826.5794267,-3895039.31811549,-105498.88474491,1233446.51931426,-6638835.29947265,-106205.974998867,4671.58539628784,969.071686499049,-6025.5628615969,-1.59629666479161,8.59182108419793,0.137449033380117,6758661.86097356,1.14145161369142,-0.0668465055256965,-0.199924884037479,-0.0357097661356439,-1.38602984460389,0.837633597154885,0.503371142816476,-7.33576756956E-5,-0.0011306977914094,-9.01298993658E-5,375149.235304658,9.2165E-12,1169.08935546875,-1.59629666479161,8.59182108419793,0.137449033380117
1680.0,-5350983.16550156,-4093014.05554633,-466285.948119126,1510651.69546871,-6565276.24147045,-467211.73995878,4564.99702564845,1481.95491132052,-6003.28950588862,-1.95528016956685,8.49762791331343,0.604725581028619,6758661.88843017,1.14582688310422,-0.0737409138982692,-0.199729246012903,-0.0359591029974054,-1.31976416934322,0.817573673293059,0.599502014201092,-7.8149583937E-5,-0.0011302398817569,-9.3396116991E-5,374980.12609852,9.2488E-12,1169.41357421875,-1.95528016956685,8.49762791331343,0.604725581028619
1740.0,-5162974.39069754,-4273546.45643089,-824901.127398411,1780820.57873345,-6461137.63720989,-826041.308679017,4437.13281017945,1987.99281704778,-5953.05017836379,-2.30521334319624,8.36373008175026,1.06928316863103,6758661.91689585,1.15020215251704,-0.0809920628704781,-0.199518830675925,-0.0359175011545816,-1.25842752089754,0.793226298334666,0.691230890687443,-8.30792103117E-5,-0.0011297453487437,-9.66478832112E-5,374958.251050203,9.2385E-12,1169.04760742187,-2.30521334319624,8.36373008175026,1.06928316863103
1800.0,-4952514.37284138,-4435996.5589037,-1179673.66920909,2042693.90381452,-6326901.33532707,-1181022.92864564,4288.5853980953,2484.82053836687,-5875.07356204251,-2.64444948434268,8.1907393155506,1.52893965417357,6758661.94583554,1.15457742192984,-0.0885919974696995,-0.199290564526166,-0.0355641481733108,-1.20239184917064,0.765019999727134,0.778253544047855,-8.81450365582E-5,-0.0011292125310958,-9.98841299245E-5,375080.657795275,9.1861E-12,1167.9921875,-2.64444948434268,8.1907393155506,1.52893965417357
1860.0,-4720416.60036074,-4579801.68473199,-1528950.43308211,2295050.89989818,-6163189.86321049,-1530502.48485692,4120.04479604223,2970.11550894091,-5769.71867582945,-2.97139133604306,7.97945333448048,1.98153440923233,6758661.97470278,1.15895269134266,-0.0965310922492178,-0.19904091437524,-0.0348791290091458,-1.1517996209437,0.733388604562051,0.860498323733601,-9.33454796263E-5,-0.0011286397524067,-1.031037753645E-4,375342.067445649,9.0934E-12,1166.25231933593,-2.97139133604306,7.97945333448048,1.98153440923233
1920.0,-4467590.84562584,-4704478.25497437,-1871103.66197661,2536715.03843056,-5970763.55628747,-1872851.27493307,3932.2951667185,3441.60851798992,-5637.47326800233,-3.28449890183533,7.73085226061278,2.42493882471372,6758662.00295003,1.16332796075546,-0.104798082854116,-0.198765895248338,-0.0338435350940636,-1.10661503268299,0.698752724996333,0.938075447054427,-9.86788906991E-5,-0.0011280253240686,-1.063057244064E-4,375734.989802184,8.9627E-12,1163.83728027343,-3.28449890183533,7.73085226061278,2.42493882471372
1980.0,-4195039.63388142,-4809623.26188618,-2204538.63770949,2766559.5748399,-5750517.03094197,-2206473.66899644,3726.21116536222,3897.09452335409,-5478.95158307538,-3.5822969935185,7.4460940954218,2.85706668302521,6758662.03003923,1.16770323016828,-0.113380104318969,-0.198461088082613,-0.0324395690976738,-1.06667665192202,0.661507650383837,1.01122489458179,-1.041435542763E-4,-0.0011273675482845,-1.094888689266E-4,376249.879234128,8.7975E-12,1160.76098632812,-3.5822969935185,7.4460940954218,2.85706668302521
2040.0,-3903854.28138694,-4894915.39305407,-2527701.18399002,2983512.85704238,-5503475.01733977,-2529814.61699967,3502.75383249048,4334.44316573191,-5294.89151177349,-3.86338246805434,7.12650928573297,3.27588433938669,6758662.05545225,1.17207849958109,-0.122262735978882,-0.19812166749796,-0.0306506445519605,-1.0317440850983,0.62201676690778,1.08027031782852,-1.097376873266E-4,-0.0011266647211565,-1.126520882196E-4,376875.327914461,8.6016E-12,1157.04174804687,-3.86338246805434,7.12650928573297,3.27588433938669
2100.0,-3595210.51858715,-4960115.80536103,-2839084.98044469,3186563.37469099,-5230787.57171615,-2841366.96686584,3262.96606277658,4751.6089301812,-5086.15113726919,-4.12643111273823,6.77359440471719,3.67942065574994,6758662.07870092,1.1764537689939,-0.131430052900727,-0.197742439730911,-0.028461479511072,-1.00153539247139,0.580609187323288,1.14558224340593,-1.154594385133E-4,-0.0011259151358498,-1.157942494691E-4,377598.292352003,8.3795E-12,1152.70227050781,-4.12643111273823,6.77359440471719,3.67942065574994
2160.0,-3270363.71626541,-5005068.54801313,-3137238.65190715,3374764.5243923,-4933724.69086465,-3139678.55769528,3007.96767234735,5146.64090271476,-4853.70469419346,-4.37020413971723,6.38900497983081,4.06577663199204,6758662.0993369,1.18082903840671,-0.140864683769678,-0.197317890628803,-0.0258581834130237,-0.975754834996438,0.537580269910761,1.20755099335579,-1.213068875025E-4,-0.0011251170858252,-1.189142082775E-4,378404.348519298,8.1357E-12,1147.77172851562,-4.37020413971723,6.38900497983081,4.06577663199204
2220.0,-2930643.73468421,-5029700.63548528,-3420772.59833612,3547239.06752205,-4613670.35463513,-3423359.05338286,2738.95008905153,5517.69207190277,-4598.63796020379,-4.59355425319809,5.97454750511745,4.43313468068142,6758662.1169604,1.18520430781953,-0.150547875194686,-0.196842243402742,-0.0228283363207425,-0.954112095569681,0.49319392267058,1.26656818332098,-1.272780443589E-4,-0.0011242688681405,-1.220108092515E-4,379277.970354715,7.8752E-12,1142.28308105468,-4.59355425319809,5.97454750511745,4.43313468068142
2280.0,-2577449.41767379,-5034021.77285601,-3688365.53200567,3703183.25880783,-4272116.02518418,-3691086.48327192,2457.17069237421,5863.02812779837,-4322.14310305625,-4.7954312552497,5.53217068055221,4.77976749377075,6758662.13122851,1.18957957723233,-0.160459562422215,-0.196309525637824,-0.0193610597480542,-0.936334709369701,0.447685871299317,1.32301506706873,-1.333708490361E-4,-0.0011233687868124,-1.250828866451E-4,380202.826025828,7.6027E-12,1136.27563476562,-4.7954312552497,5.53217068055221,4.77976749377075
2340.0,-2212242.75547649,-5018123.73759372,-3938770.69007958,3841870.62550729,-3910653.63450177,-3941613.45793979,2163.94683163435,6181.03571321442,-4025.51300915438,-4.97488715893933,5.06395592606878,5.10404645203308,6758662.14186215,1.19395484664514,-0.170578446467371,-0.195713644861488,-0.0154470783230935,-0.922175459742485,0.401267332356832,1.37725597280628,-1.395831709687E-4,-0.0011224151562365,-1.281292650603E-4,381162.086082519,7.3229E-12,1129.79443359375,-4.97488715893933,5.06395592606878,5.10404645203308
2400.0,-1836542.74188126,-4982179.42341649,-4170821.69232528,3962655.37878295,-3530968.09434804,-4173773.02985455,1860.64955288657,6470.23008537753,-3710.1351224159,-5.13108078062295,4.57210722251455,5.40444953090218,6758662.14865175,1.19833011605796,-0.180882077682285,-0.19504847177982,-0.0110787716088449,-0.91141624993278,0.35412874244948,1.42963532080555,-1.459128087706E-4,-0.0011214063046602,-1.311487602042E-4,382138.737502593,7.0402E-12,1122.89001464843,-5.13108078062295,4.57210722251455,5.40444953090218
2460.0,-1451918.95277995,-4926441.55336531,-4383438.01553356,4064975.44074913,-3134829.36515586,-4386484.17045515,1548.69706654157,6729.26214924868,-3377.48482498374,-5.26328178650759,4.05894033598213,5.67956865957902,6758662.15146184,1.20270538547076,-0.191346945780549,-0.194307930111072,-0.0062502154879273,-0.9038696333904,0.306443345705109,1.48047703635641,-1.523574900481E-4,-0.0011203405777016,-1.341401797036E-4,383115.897634519,6.7586E-12,1115.61828613281,-5.26328178650759,4.05894033598213,5.67956865957902
2520.0,-1059984.87472929,-4851241.07069951,-4575630.05817592,4148355.07262944,-2724084.12267347,-4578756.83717398,1229.54798910858,6956.92482730163,-3029.11839379241,-5.37087417208563,3.52687148572854,5.92811649379168,6758662.15023392,1.20708065488357,-0.201948576321129,-0.19348609177963,-9.57212626448E-4,-0.899378871686845,0.258370543758033,1.53008548131173,-1.589148713314E-4,-0.00111921634191,-1.371023239751E-4,384077.122163451,6.4819E-12,1108.041015625,-5.37087417208563,3.52687148572854,5.92811649379168
2580.0,-662391.013405871,-4756985.21763176,-4746503.77093987,4212407.09150446,-2300647.06312365,-4749696.6060305,904.694393639149,7152.15873426406,-2666.66556926403,-5.45335915667166,2.97840551917875,6.14893256640897,6758662.14498782,1.21145592429638,-0.212661633623743,-0.19257727608598,0.0048026883416836,-0.897817127179366,0.210058976894843,1.57874728306326,-1.655825381318E-4,-0.0011180319883604,-1.400339871508E-4,385006.701457505,6.2131E-12,1100.22436523437,-5.45335915667166,2.97840551917875,6.14893256640897
2640.0,-260817.812986026,-4644155.31326151,-4895264.83101892,4256834.66523336,-1866491.88942953,-4898508.84766354,575.654704405683,7314.05712922225,-2291.82177443591,-5.51035747901493,2.41612366029029,6.34098878417018,6758662.13582154,1.2158311937092,-0.223460030038945,-0.19157615134256,0.0110301851248946,-0.899086194618375,0.161649343063071,1.62673363389304,-1.72358005129E-4,-0.0011167859362762,-1.429339580589E-4,385889.939979068,5.9551E-12,1092.23779296875,-5.51035747901493,2.41612366029029,6.34098878417018
2700.0,143031.581538506,-4513304.24333299,-5021222.34038576,4281432.67728838,-1423642.02259228,-5024502.42702208,243.966472075966,7441.87012153705,-1906.34002459857,-5.54161108377941,1.84267089980846,6.50339424306215,6758662.12290958,1.220206463122,-0.234317041429904,-0.190477837364946,0.0177242256356977,-0.903115025236398,0.113276981856649,1.67430277214086,-1.79238716494E-4,-0.0011154766366725,-1.458010212563E-4,386713.413857273,5.7101E-12,1084.15270996093,-5.54161108377941,1.84267089980846,6.50339424306215
2760.0,547438.686290227,-4365053.67562815,-5123792.03072628,4286088.65543267,-974161.08359481,-5127092.90938607,-88.8209338587814,7535.00811118424,-1512.02256903883,-5.54698419253724,1.2607430976518,6.63539933930658,6758662.1064993,1.22458173253482,-0.245205428639781,-0.189278007135445,0.0248820232927135,-0.90985818724542,0.0650742595910992,1.72170244974295,-1.862220463526E-4,-0.0011141025760129,-1.486339581147E-4,387465.202199377,5.4798E-12,1076.03869628906,-5.54698419253724,1.2607430976518,6.63539933930658
2820.0,950677.131228499,-4200091.0159022,-5202498.9602455,4270783.26038681,-520143.192241377,-5205805.25792345,-421.153678378689,7593.0444483851,-1110.71230772916,-5.52646375677521,0.673073868825536,6.73639915746861,6758662.08690638,1.22895700194763,-0.256097564620185,-0.187972985914311,0.0324990834772505,-0.919294326719909,0.0171727932705982,1.76917224860949,-1.93305299393E-4,-0.0011126622798709,-1.514315479551E-4,388135.088257978,5.2656E-12,1067.96179199218,-5.52646375677521,0.673073868825536,6.73639915746861
2880.0,1351020.16975455,-4019166.12027211,-5256979.69015528,4235590.33285258,-63703.1301221963,-5260276.01059016,-751.480822894235,7615.71730169691,-704.284026775218,-5.4801592942281,0.0824213248683138,6.80593612181725,6758662.06450838,1.23333227136044,-0.266965566785028,-0.186559846063833,0.0405692406829871,-0.931424632757268,-0.0302944518933443,1.81694563944803,-2.004857116223E-4,-0.0011111543165902,-1.541925692317E-4,388714.727154741,5.0681E-12,1059.97937011718,-5.4801592942281,0.0824213248683138,6.80593612181725
2940.0,1746748.21101129,-3823087.78087364,-5286983.9313031,4180676.49948183,393033.584587728,-5290254.92683104,-1078.26165900222,7602.93072805872,-294.635497126393,-5.40830211359375,-0.508445257102567,6.84370190171233,6758662.03973723,1.23770754077325,-0.277781434033512,-0.185036495873764,0.0490847057261387,-0.946271262813258,-0.0771911634384336,1.86525168736016,-2.077604512752E-4,-0.0011095773009318,-1.569158007615E-4,389197.777479357,4.8877E-12,1052.13916015625,-5.40830211359375,-0.508445257102567,6.84370190171233
3000.0,2136156.34058998,-3612720.00240496,-5292375.65408355,4106300.34057886,847940.662525639,-5295606.09722376,-1399.97297758439,7554.75494259947,116.321518531095,-5.31124393631516,-1.09675876615503,6.84953856641614,6758662.01307058,1.24208281018606,-0.28851718776003,-0.183401760732854,0.0580361222224352,-0.963875642396484,-0.123375762913462,1.91431630341828,-2.151266198772E-4,-0.0011079298977031,-1.596000229981E-4,389579.99472485,4.7242E-12,1044.47631835937,-5.31124393631516,-1.09675876615503,6.84953856641614
3060.0,2517561.79543086,-3388978.08787352,-5273133.65747315,4012811.1244941,1298901.00076074,-5276308.51190822,-1715.11623742088,7471.42579028456,526.670305640263,-5.18945492760694,-1.67976751951072,6.82343898928781,6758661.9850224,1.24645807959887,-0.299145016041957,-0.181655455080236,0.0674126313921421,-0.984296513885873,-0.168699562390907,1.96436292385977,-2.225812534662E-4,-0.0011062108253563,-1.62244019346E-4,389859.285177876,4.5771E-12,1037.01501464843,-5.18945492760694,-1.67976751951072,6.82343898928781
3120.0,2889311.35895679,-3152824.55245329,-5229351.59572851,3900647.11579292,1743816.58491432,-5232456.08634525,-2022.22459832211,7353.34342567063,934.498239471929,-5.04352115222368,-2.25474838559109,6.76554650577185,6758661.95613262,1.25083334901168,-0.309637420073511,-0.179798443690423,0.0772019441308032,-1.0076075699555,-0.21300500823662,2.01561247147874,-2.301213239733E-4,-0.0011044188595502,-1.648465775145E-4,390035.719549301,4.4457E-12,1029.76928710937,-5.04352115222368,-2.25474838559109,6.76554650577185
3180.0,3249788.64289919,-2905264.88484276,-5161237.46397092,3770333.4663531,2180618.28855731,-5164257.14563297,-2319.8697848071,7201.07021113057,1337.90578412394,-4.87414147359497,-2.81901970095167,6.6761538339022,6758661.92695627,1.2552086184245,-0.319967361799875,-0.177832690994674,0.087390419186395,-1.03389446792828,-0.25612404604344,2.06828242070008,-2.377437407642E-4,-0.0011025528366634,-1.674064909065E-4,390111.506298076,4.3291E-12,1022.74633789062,-4.87414147359497,-2.81901970095167,6.6761538339022
3240.0,3597421.22286029,-2647343.17588922,-5069112.54653302,3622479.7005476,2607275.52340402,-5072033.37126347,-2606.66874756232,7015.32784787304,1735.01540493739,-4.68212391785786,-3.36995391627655,6.55570127017153,6758661.89805271,1.2595838878373,-0.330108411605218,-0.175761297316399,0.0979631462173697,-1.06325098508074,-0.297876668293494,2.12258475375824,-2.454453523433E-4,-0.0011006116572504,-1.699225600393E-4,390090.925266046,4.226E-12,1015.95043945312,-4.68212391785786,-3.36995391627655,6.55570127017153
3300.0,3930687.59540181,-2380137.63451161,-4953409.83454873,3457776.80759496,3021805.69479485,-4956218.21680926,-2881.29009128814,6796.99375788994,2123.98035133567,-4.46838152699055,-3.9049899093543,6.40477417753449,6758661.86997441,1.26395915725012,-0.340034894825242,-0.173588521095396,0.108904032473906,-1.09577404799769,-0.338069740306814,2.17872256841612,-2.532229482197E-4,-0.0010985942894309,-1.723935939955E-4,389980.222895147,4.1355E-12,1009.38488769531,-4.46838152699055,-3.9049899093543,6.40477417753449
3360.0,4248123.92534692,-2104756.01111495,-4814671.92181363,3276993.95599796,3422283.41815918,-4817354.80157685,-3142.46023906632,6547.09673859885,2502.99326821013,-4.23392772766836,-4.42164490604791,6.22409978599044,6758661.8432562,1.26833442666293,-0.349722035792971,-0.171319786391172,0.120195891848496,-1.13155736300606,-0.376496240024948,2.23688509021802,-2.610732609342E-4,-0.0010964997722023,-1.748184118978E-4,389787.470938286,4.0564E-12,1003.05432128906,-4.23392772766836,-4.42164490604791,6.22409978599044
3420.0,4548330.55302344,-1822330.9487472,-4653548.39041527,3080974.84673399,3806849.45355939,-4656093.293738,-3388.96930504495,6266.81191538608,2870.29459530654,-3.97987124462037,-4.91752595366434,6.01454332960717,6758661.81840484,1.27270969607574,-0.35914609808808,-0.168961675184485,0.131820535082431,-1.17068340694217,-0.412935091069683,2.29724087244873,-2.689929682475E-4,-0.0010943272186653,-1.771958444062E-4,389522.391192424,3.9876E-12,996.965759277343,-3.97987124462037,-4.91752595366434,6.01454332960717
3480.0,4829978.23235457,-1534015.28220453,-4470792.70001932,2870633.72350001,4173719.31702777,-4473187.79683748,-3619.67664902214,5957.45502048388,3224.18071559368,-3.70741058915073,-5.39034089477492,5.77710354698065,6758661.79588936,1.27708496548855,-0.368284519647007,-0.166521904234053,0.143758859990809,-1.21321363136116,-0.447151811337848,2.35992905849645,-2.769786954878E-4,-0.0010920758191537,-1.795247352331E-4,389196.149371795,3.928E-12,991.12841796875,-3.70741058915073,-5.39034089477492,5.77710354698065
3540.0,5091814.07200836,-1240977.30514899,-4267258.59698681,2646951.05984355,4521191.52920471,-4269492.7558664,-3833.51608839933,5620.47602961708,3563.0118153018,-3.41782815510186,-5.83790879339181,5.51290757496405,6758661.77613207,1.28146023490136,-0.377116041403888,-0.16400928648714,0.15599094067814,-1.25917691542551,-0.478900232089016,2.425048761073,-2.850270180538E-4,-0.0010897448442566,-1.818039426705E-4,388821.121792026,3.8766E-12,985.553344726562,-3.41782815510186,-5.83790879339181,5.51290757496405
3600.0,5332667.15323891,-944396.025069481,-4043896.06168056,2410968.9444243,4847655.46375734,-4045958.90127431,-4029.500744953,5257.45219062077,3885.21942018627,-3.11248395587556,-6.25816976941965,5.22320526803135,6758661.75950074,1.28583550431417,-0.385620828170813,-0.161433677283651,0.168496114855611,-1.30855659605463,-0.50792555107903,2.4926469038104,-2.93134464072E-4,-0.0010873336477259,-1.84032341128E-4,388410.639044323,3.8322E-12,980.253295898437,-3.11248395587556,-6.25816976941965,5.22320526803135
3660.0,5551453.79958366,-645456.425590886,-3801746.81438417,2163786.18694254,5151598.76018646,-3803628.75135975,-4206.72750592446,4870.0804807519,4189.31357458159,-2.79280903719991,-6.64919420143126,4.90936297786391,6758661.74630186,1.29021077372699,-0.393780580528646,-0.158805905828904,0.181253068534479,-1.36127681460037,-0.533968949308244,2.56270527932242,-3.012975172037E-4,-0.0010848416692573,-1.862088226746E-4,387978.711291737,3.7939E-12,975.241271972656,-2.79280903719991,-6.64919420143126,4.90936297786391
3720.0,5747182.47520861,-345344.755232113,-3541939.40219918,1906553.16843789,5431614.26790264,-3543631.69542183,-4364.38108103366,4460.16953168886,4473.88963194562,-2.46029860113741,-7.00919126201583,4.57285682965886,6758661.73677516,1.29458604313979,-0.401578636584921,-0.156137692636202,0.194239917551944,-1.41718941775019,-0.556773904314546,2.63512807434133,-3.09512619597E-4,-0.0010822684371365,-1.883322985809E-4,387539.740208164,3.7606E-12,970.5302734375,-2.46029860113741,-7.00919126201583,4.57285682965886
3780.0,5918958.29040971,-45243.8612274063,-3265683.89109597,1640466.46070103,5686406.49085361,-3267178.68186687,-4501.73763917119,4029.63106323171,4737.6346278329,-2.11650487738731,-7.33651675417671,4.21526553326321,6758661.73108967,1.29896131255261,-0.409000062560525,-0.153441553852876,0.207434285579139,-1.47606315159657,-0.576094158539217,2.70973161206755,-3.177761749791E-4,-0.0010796135707411,-1.904017008573E-4,387108.222892335,3.7313E-12,966.132507324218,-2.11650487738731,-7.33651675417671,4.21526553326321
3840.0,6065987.09457172,253671.413531176,-2974266.18896767,1366763.24045081,5914797.50449992,-2975556.53713784,-4618.16801069593,3580.47086848016,4979.33320856332,-1.76302977825312,-7.62968022147425,3.83826276854101,6758661.7293409,1.30333658196542,-0.416031731288987,-0.1507306935794,0.220813378458307,-1.53757724303982,-0.591703049210244,2.78623841559065,-3.260845518827E-4,-0.0010768767828897,-1.924159837826E-4,386698.453313924,3.705E-12,962.057861328125,-1.76302977825312,-7.62968022147425,3.83826276854101
3900.0,6187579.13874717,550238.752993188,-2669042.02706802,1086715.52470804,6115732.31954978,-2670121.94286754,-4713.14044345259,3114.77939477931,5197.87309124809,-1.40151737373929,-7.8873513087785,3.4436091853957,6758661.73154985,1.30771185137822,-0.422662387848382,-0.148018885467613,0.23435405491006,-1.6013214792443,-0.603403602990632,2.86427771146968,-3.344340870011E-4,-0.0010740578820293,-1.943741254195E-4,386324.226976811,3.6808E-12,958.314819335937,-1.40151737373929,-7.8873513087785,3.4436091853957
3960.0,6283152.29193574,843312.79313762,-2351430.62860048,801624.254444469,6288283.66955948,-2352295.10004277,-4786.22290280808,2634.72196598802,5392.25003328451,-1.03364622312857,-8.10836535458949,3.03314405961021,6758661.73766316,1.31208712079104,-0.428882701692761,-0.145320345039091,0.248032893834714,-1.66680439907252,-0.611038503696906,2.94339399461273,-3.428210886633E-4,-0.0010711567742524,-1.962751291112E-4,385998.55450486,3.6578E-12,954.908752441406,-1.03364622312857,-8.10836535458949,3.03314405961021
4020.0,6352234.79711106,1131769.43383134,-2022908.09446445,512813.254102713,6431656.20227207,-2023553.11020619,-4837.08490817943,2142.52869264739,5561.57229191586,-0.661121599088456,-8.2917281998642,2.60877664614782,6758661.74755496,1.31646239020385,-0.434685304804825,-0.142649594296206,0.261826258596755,-1.73347013993675,-0.614498840206511,3.02306420410618,-3.512418404222E-4,-0.0010681734651376,-1.981180249542E-4,385733.389763217,3.635E-12,951.841735839843,-0.661121599088456,-8.2917281998642,2.60877664614782
4080.0,6394467.55504556,1414510.02212066,-1685000.53725292,221623.094969506,6545190.05738544,-1685423.10481126,-4865.49890067461,1640.48411741395,5705.06455695998,-0.285667639883266,-8.4366202021416,2.17247727179865,6758661.76102971,1.32083765961666,-0.440064815551519,-0.14002132030562,0.275710358822723,-1.80072298261642,-0.61373052135299,3.10272255788158,-3.596926047484E-4,-0.0010651080614051,-1.99901871244E-4,385539.377916535,3.6116E-12,949.112976074218,-0.285667639883266,-8.4366202021416,2.17247727179865
4140.0,6409605.92601858,1690465.39254379,-1339276.99553398,-70595.1093561256,6628363.81630172,-1339475.15478425,-4871.34113858495,1130.91664368325,5822.0713423251,0.0909805353536513,-8.54239944745336,1.72626820907801,6758661.77782684,1.32521292902947,-0.445017848086957,-0.137450229515719,0.289661310354741,-1.86795706864338,-0.60873745645763,-3.10139478177733,-3.681696268188E-4,-0.00106196077238,-2.016257558867E-4,385425.628495067,3.587E-12,946.7177734375,0.0909805353536513,-8.54239944745336,1.72626820907801
4200.0,6397521.04154584,1958599.75090956,-987342.161236152,-362485.947025005,6680796.81229566,-987314.993134776,-4854.59211954293,616.187795673311,5912.05982444093,0.467084714084771,-8.60860415604022,1.27221437310773,6758661.7976259,1.32958819844228,-0.449543007310172,-0.134950899625567,0.30365519408078,-1.93458760987208,-0.59958102655118,-3.02347704527306,-3.766691383921E-4,-0.0010587319112599,-2.032887977739E-4,385399.518090355,3.5604E-12,944.6474609375,0.467084714084771,-8.60860415604022,1.27221437310773
4260.0,6358200.62033642,2217914.38887226,-630828.95359432,-652695.963145389,6702250.79244223,-630576.58409355,-4815.33653018557,98.681358374686,5974.62211822792,0.840911447229221,-8.63495428124228,0.812413882859269,6758661.82005337,1.33396346785509,-0.453640869547342,-0.132537630853163,0.317668114405835,-2.00007956548455,-0.586375918678572,-2.94722182438143,-3.851873617606E-4,-0.0010554218961773,-2.048901481148E-4,385466.526743506,3.5312E-12,942.889099121093,0.840911447229221,-8.63495428124228,0.812413882859269
4320.0,6291749.28475299,2467451.21754534,-271390.973601975,-939879.897861034,6692630.92554636,-270914.572744786,-4753.76272613675,-419.207554283718,6009.47698369514,1.21073984303065,-8.62135230409776,0.348988527634117,6758661.84469008,1.33833873726791,-0.457313949287075,-0.13022429845514,0.331676258134311,-2.06397035244956,-0.569282923792703,-2.87307096014491,-3.937205137683E-4,-0.0010520312510561,-2.064289917216E-4,385630.111428017,3.4991E-12,941.426208496093,1.21073984303065,-8.62135230409776,0.348988527634117
4380.0,6198388.37612014,2706296.10932039,89305.1267435533,-1222706.8792512,6651986.15321246,90003.3505383008,-4670.16174703387,-935.083454946721,6016.470958692,1.5748692665677,-8.56788322916045,-0.115925820978129,6758661.87107919,1.34271400668071,-0.460566652451868,-0.128024208329056,0.345655954503463,-2.12588446960212,-0.548499675062607,-2.80138107512097,-4.022648098835E-4,-0.0010485606062542,-2.079045482444E-4,385891.619282248,3.4638E-12,940.241882324218,1.5748692665677,-8.56788322916045,-0.115925820978129
4440.0,6078455.26928425,2933582.03799935,449587.325919259,-1499866.54334351,6580508.88406662,450504.136349709,-4564.92587317457,-1446.56141433123,5995.57891573121,1.93162691462179,-8.47481378983157,-0.580188812167667,6758661.89873504,1.34708927609353,-0.463405216837449,-0.125949957483394,0.359583737042196,-2.18553951149857,-0.524250452968145,-2.73241742878118,-4.108164683157E-4,-0.0010450106989918,-2.09316073349E-4,386250.242432107,3.4255E-12,939.332153320312,1.93162691462179,-8.47481378983157,-0.580188812167667
4500.0,5932402.18886974,3148492.00829541,807785.930539952,-1770075.05397872,6478534.03398893,808917.078639176,-4438.54673214263,-1951.27792159628,5946.90404314565,2.27937523673549,-8.34259087410771,-1.04166519533322,6758661.92715233,1.35146454550634,-0.465837640492475,-0.124013301090348,0.373436407832047,-2.24274446063714,-0.496776108908579,-2.66635551305077,-4.193717141652E-4,-0.001041382373561,-2.106628598376E-4,386703.015380999,3.3843E-12,938.692749023437,2.27937523673549,-8.34259087410771,-1.04166519533322
4560.0,5760794.53169788,3350261.7667057,1162241.25475346,-2032080.99582027,6346537.41801893,1163581.49875838,-4291.61296548815,-2446.90162719783,5870.67725313507,2.61651917443842,-8.17183918407439,-1.49823433810805,6758661.95581515,1.35583981491915,-0.46787359894257,-0.122225027743066,0.387191104621929,-2.29739206689289,-0.46632492463075,-2.60328857788679,-4.279267835928E-4,-0.0010376765813141,-2.119442387036E-4,387244.855056421,3.3407E-12,938.314392089843,2.61651917443842,-8.17183918407439,-1.49823433810805
4620.0,5564308.7018262,3538182.28671107,1511311.24713435,-2284671.11445522,6185133.50235585,1512854.37691097,-4124.80746718369,-2931.14392270994,5767.25602149622,2.94151319177344,-7.96335814473618,-1.94779964617166,6758661.98420673,1.36021508433196,-0.469524352282659,-0.120594844423815,0.400825371100282,-2.34944746888023,-0.433144920451869,-2.54323893126061,-4.364779279979E-4,-0.001033894380432,-2.131595801213E-4,387868.642715107,3.2951E-12,938.183410644531,2.94151319177344,-7.96335814473618,-1.94779964617166
4680.0,5343729.46662481,3711602.02220206,1853379.03119561,-2526675.87828445,5995072.52757605,1855117.8971059,-3938.90420715546,-3401.76931309346,5637.12266600862,3.25286807141586,-7.7181180798877,-2.3882978490251,6758662.01181849,1.36459035374478,-0.470802643268113,-0.119131272553731,0.41431723046369,-2.39893508496021,-0.397477831151517,-2.48617098523286,-4.450214181937E-4,-0.0010300369354693,-2.143082943637E-4,388565.346042276,3.2481E-12,938.281433105468,3.25286807141586,-7.7181180798877,-2.3882978490251
4740.0,5099946.84422901,3869928.92396596,2186860.3261197,-2756974.83774357,5777237.01682899,2188786.87219559,-3734.76465469624,-3856.60553801515,5480.8820725678,3.5491574518308,-7.43725567470001,-2.81770811691807,6758662.0381591,1.36896562315758,-0.471722587625911,-0.117841556340526,0.427645262246111,-2.44592538983564,-0.359554735189061,-2.43200443191716,-4.535535485656E-4,-0.001026105516678,-2.153898326475E-4,389324.178962812,3.2001E-12,938.5830078125,3.5491574518308,-7.43725567470001,-2.81770811691807
4800.0,4833952.53458419,4012632.21499724,2510210.71491695,-2974501.75832766,5532637.6853396,2512316.01618827,-3513.33381800588,-4293.55340005743,5299.25888021568,3.82902408205733,-7.12206874655083,-3.23406097514115,6758662.06276302,1.37334089257039,-0.472299557879597,-0.116731584469647,0.440788682194419,-2.49052268117277,-0.319593169206831,-2.38062644498501,-4.620706412014E-4,-0.0010221014991118,-2.16403687901E-4,390132.795929087,3.1515E-12,939.053466796875,3.82902408205733,-7.12206874655083,-3.23406097514115
4860.0,4546835.90813072,4139243.92130668,2821932.72794798,-3178249.5049094,5262408.77003548,2824207.03175281,-3275.63591747583,-4710.59625900277,5093.09413821383,4.09118577183401,-6.77401034737239,-3.63544698292202,6758662.08519843,1.37771616198321,-0.472550062034009,-0.115805825999785,0.453727424800293,-2.53285446143093,-0.277795480597049,-2.3319022820082,-4.705690499817E-4,-0.0010180263615103,-2.173493954526E-4,390977.516783888,3.1041E-12,939.736633300781,4.09118577183401,-6.77401034737239,-3.63544698292202
4920.0,4239779.56795687,4249360.1557995,3120582.71059324,-3367274.65593637,4967802.80052266,3123015.48168149,-3022.76971163807,-5105.80915282378,4863.34145024103,4.33444101589161,-6.39468222245223,-4.02002514519092,6758662.10507461,1.38209143139601,-0.472491618495544,-0.115067281127808,0.466442227932385,-2.57306268143449,-0.234348149013347,-2.28568404202033,-4.790451646164E-4,-0.0010138816849692,-2.182265336382E-4,391843.577728186,3.0595E-12,940.698364257812,4.33444101589161,-6.39468222245223,-4.02002514519092
4980.0,3914054.50297096,4342642.15367471,3404777.44481298,-3540701.82726628,4650184.83495045,3407357.41403762,-2755.90349593611,-5477.36750755425,4611.06262266906,4.55767427233281,-5.98582765221213,-4.38603102650016,6758662.12204832,1.38646670080883,-0.472142628609461,-0.114517447284647,0.478914718861169,-2.61129683202526,-0.189421823003501,-2.24181759338917,-4.874954146166E-4,-0.0010096691513976,-2.190347243245E-4,392715.403465298,3.0195E-12,941.989990234375,4.55767427233281,-5.98582765221213,-4.38603102650016
5040.0,3571014.85130817,4418817.05865804,3673200.49541235,-3697727.68664345,4311026.18652655,3675915.71178682,-2476.26979564834,-5823.55539985416,4337.42283568384,4.75986087609892,-5.54932370502863,-4.73178453739628,6758662.13582957,1.39084197022164,-0.471522248176338,-0.11415630081564,0.491127500837445,-2.64770871601586,-0.14317185298904,-2.20014784182729,-4.959162731897E-4,-0.0010053905417678,-2.197736333472E-4,393576.895250027,2.9856E-12,943.658325195312,4.75986087609892,-5.54932370502863,-4.73178453739628
5100.0,3212092.29478894,4477678.46022014,3924608.25300424,-3837624.64113358,3951897.66856333,3927446.13888961,-2185.15977540155,-6142.7733378103,4043.68535777041,4.94007156959539,-5.08717293065947,-5.05569736455485,6758662.14618603,1.39521723963445,-0.470650259264824,-0.11398229429003,0.503064239277713,-2.68244865959949,-0.0957391439570296,-2.16052258219696,-5.043042610458E-4,-0.0010010477341627,-2.204429708624E-4,394411.729346262,2.9591E-12,945.747497558593,4.94007156959539,-5.08717293065947,-5.05569736455485
5160.0,2838790.1067778,4519086.68275221,4157835.64694328,-3959744.18121162,3574462.38794961,4160783.05611509,-1883.91738875647,-6433.54552733339,3731.20582577152,5.0974766336147,-4.60149452531885,-5.35628001699779,6758662.15294686,1.39959250904726,-0.469546943567703,-0.113992369278027,0.514709746528469,-2.71566290402984,-0.0472511925556726,-2.12279519706682,-5.126559501042E-4,-9.966427016265E-4,-2.210424916103E-4,395203.660287638,2.9415E-12,948.302368164062,5.0974766336147,-4.60149452531885,-5.35628001699779
5220.0,2452676.87725196,4542968.82846835,4371801.50288561,-4063519.86663601,3180468.11884409,4374844.7812174,-1573.93329232638,-6694.52659341802,3401.42611435971,5.23134960276744,-4.09451500091292,-5.63214846173206,6758662.15600506,1.40396777846008,-0.468232958454438,-0.114181984235185,0.526050064128545,-2.74749193272209,0.002176790340029,-2.08682645187045,-5.209679670891E-4,-9.921775098253E-4,-2.215719950904E-4,395936.823338539,2.9341E-12,951.368103027343,5.23134960276744,-4.09451500091292,-5.63214846173206
5280.0,2055379.94027477,4549318.57657727,4565513.52110535,-4148469.94073835,2771739.29017079,4568638.56959429,-1256.63854980501,-6924.5077275275,3055.86782033187,5.34107055071621,-3.56855839241543,-5.88203032318166,6758662.155319,1.40834304787288,-0.466729216757268,-0.114545156943158,0.537072541464731,-2.7780695198672,0.0524407406803853,-2.0524856071746,-5.292369970038E-4,-9.876543145249E-4,-2.220313256481E-4,396596.030659087,2.9383E-12,954.992248535156,5.34107055071621,-3.56855839241543,-5.88203032318166
5340.0,1648578.53037264,4538195.74201861,4738072.85326794,-4214199.56130557,2350168.6221594,4741265.19311727,-933.498152129037,-7122.42223444808,2696.12538864086,5.42612893161361,-3.02603603884092,-6.1047706218448,6758662.15091271,1.4127183172857,-0.465056771193693,-0.115074520780759,0.547765909719972,-2.80752232369317,0.103446631732511,-2.01965103363109,-5.374597864732E-4,-9.830753588936E-4,-2.224203724727E-4,397167.055879041,2.9556E-12,959.22314453125,5.42612893161361,-3.02603603884092,-6.1047706218448
5400.0,1233996.69553294,4509725.59778679,4888678.25701734,-4260402.63782929,1917708.44870795,4891923.09648109,-606.004380782706,-7287.35045412958,2323.85890852066,5.48612596528443,-2.46943597476263,-6.29933702870541,6758662.14287521,1.41709358669851,-0.463236704178342,-0.115761393938498,0.558120350044672,-2.83596988451159,0.155109422421863,-1.98821048099671,-5.456331469459E-4,-9.78442970638E-4,-2.227390695064E-4,397636.902070563,2.9874E-12,964.109619140625,5.48612596528443,-2.46943597476263,-6.29933702870541
5460.0,813395.995671746,4464097.96556938,5016629.80947627,-4286863.26653895,1476361.76374679,5019912.1121636,-275.670041964067,-7418.52403629068,1940.78660943514,5.52077655487435,-1.90131197082749,-6.46482461307579,6758662.13135855,1.42146885611132,-0.46129002361705,-0.11659586054851,0.568127554936917,-2.86352492158844,0.207352079358389,-1.95806112251098,-5.537539577452E-4,-9.737595589823E-4,-2.229873952664E-4,397994.048468459,3.0351E-12,969.69580078125,5.52077655487435,-1.90131197082749,-6.46482461307579
5520.0,388568.016455107,4401566.08010775,5121332.16258038,-4293456.75631839,1028173.03104606,5124636.71690986,55.9784000274362,-7515.32954792083,1548.67708788433,5.52991072692373,-1.32427226324027,-6.60046006275963,6758662.11657506,1.42584412552413,-0.45923756510975,-0.117566862580611,0.577780781894531,-2.89029385259837,0.260104679596249,-1.92910947141304,-5.618191689624E-4,-9.690276114987E-4,-2.2316537258E-4,398228.671706275,3.1004E-12,976.016479492187,5.52991072692373,-1.32427226324027,-6.60046006275963
5580.0,-38673.2707060311,4322445.2333447,5202297.32506524,-4280150.24032404,575218.798027958,5205608.81455395,387.407761258689,-7577.31139625368,1149.34129733008,5.51347458512637,-0.740968013717109,-6.70560535671541,6758662.09879346,1.43021939493695,-0.457099900821908,-0.118662301256121,0.587074898496809,-2.91637748510144,0.313303595245732,-1.90127124792655,-5.698258041839E-4,-9.642496907998E-4,-2.232730682343E-4,398332.837808886,3.1845E-12,983.088562011718,5.51347458512637,-0.740968013717109,-6.70560535671541
5640.0,-466499.270832655,4227111.20505531,5259146.95789448,-4247002.8698735,119598.155115261,5262450.03196244,717.085119079021,-7604.17405232401,744.624334651552,5.47153077040837,-0.154081542939521,-6.77976087178365,6758662.07833418,1.43459466434975,-0.454897255121566,-0.119869146654517,0.596006418183388,-2.94187185199261,0.366890757203281,-1.87447126268762,-5.777709630444E-4,-9.594284311039E-4,-2.233105925425E-4,398300.661695711,3.2886E-12,990.901489257812,5.47153077040837,-0.154081542939521,-6.77976087178365
5700.0,-893074.617349417,4115998.48726606,5291614.17195277,-4194165.58895003,-336576.917037933,5294893.51692047,1043.48480567924,-7595.78356284665,336.397057602603,5.40425842142244,0.433685617939466,-6.8225679065316,6758662.05556367,1.43896993376255,-0.452649426925716,-0.121173554134535,0.604573526118015,-2.96686918356841,0.420812992872438,-1.84864337637309,-5.85651823601E-4,-9.545665346827E-4,-2.232780988287E-4,398128.431496373,3.4136E-12,999.409912109375,5.40425842142244,0.433685617939466,-6.8225679065316
5760.0,-1316565.08086426,3989598.31035043,5299544.81892387,-4121880.48946634,-791191.269432312,5302785.22887886,1365.09538417998,-7552.16834087519,-73.4524312872856,5.31195263110556,1.01962481168813,-6.83381060687959,6758662.03088818,1.44334520317537,-0.450375718560199,-0.122560986160343,0.612776094652813,-2.99145902952037,0.475021431336482,-1.82373059556848,-5.934656445215E-4,-9.496667682033E-4,-2.231757828335E-4,397814.695553936,3.5598E-12,1008.53076171875,5.31195263110556,1.01962481168813,-6.83381060687959
5820.0,-1735145.50127844,3848456.47924705,5282898.26842595,-4030479.74924506,-1242136.33223681,5286084.71563464,1680.42657692349,-7473.51922850396,-483.027398058777,5.19502339659747,1.60103242778343,-6.81341727991507,6758662.00474677,1.44772047258818,-0.448094870815535,-0.124016338114706,0.620615688040334,-3.01572956715717,0.529470968643207,-1.79968537272461,-6.01209767083E-4,-9.447319589753E-4,-2.230038820425E-4,397360.310585217,3.7273E-12,1018.14733886718,5.19502339659747,1.60103242778343,-6.81341727991507
5880.0,-2147007.70938329,3693171.02878012,5241747.66667634,-3920384.15649635,-1687319.84412207,5244865.37121815,1988.01611553324,-7360.18882777014,-890.431150845223,5.05399406157461,2.17522211469431,-6.7614610841861,6758661.97760372,1.45209574200099,-0.445825003780492,-0.125524066692983,0.628095556173997,-3.03976916077632,0.584119785381338,-1.77647019553427,-6.088816169756E-4,-9.397649911144E-4,-2.227626749414E-4,396768.450076004,3.9154E-12,1028.119140625,5.05399406157461,2.17522211469431,-6.7614610841861
5940.0,-2550368.40386416,3524389.70756814,5176279.67420123,-3792101.22639999,-2124675.51946469,5179314.17250516,2286.43648230402,-7212.6900988861,-1293.77573586006,4.88949925191411,2.73953698145342,-6.6781600868021,6758661.94994075,1.4564710114138,-0.443583562958093,-0.127068319503342,0.635220617269281,-3.06366827629724,0.638928908314106,-1.75405858220717,-6.164787059085E-4,-9.347688016349E-4,-2.224524802003E-4,396044.572608911,4.1232E-12,1038.29699707031,4.88949925191411,2.73953698145342,-6.6781600868021
6000.0,-2943476.94952969,3342807.30048661,5086793.68238262,-3646222.91722276,-2552172.60951209,5089730.89435018,2574.30151259887,-7031.69422798103,-1691.19061762182,4.7022823075741,3.29136173710976,-6.56387667986479,6758661.92224866,1.46084628082662,-0.441387270116858,-0.128633064547833,0.641997429526919,-3.08752191292816,0.693861807235702,-1.73243665106882,-6.239986330155E-4,-9.297463764805E-4,-2.220736557902E-4,395196.350446946,4.3498E-12,1048.53784179687,4.7022823075741,3.29136173710976,-6.56387667986479
6060.0,-3324623.06262003,3149162.80010372,4973700.51093953,-3483422.95521476,-2967825.31382168,4976526.80534369,2850.27282816395,-6818.02776964853,-2080.83130481072,4.49319221565194,3.82813471559292,-6.41911635110893,6758661.89501897,1.46522155023942,-0.439252078303876,-0.130202218324182,0.648434151943312,-3.11143280305099,0.748884017117907,-1.71160551834014,-6.314390860583E-4,-9.247007465079E-4,-2.216265980364E-4,394233.559324195,4.5938E-12,1058.71374511718,4.49319221565194,3.82813471559292,-6.41911635110893
6120.0,-3692144.34922821,2944236.43793104,4837520.59076292,-3304453.77932357,-3369701.99870084,4840222.84861964,3113.06607163528,-6572.669072772,-2460.88788291841,4.26318005176186,4.34735973262226,-6.24452580615229,6758661.86873542,1.46959681965224,-0.437193130445797,-0.131759771367344,0.654540494551349,-3.13551577598091,0.803962773551441,-1.69158491972159,-6.387978424267E-4,-9.19634983432E-4,-2.211117406111E-4,393167.931020457,4.854E-12,1068.71911621093,4.26318005176186,4.34735973262226,-6.24452580615229
6180.0,-4044433.66319522,2728846.58672481,4678881.63885593,-3110143.11853456,-3755934.179979,4681447.31447307,3361.45691300714,-6296.74400132465,-2829.59341477609,4.01329493914733,4.84661772059227,-6.04089044243585,6758661.8438658,1.47397208906505,-0.43522472098741,-0.133289910141058,0.660327658486033,3.12328138381383,0.859066645666117,-1.67241869173633,-6.460727699345E-4,-9.145521957462E-4,-2.205295534698E-4,392012.970914624,5.1289E-12,1078.46838378906,4.01329493914733,4.84661772059227,-6.04089044243585
6240.0,-4379946.25031445,2503846.54543778,4498515.83446252,-2901390.21638072,-4124725.22824278,4500933.0138808,3594.28679946776,-5991.52096509969,-3185.23217013541,3.74467953730573,5.32357808688817,-5.80913117777246,6758661.82085344,1.47834735847786,-0.433360260063772,-0.134777134290699,0.665808266372594,3.09842768252564,0.914165143666511,-1.65418316833964,-6.532618274124E-4,-9.09455524628E-4,-2.198805417361E-4,390783.743315331,5.4169E-12,1087.89587402343,3.74467953730573,5.32357808688817,-5.80913117777246
6300.0,-4697206.64631196,2270121.21875107,4297256.5077891,-2679161.71885911,-4474358.75566041,4299513.96434084,3810.46842078698,-5658.40527860807,-3526.14764574028,3.45856507433759,5.77600974086184,-5.5503006394064,6758661.80010979,1.48272262789067,-0.431612239767676,-0.136206368377767,0.670996283630276,3.07290705635935,0.969228264952994,-1.63700030742623,-6.603630650991E-4,-9.043481398407E-4,-2.191652445381E-4,389496.627949254,5.7161E-12,1096.95068359375,3.45856507433759,5.77600974086184,-5.5503006394064
6360.0,-4994815.29685225,2028583.70341231,4076034.35502319,-2444487.24363213,-4803206.64471503,4078121.60174678,4008.99086336791,-5298.93286966598,-3850.75033777536,3.15626593972858,6.20179173475804,-5.26557872260681,6758661.78200676,1.48709789730349,-0.429992202156631,-0.13756306733129,0.675906931371263,3.04645550964623,1.02422591749708,-1.62105879455844,-6.673746248315E-4,-8.992332356429E-4,-2.183842338011E-4,388169.051537852,6.0243E-12,1105.591796875,3.15626593972858,6.20179173475804,-5.26557872260681
6420.0,-5271454.86875867,1780171.79386899,3835873.19562089,-2198454.64997393,-5109736.6805556,3837780.53428302,4188.92442715329,-4914.76336246853,-4157.52522921424,2.83917385680922,6.59892346424978,-4.95626753105593,6758661.76687031,1.49147316671629,-0.428510708738695,-0.138833314970383,0.680556591651775,3.01871076736448,1.07912710846434,-1.60664921202997,-6.742947400369E-4,-8.941140267158E-4,-2.175381130009E-4,386819.198902234,6.339E-12,1113.78662109375,2.83917385680922,6.59892346424978,-4.95626753105593
6480.0,-5525896.22273469,1525844.41990956,3577885.29005829,-1942205.03043462,-5392519.75025976,3579603.85655047,4349.42508080852,-4507.67256318595,-4445.03895542644,2.50875165669707,6.96553437494596,-4.62378571463234,6758661.75497421,1.4958484361291,-0.427177311280483,-0.140003915073258,0.68496270589973,2.98915053657609,1.13389867891852,-1.59422533182399,-6.811217355319E-4,-8.889937441187E-4,-2.166275158828E-4,385465.708490761,6.6572E-12,1121.50671386718,2.50875165669707,6.96553437494596,-4.62378571463234
6540.0,-5757004.01912336,1266578.02921077,3303266.23840875,-1676927.44662874,-5650236.57408089,3304788.04430102,4489.7385319883,-4079.54437930799,-4711.94661243988,2.16652667808594,7.29989312229611,-4.26966222360523,6758661.74653504,1.50022370554192,-0.426000523889201,-0.141062474589319,0.689143667400747,2.95697917026737,1.18850312289769,-1.58451704248874,-6.878540271288E-4,-8.838756312814E-4,-2.156531051493E-4,384127.35761186,6.9754E-12,1128.72729492187,2.16652667808594,7.29989312229611,-4.26966222360523
6600.0,-5963741.92964798,1003362.92783705,3013289.48220707,-1403853.43290061,-5881683.93571911,3014607.45225905,4609.2038910324,-3632.36220707478,-4956.99817350082,1.81408381978195,7.60041613375474,-3.89552950172214,6758661.74170794,1.50459897495472,-0.424987796429623,-0.141997478710707,0.693118708770313,2.92090423964356,1.24289443172909,-1.57875340046004,-6.944901210565E-4,-8.787629400451E-4,-2.146155711224E-4,382822.742962657,7.2897E-12,1135.42553710937,1.81408381978195,7.60041613375474,-3.89552950172214
6660.0,-6145177.42963382,737199.591840815,2709300.43407942,-1124251.29286871,-6085780.3808072,2710408.43952701,4707.25690812442,-3168.1998243478,-5179.0444810263,1.45305827537195,7.86567552389737,-3.50311614416185,6758661.74058331,1.50897424436754,-0.424145489442402,-0.142798357636306,0.696907785374671,2.87865468209304,1.29700926738928,-1.57914413548537,-7.010286132004E-4,-8.736589267577E-4,-2.135156303847E-4,381569.962258141,7.5958E-12,1141.57983398437,1.45305827537195,7.86567552389737,-3.50311614416185
6720.0,-6300486.146915,469094.963173512,2392710.26154216,-839420.214994723,-6261571.35513113,2393603.14899759,4783.43276578369,-2689.21182916864,-5377.04278270746,1.08512798181792,8.09440631541121,-3.09423904980289,6758661.74318487,1.51334951378035,-0.423478850828325,-0.143455544972589,0.700531455685183,2.82581208119174,1.35074561885354,-1.59004805096214,-7.074681881649E-4,-8.68566848435E-4,-2.123540244028E-4,380386.30287384,7.8892E-12,1147.16979980468,1.08512798181792,8.09440631541121,-3.09423904980289
6780.0,-6428955.7454761,200058.743135304,2064989.35319143,-550684.234351985,-6408233.75660311,2065662.96901443,4837.3684105374,-2197.62366700013,-5550.06178239204,0.712005816073816,8.2855129215231,-2.67079510069378,6758661.74946867,1.51772478319316,-0.422991994650645,-0.143960527820847,0.704010759560418,2.75248083524045,1.40390157278246,-1.62130256020684,-7.138076181672E-4,-8.634899589933E-4,-2.111315181385E-4,379287.943406228,8.1651E-12,1152.17553710937,0.712005816073816,8.2855129215231,-2.67079510069378
6840.0,-6529989.32386017,-68900.3034395283,1727660.4972055,-259386.068674801,-6525079.87766259,1728111.70722448,4868.80440973191,-1695.72129222181,-5697.28617844893,0.33543157598918,8.43807484847421,-2.23475240496716,6758661.75932328,1.52210005260597,-0.422687882481787,-0.144305888697106,0.707367095446475,2.63129872477714,1.45595005116652,-1.70021284605576,-7.200457617666E-4,-8.584315055618E-4,-2.098488986523E-4,378289.673921048,8.4189E-12,1156.57739257812,0.33543157598918,8.43807484847421,-2.23475240496716
