time,gePosition_m_X,gePosition_m_Y,gePosition_m_Z,eiPosition_m_X,eiPosition_m_Y,eiPosition_m_Z,eiVelocity_m_s_X,eiVelocity_m_s_Y,eiVelocity_m_s_Z,eiAccel_m_s2_X,eiAccel_m_s2_Y,eiAccel_m_s2_Z,semiMajorAxis_m,gast_rad,eulerAngle_rad_Roll,eulerAngle_rad_Pitch,eulerAngle_rad_Yaw,eulerAngleWrtEi_rad_Roll,eulerAngleWrtEi_rad_Pitch,eulerAngleWrtEi_rad_Yaw,bodyAngularRateWrtEi_rad_s_Roll,bodyAngularRateWrtEi_rad_s_Pitch,bodyAngularRateWrtEi_rad_s_Yaw,altitudeMsl_m,airDensity_kg_m3,ambientTemperature_dgK,eiGravitation_m_s2_X,eiGravitation_m_s2_Y,eiGravitation_m_s2_Z
0.0,-1428622.31101,4163200.46562,5136049.67203,-4292653.41,955168.47,5139356.57,109.649663,-7527.72649,1484.521489,5.52898588898,-1.23026784864,-6.61955055898,6758662.11723,1.02334780893,5.666859310097427E-17,-0.2024581932313422,-1.0271182499535224E-16,-2.471593905353287,-0.03718896447605677,-1.4289931348888525,0.0,0.0,0.0,398252.763838,3.11591362917E-12,976.47737094,5.52898588898,-1.23026784864,-6.61955055898
60.0,-1789712.64924,3920255.31414,5213136.60309,-4276130.76483,501640.150725,5216447.94651,440.899463506,-7584.04304243,1084.18935647,5.50841600845,-0.64620163535,-6.7197130881,6758662.09729,1.02772307802,-2.365061984680032E-6,-0.20245604264885522,-1.006078452805379E-4,-2.4720592963860404,0.01612042366569264,-1.3866611796765804,-7.049068603766561E-7,-0.001134477987848274,-3.302852372534542E-6,398335.16132,3.20687245744E-12,983.702829938,5.50841600844,-0.646201635303,-6.71971308814
120.0,-2144732.03543,3662345.3162,5266057.23662,-4239785.46976,45786.4496806,5269357.67525,770.149774605,-7605.20775087,678.777160965,5.46235954096,-0.0589892294583,-6.78881820188,6758662.07469,1.03209834711,-2.5120015281603274E-5,-0.20244904693986218,-4.002719998296473E-4,-2.470307948697733,0.06928029515548614,-1.3441021824376438,-1.5682193695747527E-6,-0.0011344959082205722,-6.615080444266568E-6,398280.482447,3.3172659325E-12,991.661468644,5.46235954096,-0.0589892294117,-6.78881820192
180.0,-2492166.12763,3390599.01169,5294562.84651,-4183783.26867,-410279.479707,5297837.07854,1095.87675837,-7591.11289279,270.159130178,5.39101443338,0.52866586291,-6.82653019132,6758662.04984,1.0364736162,-9.17992059291043E-5,-0.20243641393083167,-8.945557435429799E-4,-2.4663158457375527,0.12219457297341439,-1.3010762842746364,-2.5897433371880404E-6,-0.0011345075693185744,-9.935939052561712E-6,398085.376749,3.44775493306E-12,1000.30060888,5.39101443339,0.528665862956,-6.82653019135
240.0,-2830524.94082,3106195.8685,5298517.60819,-4108380.9098,-864442.891887,5301750.45103,1416.57193263,-7541.81317162,-139.774651103,5.29469445141,1.114054974,-6.83265644916,6758662.02319,1.04084888529,-2.259057169899334E-4,-0.20241740244500747,-0.0015774140564797402,-2.4600313118668202,0.17476349162007102,-1.2573391714524293,-3.7692476844597157E-6,-0.0011345124437282144,-1.3264676401906132E-5,397748.764118,3.59852943394E-12,1009.5300274,5.29469445142,1.11405497405,-6.83265644919
300.0,-3158349.28265,2810361.15211,5277899.29206,-4013925.01653,-1314597.19674,5281075.75269,1730.74908869,-7457.52566129,-549.126866601,5.17382804738,1.69447645691,-6.80714868354,6758661.9952,1.04522415437,-4.507976330962129E-4,-0.20239134494805588,-0.0024412221060028188,-2.4513746395741123,0.22688152919940394,-1.212638578679881,-5.106463907715847E-6,-0.0011345099435632596,-1.6600533489169586E-5,397271.876576,3.76928442953E-12,1019.22714254,5.1738280474,1.69447645696,-6.80714868355
360.0,-3474217.104,2504360.63633,5232799.43807,-3900850.54543,-1758653.68183,5235904.78248,2036.95112588,-7338.62901855,-956.001648276,5.02895672056,2.26724789958,-6.75010350644,6758661.96638,1.04959942346,-7.895745153544952E-4,-0.20235766770661862,-0.0034768113524228294,-2.440237430159686,0.27843520853324666,-1.1667109306425738,-6.601085475827106E-6,-0.0011344994211529684,-1.9942743536966846E-5,396658.260192,3.95927578908E-12,1029.2486468,5.02895672058,2.26724789963,-6.75010350645
420.0,-3776749.73683,2189495.17757,5163423.00905,-3769678.83752,-2194551.16544,5166442.8306,2333.7567725,-7185.66196284,-1358.51327237,4.86073287102,2.82971831983,-6.66176238763,6758661.93723,1.05397469255,-0.0012649645774319436,-0.20231590769880764,-0.004673513101708645,-2.4264817776195184,0.32930071575502307,-1.1192781943573564,-8.252767163976442E-6,-0.0011344801697995635,-2.3290531437403787E-5,395913.736944,4.16743388333E-12,1039.44538279,4.86073287104,2.82971831987,-6.66176238764
480.0,-4064617.99175,1867095.17521,5070087.52308,-3621015.27041,-2620265.53647,5073007.80935,2619.78716288,-6999.32102623,-1754.79483348,4.66991715045,3.37928028984,-6.54251096692,6758661.90828,1.05834996164,-0.0018992130701556101,-0.20226572562039918,-0.00601920929073414,-2.40993949275919,0.37934129187713267,-1.070045087132488,-1.0061124325786983E-5,-0.0011344514246142464,-2.664311320769178E-5,395046.326959,4.39248982065E-12,1049.6761784,4.66991715048,3.37928028988,-6.54251096692
540.0,-4336548.08816,1538514.94111,4953221.66739,-3455546.52092,-3033819.13756,4956028.86529,2893.71224057,-6780.45757944,-2143.00685793,4.45737531514,3.91338193752,-6.39287771997,6758661.88004,1.06272523073,-0.002713972396457141,-0.20220691436887883,-0.007500390251115745,-2.3904116628473107,0.42840436585028874,-1.018696889844619,-1.2025732106073805E-5,-0.001134412363442219,-2.9999695459375573E-5,394066.132173,4.63306983911E-12,1059.81737113,4.45737531518,3.91338193756,-6.39287771997
600.0,-4591327.38982,1205127.00155,4813363.39848,-3274037.44942,-3433289.94831,4816044.47725,3154.25695793,-6530.07414268,-2521.34581773,4.22407458864,4.42953877117,-6.21353197567,6758661.85301,1.06710049981,-0.0037301944905418446,-0.20213940254980817,-0.009102219162511294,-2.367668984746518,0.47631842124721674,-0.964898263413571,-1.4146124597064531E-5,-0.001134362107854033,-3.335947488424658E-5,392985.183096,4.88773380349E-12,1069.76694487,4.22407458868,4.42953877121,-6.21353197565
660.0,-4827809.91967,868316.35536,4651157.53573,-3077327.61909,-3816820.52593,4653700.04762,3400.20724297,-6249.31999374,-2888.05250607,3.97107954388,4.92534527333,-6.00528128532,6758661.82768,1.0714757689,-0.004968026003555928,-0.2020632526197945,-0.010808602876457914,-2.3414535056176056,0.5228896292502554,-0.908293668414397,-1.642179394093355E-5,-0.0011342997242294386,-3.672163775762219E-5,391817.25097,5.15495850668E-12,1079.44415673,3.97107954393,4.92534527336,-6.00528128531
720.0,-5044921.62777,529474.711642,4467352.85784,-2866327.46482,-4182626.66176,4469744.99606,3630.41570504,-5939.48608874,-3241.42023561,3.69954751697,5.39848620918,-5.76906814735,6758661.80449,1.07585103799,-0.006446706840381883,-0.2019786534252082,-0.012602268767529954,-2.3114826627458736,0.5678983472276622,-0.848510249623177,-1.885218938147738E-5,-0.0011342242249250088,-4.0085359460649106E-5,390577.628222,5.43308280252E-12,1088.7864381,3.69954751702,5.39848620922,-5.76906814732
780.0,-5241665.38755,189994.731099,4262798.71391,-2642014.12829,-4529005.71278,4265029.36774,3843.80705169,-5601.99931423,-3579.80282106,3.41072356725,5.84674759485,-5.5059660936,6758661.78386,1.08022630708,-0.008184472589415211,-0.20188590707032553,-0.014464847249399341,-2.277456823660206,0.6110956857896566,-0.7851643614906788,-2.143671626894539E-5,-0.0011341345695115796,-4.344980402669232E-5,389282.880671,5.72023631979E-12,1097.74528458,3.4107235673,5.84674759488,-5.50596609357
840.0,-5417125.6958,-148735.705502,4038441.16333,-2405426.97745,-4854344.56881,4040499.96997,4039.38318984,-5238.41609289,-3901.62230805,3.10593500066,6.26802727069,-5.21717514707,6758661.76617,1.08460157617,-0.010198461376384282,-0.20178541012362308,-0.0163769595794879,-2.239071852014994,0.6522004999647085,-0.7178732380682341,-2.4174735020120254E-5,-0.0011340296661233877,-4.681412370814437E-5,387950.575523,6.01427022824E-12,1106.2822876,3.10593500072,6.26802727072,-5.21717514704
900.0,-5570473.0534,-485339.178136,3795318.66062,-2157662.82995,-5157127.21721,3797196.05367,4216.22798587,-4850.41536792,-4205.37641087,2.78658547626,6.66034502557,-4.90401666367,6758661.75173,1.08897684525,-0.012504625655619371,-0.20167762937690004,-0.018318310567541084,-2.196038465612824,0.6908973697244394,-0.6462735555547374,-2.7065560040001193E-5,-0.0011339083728613177,-5.017745857220708E-5,386598.989646,6.31270397918E-12,1114.3659331,2.78658547632,6.66034502559,-4.90401666363
960.0,-5700968.00444,-818454.334285,3534557.30397,-1899870.90186,-5435941.86879,3536244.5582,4373.51166002,-4439.79099486,-4489.6456227,2.45414871786,7.02185221844,-4.5679275742,6758661.74081,1.09335211434,-0.015117649426258803,-0.20156307247138658,-0.02026778579659345,-2.148110124636627,0.7268363965044108,-0.5700486092861767,-3.0108458605857893E-5,-0.0011337694993095895,-5.353893612198061E-5,385246.803113,6.61269281861E-12,1121.96916243,2.45414871792,7.02185221846,-4.56792757415
1020.0,-5807964.81291,-1146741.39869,3257365.66806,-1633247.50426,-5689487.6102,3258854.94033,4510.49479232,-4008.44357248,-4753.09996273,2.11016185577,7.35084084501,-4.21045404616,6758661.73361,1.09772738343,-0.018050871327334895,-0.20144225390396628,-0.02220355296500549,-2.09512058408405,0.7596359203553936,-0.4889652254875631,-3.330264972089827E-5,-0.0011336118081309936,-5.6897670947746615E-5,383912.783331,6.91102362427E-12,1129.06780587,2.11016185584,7.35084084503,-4.21045404611
1080.0,-5890914.75746,-1468887.56357,2965029.24399,-1359030.51168,-5916580.55016,2966313.6101,4626.53191861,-3558.37174758,-4994.50532632,1.75621842587,7.64575199854,-3.83324458847,6758661.73025,1.10210265252,-0.021316214025173256,-0.20131565696503567,-0.024103166952718996,-2.0370306703018306,0.7888894703331418,-0.40291995598085667,-3.664730294018546E-5,-0.0011334340167389126,-6.025276441071464E-5,382615.465396,7.20413765468E-12,1135.63955836,1.75621842594,7.64575199856,-3.83324458841
1140.0,-5949369.02606,-1783612.23725,2658904.51115,-1078493.62758,-6116159.42923,2659977.99841,4721.07469694,-3091.66303158,-5212.72940521,1.39396105574,7.90518367576,-3.43804262549,6758661.73081,1.10647792161,-0.02492412025782692,-0.20118369242132483,-0.025943678218927037,-1.9739809588099893,0.8141782427665314,-0.31199122237648286,-4.0141537173516505E-5,-0.0011332347990845408,-6.360330435870796E-5,381372.834497,7.48818109102E-12,1141.66337276,1.39396105581,7.90518367577,-3.43804262543
1200.0,-5982981.1943,-2089672.12995,2340412.66765,-792940.473128,-6287290.66487,2341270.28308,4793.67462654,-2610.48416956,-5406.74714711,1.02507387019,8.12789788136,-3.0266785705,6758661.73528,1.11085319069,-0.028883495851071136,-0.2010466547151146,-0.027701744132787243,-1.906342893843701,0.835089944884598,-0.21648994137984995,-4.3784419471894915E-5,-0.0011330127875121684,-6.694836487850138E-5,380202.016297,7.75908136336E-12,1147.11909449,1.02507387026,8.12789788137,-3.02667857043
1260.0,-5991509.27236,-2385866.1558,2011033.04796,-503698.526737,-6429172.8063,2011670.80186,4843.98530359,-2117.07110518,-5575.64572545,0.651274650377,8.31282698698,-2.60106143203,6758661.74358,1.11522845978,-0.03320165995988666,-0.2009046766746877,-0.029353742835036997,-1.8347564423309244,0.851243752447137,-0.11699671566313904,-4.757496380021514E-5,-0.0011327665747156955,-7.028700608411275E-5,379118.981169,8.01264556538E-12,1151.98719155,0.651274650453,8.31282698698,-2.60106143196
1320.0,-5974817.30812,-2671040.13167,1672296.2577,-212112.94246,-6541140.37633,1672711.18269,4871.76420004,-1613.71858743,-5718.62899247,0.274306783445,8.45907930383,-2.16316998975,6758661.75556,1.11960372887,-0.037884302733753455,-0.20075768375179576,-0.030875889220183684,-1.7601397529808154,0.8623194042314907,-0.014371054008297298,-5.15121298029657E-5,-0.0011324947157841587,-7.36182739450626E-5,378138.268036,8.24467462854E-12,1156.24842288,0.274306783522,8.45907930383,-2.16316998968
1380.0,-5932876.53506,-2944091.25341,1325777.05767,80459.7237398,-6622667.07998,1325967.22281,4876.87395407,-1102.76946762,-5835.02139085,-0.104068959064,8.56594383167,-1.71504358003,6758661.77101,1.12397899796,-0.04293545054113985,-0.20060534884904768,-0.03224435261498046,-1.683658332990719,0.8680864723403127,0.09027987352975848,-5.5594821569408794E-5,-0.0011321957303362675,-7.694120015547445E-5,377272.733251,8.45110239549E-12,1159.88405385,-0.104068958985,8.56594383167,-1.71504357996
1440.0,-5865766.05632,-3203972.33201,973087.02986,372657.850256,-6673368.36291,973051.550048,4859.28316312,-586.603736932,-5924.27130191,-0.482082773426,8.6328941507,-1.25877253411,6758661.78965,1.12835426705,-0.04835743883277427,-0.20044704889088183,-0.03343537571161917,-1.6066497274966174,0.868428418294561,0.1956769660676331,-5.9821886401028724E-5,-0.0011318681047544266,-8.025480204419036E-5,376533.329563,8.62815805375E-12,1162.87677726,-0.482082773347,8.63289415069,-1.25877253403
1500.0,-5773673.0579,-3449695.77255,615867.060148,663121.118604,-6693003.30565,615606.100583,4819.06667298,-67.6273569185,-5985.95381078,-0.857964264799,8.65959142705,-0.796488314823,6758661.81113,1.13272953613,-0.05415089266481801,-0.20028182425687827,-0.034425394287019614,-1.5305129958303005,0.8633561132684352,0.30048011965294963,-6.419211358962692E-5,-0.0011315102944972973,-8.355808253148673E-5,375928.91965,8.77252274605E-12,1165.21140889,-0.85796426472,8.65959142704,-0.796488314741
1560.0,-5656892.54638,-3680337.28045,255779.672978,950496.884291,-6681475.84278,255294.448705,4756.40535872,451.739063091,-6019.77287197,-1.22995093386,8.64588650758,-0.33035340049,6758661.83506,1.13710480522,-0.06031471485645715,-0.20010834221885604,-0.035191157213239725,-1.4565848510577377,0.8530075085816866,0.4034124909902382,-6.870423321112489E-5,-0.0011311207265135874,-8.685003012959792E-5,375466.128049,8.88147101155E-12,1166.87538802,-1.22995093378,8.64588650757,-0.330353400405
1620.0,-5515826.60866,-3895039.28053,-105498.745551,1233446.51927,-6638835.2995,-106205.975006,4671.58539624,969.07168646,-6025.56286162,-1.59629666479,8.59182108419,0.137449033301,6758661.86099,1.14148007431,-0.0668460817084354,-0.1999248654813138,-0.03570984622353959,-1.3860294783382345,0.8376335257598128,0.503371086758925,-7.335691494170737E-5,-0.0011306978017431083,-9.012961899141096E-5,375149.234557,8.9529893092E-12,1167.85916178,-1.59629666471,8.59182108417,0.137449033388
1680.0,-5350983.19358,-4093014.03585,-466285.799076,1510651.69542,-6565276.2415,-467211.739967,4564.99702561,1481.95491128,-6003.28950592,-1.95528016955,8.49762791331,0.604725580946,6758661.88845,1.1458553434,-0.07374044617920424,-0.19972922688637262,-0.035959194864424004,-1.3197637698206797,0.8175735940690751,0.5995019456914294,-7.814876690119264E-5,-0.0011302398977068428,-9.339580900837845E-5,374980.111298,8.98586432171E-12,1168.15649416,-1.95528016947,8.49762791329,0.604725581035
1740.0,-5162974.41752,-4273546.4546,-824900.969199,1780820.57868,-6461137.63724,-826041.308689,4437.13281014,1987.99281701,-5953.05017839,-2.30521334317,8.36373008175,1.06928316855,6758661.91692,1.15023061249,-0.08099154838447467,-0.19951881122046397,-0.035917606014246026,-1.258427085458133,0.7932262108681627,0.6912308089177335,-8.307833453288025E-5,-0.0011297453711773013,-9.664754595782443E-5,374958.204763,8.97973549047E-12,1167.76472691,-2.30521334309,8.36373008173,1.06928316864
1800.0,-4952514.39831,-4435996.57481,-1179673.50259,2042693.90376,-6326901.33536,-1181022.92866,4288.58539806,2484.82053833,-5875.07356208,-2.64444948431,8.19073931556,1.52893965409,6758661.94587,1.15460588158,-0.08859143327181748,-0.19929054503731491,-0.035564267311080686,-1.202391374812693,0.7650199035374282,0.7782534483681932,-8.814409952284304E-5,-0.0011292125609570819,-9.988376170261002E-5,375080.56318,8.93510869736E-12,1166.68501191,-2.64444948423,8.19073931553,1.52893965418
1860.0,-4720416.62439,-4579801.71817,-1528950.25882,2295050.89984,-6163189.86325,-1530502.48487,4120.04479601,2970.1155089,-5769.71867587,-2.971391336,7.9794533345,1.98153440915,6758661.97474,1.15898115066,-0.09653047531707211,-0.19904089520757948,-0.034879263782312236,-1.1517991043639049,0.7333884990761941,0.8604982136134945,-9.33444787680886E-5,-0.0011286397907115438,-1.0310337444280984E-4,375341.908567,8.85333084695E-12,1164.92252855,-2.97139133593,7.97945333447,1.98153440924
1920.0,-4467590.86817,-4704478.30562,-1871103.48089,2536715.03838,-5970763.55633,-1872851.27495,3932.29516669,3441.60851795,-5637.47326804,-3.28449890178,7.73085226064,2.42493882463,6758662.00299,1.16335641975,-0.10479741008967346,-0.1987658768181988,-0.033843686931901255,-1.1066144703140466,0.6987526095348556,0.93807532203184,-9.86778233993494E-5,-0.0011280253719096849,-1.0630528902149378E-4,375734.751935,8.73652796889E-12,1162.4866951,-3.28449890171,7.73085226061,2.42493882472
1980.0,-4195039.65489,-4809623.32934,-2204538.45064,2766559.57478,-5750517.03099,-2206473.66902,3726.21116534,3897.09452332,-5478.95158312,-3.58229699346,7.44609409546,2.85706668294,6758662.03008,1.16773168884,-0.11337937255198235,-0.19846107087702097,-0.03243973950063133,-1.066676039968099,0.6615075241457522,1.0112247542172077,-1.041424178644358E-4,-0.001127367606838326,-1.0948839728548656E-4,376249.549138,8.58751202942E-12,1159.39137935,-3.58229699339,7.44609409542,2.85706668303
2040.0,-3903854.30083,-4894915.47682,-2527700.9918,2983512.85698,-5503475.01739,-2529814.61702,3502.75383247,4334.44316569,-5294.89151182,-3.86338246799,7.12650928578,3.2758843393,6758662.0555,1.17210695793,-0.1222619419687017,-0.19812165207400845,-0.03065083509124814,-1.031743419567272,0.6220166289571568,1.0802701616768746,-1.0973647908052968E-4,-0.0011266647916808707,-1.1265157850058144E-4,376874.894086,8.40966363649E-12,1155.65511101,-3.86338246792,7.12650928574,3.27588433939
2100.0,-3595210.53646,-4960115.90485,-2839084.78404,3186563.37463,-5230787.57177,-2841366.96689,3262.96606276,4751.60893015,-5086.15113732,-4.12643111266,6.77359440477,3.67942065567,6758662.07875,1.17648222702,-0.1314291933403332,-0.1977424267281863,-0.028461691827015894,-1.001534669187939,0.5806090365819053,1.1455820709885467,-1.1545815566030545E-4,-0.0011259152196903162,-1.1579369982469911E-4,377597.745237,8.20679905745E-12,1151.30129576,-4.1264311126,6.77359440473,3.67942065576
2160.0,-3270363.73257,-5005068.66256,-3137238.4522,3374764.52433,-4933724.69092,-3139678.55772,3007.96767234,5146.64090268,-4853.70469425,-4.37020413964,6.38900497989,4.06577663191,6758662.0994,1.1808574961,-0.1408637552884183,-0.19731788076848875,-0.02585841921413621,-0.9757540496178233,0.5375801051466138,1.207550804144351,-1.2130552721990702E-4,-0.0011251171844163643,-1.1891361683619878E-4,378403.680694,7.98303035797E-12,1146.35842878,-4.37020413958,6.38900497985,4.065776632
2220.0,-2930643.74945,-5029700.76435,-3420772.39626,3547239.06746,-4613670.35469,-3423359.05341,2738.95008905,5517.69207187,-4598.63796026,-4.59355425311,5.97454750518,4.43313468061,6758662.11702,1.18523276519,-0.15054687436236897,-0.19684223749543098,-0.022828597381441485,-0.9541112435902543,0.49319374248582964,1.2665679767308224,-1.2727660377523836E-4,-0.0011242689830093322,-1.2201017411943619E-4,379277.17666,7.74262703742E-12,1140.86030177,-4.59355425305,5.97454750514,4.43313468069
2280.0,-2577449.43093,-5034021.9152,-3688365.3285,3703183.25875,-4272116.02524,-3691086.48331,2457.17069238,5863.02812777,-4322.14310312,-4.79543125515,5.53217068063,4.7797674937,6758662.1313,1.18960803428,-0.16045848575270416,-0.19630952458429882,-0.019361347907077667,-0.9363337861255657,0.447685674124448,1.3230148424526083,-1.3336932523215288E-4,-0.0011233689195816548,-1.2508220590879007E-4,380201.903662,7.48988638759E-12,1134.84619173,-4.7954312551,5.53217068058,4.77976749378
2340.0,-2212242.76727,-5018123.89253,-3938770.48609,3841870.62545,-3910653.63456,-3941613.45798,2163.94683165,6181.03571319,-4025.51300922,-4.97488715884,5.06395592615,5.10404645197,6758662.14194,1.19398330337,-0.17057729042308348,-0.19571364966139623,-0.015447395480847103,-0.9221744604109244,0.40126711643307844,1.3772557294587864,-1.3958156097926806E-4,-0.0011224153086269852,-1.281285367885392E-4,381161.034655,7.22901810494E-12,1128.36100923,-4.97488715879,5.0639559261,5.10404645204
2400.0,-1836542.75228,-4982179.58999,-4170821.48881,3962655.37873,-3530968.09441,-4173773.0299,1860.64955291,6470.23008536,-3710.13512248,-5.13108078051,4.5721072226,5.40444953084,6758662.14873,1.19835857246,-0.1808808386773699,-0.19504848353181603,-0.011079119725285512,-0.9114151695322789,0.3541285058206979,1.429635057966129,-1.4591110958584903E-4,-0.0011214064784916555,-1.3114798245068433E-4,382137.559027,6.96404663682E-12,1121.45536663,-5.13108078047,4.57210722255,5.40444953091
2460.0,-1451918.96185,-4926441.73055,-4383437.81343,4064975.44069,-3134829.36521,-4386484.1705,1548.69706657,6729.26214923,-3377.48482505,-5.26328178639,4.05894033607,5.67956865952,6758662.15155,1.20273384154,-0.1913456201899959,-0.19430795001502685,-0.006250596579600206,-0.903868466784282,0.30644308619958666,1.480476753222843,-1.5235569861540732E-4,-0.001120340774901986,-1.3413935050896977E-4,383114.596491,6.69873254253E-12,1114.18550072,-5.26328178636,4.05894033602,5.67956865959
2520.0,-1059984.88256,-4851241.25741,-4575629.85844,4148355.07258,-2724084.12273,-4578756.83722,1229.54798915,6956.92482729,-3029.11839386,-5.37087417196,3.52687148582,5.92811649374,6758662.15032,1.20710911063,-0.20194716047729241,-0.19348612114560287,-9.576287638476405E-4,-0.8993776135872983,0.2583702589772763,1.5300851770536246,-1.5891298455710944E-4,-0.0011192165645090497,-1.371014413692791E-4,384075.70501,6.43651201607E-12,1106.61294991,-5.37087417193,3.52687148577,5.9281164938
2580.0,-662391.020092,-4756985.41275,-4746503.57449,4212407.09145,-2300647.06318,-4749696.60608,904.694393684,7152.15873426,-2666.66556933,-5.45335915654,2.97840551928,6.14893256636,6758662.14508,1.21148437972,-0.21266012383194666,-0.19257731632712388,0.004802235036948499,-0.897815772155687,0.21005866419448824,1.5787469568373063,-1.6558055288372193E-4,-0.0011180322384997578,-1.4003304915570687E-4,385005.177097,6.18045190054E-12,1098.80384978,-5.45335915652,2.97840551922,6.14893256642
2640.0,-260817.818629,-4644155.51562,-4895264.63878,4256834.66518,-1866491.88949,-4898508.84772,575.654704459,7314.05712922,-2291.82177451,-5.51035747888,2.41612366039,6.34098878413,6758662.13592,1.21585964881,-0.22345842257153764,-0.19157620398364136,0.011029692482928972,-0.8990847371146748,0.16164899953469095,1.626733284875172,-1.7235591823818686E-4,-0.0011167862162062012,-1.4293296269073544E-4,385888.319194,5.93321636309E-12,1090.82768728,-5.51035747886,2.41612366034,6.34098878418
2700.0,143031.576829,-4513304.45172,-5021222.15325,4281432.67724,-1423642.02265,-5024502.42708,243.966472138,7441.87012154,-1906.34002467,-5.54161108363,1.84267089991,6.50339424302,6758662.12301,1.2202349179,-0.23431533254268075,-0.1904779040401764,0.01772369144097486,-0.9031134595906,0.11327660431477467,1.6743023995580029,-1.7923652475755513E-4,-0.0011154769487586248,-1.4579996652864453E-4,386711.709202,5.69704132941E-12,1082.75537371,-5.54161108362,1.84267089986,6.50339424307
2760.0,547438.682398,-4365053.88882,-5123791.84957,4286088.65539,-974161.083654,-5127092.90945,-88.8209337877,7535.00811119,-1512.02256911,-5.54698419239,1.26074309776,6.63539933927,6758662.10661,1.22461018698,-0.2452036145680183,-0.1892780895898938,0.024881445286811965,-0.9098565077188095,0.06507384455269838,1.721702052912573,-1.8621974653759292E-4,-0.0011141029227349098,-1.4863284204005874E-4,387463.427767,5.47371422487E-12,1074.65659559,-5.54698419238,1.26074309771,6.63539933931
2820.0,950677.128031,-4200091.23263,-5202498.78591,4270783.26035,-520143.1923,-5205805.25799,-421.153678298,7593.0444484,-1110.7123078,-5.52646375662,0.67307386894,6.73639915743,6758662.08702,1.22898545607,-0.25609564158821985,-0.1879730859991332,0.032498459360952484,-0.9192925275442585,0.017172336940513146,1.7691718269904175,-1.9330288823579314E-4,-0.0011126626638275124,-1.5143036854850606E-4,388133.259415,5.26455961041E-12,1066.59660729,-5.52646375661,0.673073868888,6.73639915747
2880.0,1351020.16713,-4019166.33927,-5256979.52345,4235590.33282,-63703.1301795,-5260276.01067,-751.480822804,7615.71730172,-704.284026852,-5.48015929406,0.0824213249889,6.80593612178,6758662.06462,1.23336072516,-0.2669635310137895,-0.18655996574161907,0.0405685681185168,-0.9314227081911822,-0.030294953636919652,1.816945192747227,-2.0048318583705128E-4,-0.0011111547404999264,-1.5419132451287827E-4,388712.860258,5.07043514162E-12,1058.63291008,-5.48015929407,0.0824213249371,6.80593612181
2940.0,1746748.20883,-3823088.00086,-5286983.773,4180676.49946,393033.584532,-5290254.92691,-1078.2616589,7602.93072809,-294.635497205,-5.40830211342,-0.508445256975,6.84370190167,6758662.03985,1.23773599425,-0.2777792817386488,-0.1850366372077945,0.04908398233866191,-0.946269207214828,-0.07719171505381392,1.865251215555906,-2.0775780755163728E-4,-0.001109577767634423,-1.5691448875753918E-4,389195.889576,4.89174498368E-12,1050.81250904,-5.40830211343,-0.508445257026,6.8437019017
3000.0,2136156.33872,-3612720.2221,-5292375.50493,4106300.34056,847940.662472,-5295606.09731,-1399.97297747,7554.75494263,116.32151845,-5.31124393614,-1.09675876602,6.84953856637,6758662.01319,1.24211126334,-0.28851491516448524,-0.18340192589404733,0.058035345601516124,-0.9638734503261324,-0.1233763692007358,1.9143158069078419,-2.151238548850824E-4,-0.0011079304101605893,-1.5959864174624027E-4,389578.103239,4.72847701086E-12,1043.17047669,-5.31124393615,-1.09675876607,6.84953856639
3060.0,2517561.79374,-3388978.306,-5273133.51816,4012811.12448,1298901.00071,-5276308.512,-1715.1162373,7471.42579033,526.670305557,-5.18945492743,-1.67976751936,6.82343898924,6758661.98514,1.24648653242,-0.29914261937367514,-0.1816556463347099,0.0674117990922542,-0.9842941802218284,-0.16870022848843533,1.964362403626982,-2.2257836386165505E-4,-0.0011062113866559433,-1.6224256689635383E-4,389857.407595,4.58026483422E-12,1035.73026716,-5.18945492745,-1.67976751941,6.82343898926
3120.0,2889311.35732,-3152824.76775,-5229351.4669,3900647.11579,1743816.58487,-5232456.08644,-2022.22459819,7353.34342572,934.498239386,-5.04352115204,-2.25474838543,6.76554650573,6758661.95626,1.25086180151,-0.3096348955763706,-0.17979866339976777,0.07720105367150176,-1.0076050900506237,-0.2130057396062373,2.0156119291758845,-2.3011830640142555E-4,-0.0011044194729046598,-1.6484505193272467E-4,390033.873095,4.44646796653E-12,1028.50569116,-5.04352115207,-2.25474838548,6.76554650573
3180.0,3249788.64119,-2905265.09606,-5161237.34624,3770333.46636,2180618.28851,-5164257.14573,-2319.86978467,7201.07021119,1337.90578404,-4.87414147341,-2.81901970078,6.67615383386,6758661.92708,1.2552370706,-0.3199647057339383,-0.17783294160913773,0.08738946805194861,-1.0338918377936421,-0.25612484844454014,2.0682818589446375,-2.3774059186139178E-4,-0.0011025535054126636,-1.6740489027642873E-4,390109.707625,4.32625751268E-12,1021.50394645,-4.87414147344,-2.81901970082,6.67615383386
3240.0,3597421.22095,-2647343.38181,-5069112.44044,3622479.70056,2607275.52336,-5072033.37137,-2606.66874741,7015.32784794,1735.01540485,-4.68212391768,-3.36995391609,6.55570127012,6758661.89818,1.25961233969,-0.3301056202469756,-0.175761581370939,0.0979621318557753,-1.063248201595551,-0.2978775477276309,2.1225841762783184,-2.4544206874066606E-4,-0.001100612384861636,-1.6992088246599454E-4,390089.19015,4.21869399358E-12,1014.72886787,-4.68212391771,-3.36995391613,6.55570127012
3300.0,3930687.59317,-2380137.83396,-4953409.74058,3457776.80762,3021805.69476,-4956218.21692,-2881.29009113,6796.99375797,2123.98035124,-4.46838152681,-3.90498990915,6.40477417749,6758661.8701,1.26398760878,-0.34003196447919154,-0.17358884120040732,0.10890295229503416,-1.0957711091680804,-0.3380707029507688,2.178721980342326,-2.5321952654972255E-4,-0.0010985950795001894,-1.7239183760707388E-4,389978.565944,4.12278811354E-12,1008.18368353,-4.46838152685,-3.90498990919,6.40477417748
3360.0,4248123.92269,-2104756.20294,-4814671.84042,3276993.95603,3422283.41813,-4817354.80169,-3142.4602389,6547.09673869,2502.99326811,-4.2339277275,-4.42164490582,6.22409978594,6758661.84338,1.26836287786,-0.349718962787213,-0.17132014522917405,0.12019474322201293,-1.1315542682336077,-0.3764972921203478,2.236884498425165,-2.6106969783323396E-4,-0.0010965006284530123,-1.7481657484933933E-4,389785.905327,4.03754147594E-12,1001.87289274,-4.23392772754,-4.42164490586,6.22409978593
3420.0,4548330.54982,-1822331.13185,-4653548.32197,3080974.84678,3806849.45353,-4656093.29386,-3388.96930486,6266.81191549,2870.29459521,-3.97987124446,-4.91752595341,6.01454332956,6758661.81853,1.27273814695,-0.3591428787769887,-0.16896207550068468,0.13181931533465735,-1.1706801573104484,-0.41293623878348373,2.297240285786613,-2.689892603604598E-4,-0.0010943281449497277,-1.7719392488031147E-4,389520.928414,3.96196933113E-12,995.803213237,-3.9798712445,-4.91752595345,6.01454332954
3480.0,4829978.22851,-1534015.45554,-4470792.64484,2870633.72355,4173719.31701,-4473187.79697,-3619.67664883,5957.45502061,3224.18071549,-3.707410589,-5.3903408945,5.77710354694,6758661.79602,1.27711341604,-0.3682811504184531,-0.16652234882905292,0.14375756640119217,-1.2132102299197862,-0.4471530605784008,2.3599284881380598,-2.769748394709688E-4,-0.0010920768194542687,-1.7952273144571538E-4,389194.799026,3.8951100371E-12,989.98375741,-3.70741058905,-5.39034089453,5.77710354691
3540.0,5091814.06743,-1240977.46773,-4267258.55533,2646951.05991,4521191.52919,-4269492.756,-3833.5160882,5620.47602976,3563.0118152,-3.41782815496,-5.8379087931,5.51290757493,6758661.77626,1.28148868513,-0.37711251867105655,-0.16400977820895812,0.1559895704750695,-1.2591733674192718,-0.47890158828077123,2.4250482207380517,-2.850230105826771E-4,-0.0010897459226825526,-1.8180185286983676E-4,388819.891403,3.83602632739E-12,984.425676324,-3.41782815502,-5.83790879312,5.5129075749
3600.0,5332667.14784,-944396.175964,-4043896.03375,2410968.9445,4847655.46376,-4045958.90142,-4029.50074475,5257.45219078,3885.21942008,-3.11248395575,-6.2581697691,5.22320526801,6758661.75963,1.28586395422,-0.3856171483809768,-0.16143421902006,0.16849466521222034,-1.308552909070398,-0.5079270188924672,2.49264640995748,-2.931303018430035E-4,-0.0010873348085154357,-1.840301636020583E-4,388409.533917,3.78380266321E-12,979.141498551,-3.11248395581,-6.25816976912,5.22320526797
3660.0,5551453.79329,-645456.563946,-3801746.8003,2163786.18703,5151598.76019,-3803628.75151,-4206.72750572,4870.08048093,4189.31357447,-2.7928090371,-6.64919420109,4.90936297785,6758661.74643,1.2902392233,-0.3937767401584698,-0.15880650049856537,0.181251536562633,-1.361272998565128,-0.5339705323603184,2.562704851139583,-3.012931969388493E-4,-0.0010848429167737866,-1.8620655574576808E-4,387977.734412,3.73754174572E-12,974.1443391,-2.79280903716,-6.64919420111,4.90936297781
3720.0,5747182.46795,-345344.880264,-3541939.40203,1906553.16854,5431614.26792,-3543631.69558,-4364.38108082,4460.16953189,4473.88963183,-2.46029860106,-7.00919126165,4.57285682967,6758661.7369,1.29461449239,-0.40157463214278233,-0.15613834318053646,0.1942383003002675,-1.4171854847294627,-0.5567756048474055,2.635127733597313,-3.0950813804795014E-4,-0.0010822697758696412,-1.8832994061693855E-4,387538.892179,3.69636213578E-12,969.447094909,-2.46029860113,-7.00919126167,4.57285682961
3780.0,5918958.28213,-45243.9722281,-3265683.90485,1640466.46082,5686406.49088,-3267178.68203,-4501.73763896,4029.63106345,4737.63462772,-2.11650487734,-7.33651675379,4.21526553329,6758661.73121,1.29898976148,-0.4089958905812492,-0.15344226322765392,0.20743258002077272,-1.4760591153330884,-0.5760959771122989,2.7097313826850087,-3.177715289350904E-4,-0.001079615005305515,-1.903992502677991E-4,387107.501923,3.65939805734E-12,965.061694272,-2.11650487741,-7.3365167538,4.21526553323
3840.0,6065987.08522,253671.317187,-2974266.21657,1366763.24058,5914797.50455,-2975556.53731,-4618.16801048,3580.47086872,4979.33320845,-1.76302977824,-7.62968022107,3.83826276859,6758661.72946,1.30336503057,-0.41602738833594877,-0.1507314647463358,0.22081158149373412,-1.5375731182116994,-0.5917049844301205,2.7862383228864096,-3.2607973817398044E-4,-0.0010768783180201244,-1.9241343902272565E-4,386697.855248,3.62580183664E-12,960.998432318,-1.76302977831,-7.62968022108,3.83826276853
3900.0,6187579.12829,550238.671847,-2669042.0684,1086715.52485,6115732.31961,-2670121.94304,-4713.14044324,3114.77939505,5197.87309114,-1.40151737376,-7.88735130835,3.44360918547,6758661.73167,1.30774029966,-0.4226578705098279,-0.1480197213866958,0.23435216335322093,-1.601317280466549,-0.603405651318629,2.8642777812548754,-3.344291024982894E-4,-0.0010740595225840117,-1.943714849931864E-4,386323.745366,3.59474899863E-12,957.26540217,-1.40151737383,-7.88735130836,3.4436091854
3960.0,6283152.28036,843312.727643,-2351430.68347,801624.254598,6288283.66964,-2352295.10022,-4786.2229026,2634.72196628,5392.25003318,-1.03364622318,-8.10836535415,3.03314405971,6758661.73779,1.31211556874,-0.4288780065831773,-0.14532124866053805,0.24803090441513548,-1.6668001396873284,-0.6110406593683949,2.9433942519534715,-3.4281593028881246E-4,-0.0010711585252049282,-1.9627239157348926E-4,385998.18073,3.56544573583E-12,953.868018498,-1.03364622326,-8.10836535416,3.03314405964
4020.0,6352234.78439,1131769.38435,-2022908.16261,512813.254268,6431656.20237,-2023553.11039,-4837.08490797,2142.52869297,5561.57229182,-0.661121599184,-8.29172819942,2.60877664628,6758661.74768,1.31649083783,-0.43468042855431205,-0.1426505685526767,0.2618241679472173,-1.733465830749754,-0.6145010952955251,3.0230646721448524,-3.5123650515139613E-4,-0.0010681753315796283,-1.9811518891209418E-4,385733.113194,3.53713823612E-12,950.808623674,-0.661121599258,-8.29172819942,2.60877664621
4080.0,6394467.54119,1414509.98893,-1685000.61837,221623.095147,6545190.0575,-1685423.105,-4865.49890048,1640.48411776,5705.06455687,-0.285667640021,-8.43662020169,2.17247727197,6758661.76115,1.32086610692,-0.4400597548121846,-0.1400223681059821,0.2757081634781336,-1.8007186307054677,-0.6137328659673955,3.102723256665164,-3.59687089615291E-4,-0.001065110048537971,-1.9989893535849105E-4,385539.186108,3.50912317693E-12,948.086163956,-0.285667640096,-8.43662020169,2.17247727189
4140.0,6409605.91103,1690465.37582,-1339277.08924,-70595.109167,6628363.81644,-1339475.15498,-4871.3411384,1130.91664406,5822.07134224,0.0909805351717,-8.542399447,1.72626820928,6758661.77795,1.32524137601,-0.44501259952451117,-0.13745135373752643,0.28965900674953876,-1.8679526764543422,-0.6087398790714814,-3.101393836162514,-3.6816392891877064E-4,-0.0010619628855177204,-2.0162271887342603E-4,385425.50742,3.48075855657E-12,945.695922265,0.0909805350962,-8.542399447,1.72626820921
4200.0,6397521.02545,1958599.75073,-987342.267098,-362485.946825,6680796.81246,-987314.993338,-4854.59211937,616.187796075,5912.05982437,0.467084713858,-8.60860415559,1.27221437335,6758661.79775,1.3296166451,-0.4495375675990062,-0.13495210310987238,0.3036527785371611,-1.9345831745895201,-0.5995835144272023,-3.023475841243174,-3.766632548872534E-4,-0.0010587341558194402,-2.0328565840771134E-4,385399.452405,3.45147394207E-12,943.629293948,0.467084713782,-8.60860415559,1.27221437327
4260.0,6358200.60316,2217914.40523,-630829.071121,-652695.962936,6702250.79263,-630576.5843,-4815.33653003,98.6813588032,5974.62211817,0.840911446956,-8.63495428081,0.812413883144,6758661.82018,1.33399191418,-0.4536352353730591,-0.13253891639830265,0.3176655831385311,-2.000075078947732,-0.5863784583283103,-2.9472203548857117,-3.851812898864729E-4,-0.001055424277681615,-2.0488690522867575E-4,385466.50007,3.42077917334E-12,941.873591405,0.840911446881,-8.6349542808,0.812413883061
4320.0,6291749.26655,2467451.25034,-271391.102249,-939879.897643,6692630.92576,-270914.572954,-4753.762726,-419.207553829,6009.47698366,1.21073984271,-8.62135230368,0.34898852796,6758661.84482,1.33836718327,-0.45730811734077803,-0.13022566881276734,0.3316736072446826,-2.0639658014251907,-0.5692855014347509,-2.8730692224095415,-3.937142508332451E-4,-0.001052033775123645,-2.0642564420996265E-4,385630.106665,3.38827070372E-12,940.411870364,1.21073984264,-8.62135230367,0.348988527876
4380.0,6198388.35693,2706296.15834,89304.9875725,-1222706.87903,6651986.15345,90003.3503271,-4670.16174692,-935.083454468,6016.47095867,1.5748692662,-8.56788322877,-0.115925820611,6758661.87121,1.34274245236,-0.46056061942179866,-0.1280256661991155,0.3456531799777338,-2.1258798363182847,-0.5485022770259075,-2.8013790699426897,-4.0225835327430224E-4,-0.0010485632785985982,-2.079010950602421E-4,385891.618924,3.35372539603E-12,939.228918823,1.57486926613,-8.56788322875,-0.115925820696
4440.0,6078455.24918,2933582.10296,449587.17687,-1499866.54311,6580508.88434,450504.136138,-4564.92587309,-1446.56141383,5995.57891573,1.93162691421,-8.47481378948,-0.580188811759,6758661.89887,1.34711772145,-0.4633989794158863,-0.12595150551171508,0.3595808347471011,-2.1855347745012894,-0.5242530660070965,-2.7324151596585513,-4.10809815503525E-4,-0.0010450135254155813,-2.093125135135251E-4,386250.228893,3.31725511338E-12,938.321948255,1.93162691414,-8.47481378945,-0.580188811845
4500.0,5932402.16792,3148492.08881,807785.772303,-1770075.05374,6478534.03429,808917.078428,-4438.54673208,-1951.27792107,5946.90404317,2.27937523628,-8.34259087379,-1.04166519488,6758661.92729,1.35149299054,-0.46583119536415146,-0.12401494186526593,0.3734333735195037,-2.2427395955518805,-0.4967787204239184,-2.6663529852860783,-4.1936486270709926E-4,-0.0010413853599544143,-2.1065919243046667E-4,386702.971327,3.27908701752E-12,937.686367248,2.27937523621,-8.34259087377,-1.04166519497
4560.0,5760794.50998,3350261.86229,1162241.08806,-2032080.99558,6346537.41835,1163581.49855,-4291.61296546,-2446.90162666,5870.67725319,2.61651917395,-8.1718391838,-1.49823433762,6758661.95596,1.35586825962,-0.4678669427855364,-0.12222676379402413,0.3871879339286182,-2.297387047312007,-0.46632752279771933,-2.603285797655357,-4.2791973113659817E-4,-0.0010376797336429419,-2.1194046287348835E-4,387244.763728,3.23951407186E-12,937.313080271,2.61651917388,-8.17183918378,-1.49823433771
4620.0,5564308.67943,3538182.39681,1511311.07276,-2284671.11421,6185133.50272,1512854.37671,-4124.80746718,-2931.14392215,5767.25602158,2.94151319124,-7.96335814452,-1.94779964565,6758661.98435,1.36024352871,-0.46951748176944896,-0.12059667822064127,0.4008220595490164,-2.3494422670393,-0.43314749426759125,-2.5432359047969415,-4.364706722820648E-4,-0.001033897704740612,-2.1315569508067217E-4,387868.48824,3.19888407374E-12,937.188580639,2.94151319118,-7.96335814449,-1.94779964573
4680.0,5343729.44365,3711602.14617,1853378.84995,-2526675.87805,5995072.52797,1855117.89691,-3938.90420719,-3401.76931253,5637.12266612,3.25286807085,-7.71811807973,-2.38829784847,6758662.01197,1.3646187978,-0.47079555505726034,-0.1191332065060998,0.41431377346179243,-2.3989296722739657,-0.39748037040494455,-2.486167718173293,-4.450139570538207E-4,-0.0010300404378672371,-2.1430429939078496E-4,388565.113731,3.15757898587E-12,937.294525598,3.25286807079,-7.7181180797,-2.38829784855
4740.0,5099946.82078,3869929.06107,2186860.13885,-2756974.83751,5777237.01726,2188786.872,-3734.76465477,-3856.60553744,5480.88207271,3.54915745124,-7.4372556746,-2.81770811633,6758662.03832,1.36899406689,-0.4717152783658151,-0.11784359279898324,0.4276416550944289,-2.4459197372644463,-0.3595572304029157,-2.4320009287976223,-4.535458799363496E-4,-0.001026109203341515,-2.1538572708801795E-4,389323.855582,3.11596463096E-12,937.605259638,3.54915745117,-7.43725567457,-2.81770811641
4800.0,4833952.51076,4012632.36444,2510210.52248,-2974501.7581,5532637.68581,2512316.01601,-3513.33381811,-4293.55339948,5299.2588804,3.82902408144,-7.12206874652,-3.23406097452,6758662.06292,1.37336933598,-0.47229202420784444,-0.11673372572709044,0.4407849200905541,-2.4905167595009026,-0.3195956115339864,-2.380622708795783,-4.620627631194919E-4,-0.0010221053762752015,-2.1639947116644065E-4,390132.369946,3.07435366353E-12,938.086180706,3.82902408138,-7.12206874649,-3.23406097461
4860.0,4546835.88406,4139244.08221,2821932.53124,-3178249.50469,5262408.77054,2824207.03158,-3275.63591762,-4710.59625842,5093.09413843,4.09118577119,-6.77401034742,-3.63544698228,6758662.08536,1.37774460506,-0.47254230057587476,-0.11580807429411027,0.453723502841326,-2.5328482413240305,-0.2777978617092688,-2.331898313949867,-4.7056096058600556E-4,-0.0010180304354561018,-2.1734506702289686E-4,390976.97858,3.03418126621E-12,938.781378204,4.09118577113,-6.77401034738,-3.63544698236
4920.0,4239779.54375,4249360.32721,3120582.51053,-3367274.65572,4967802.80106,3123015.48153,-3022.76971183,-5105.80915225,4863.34145049,4.33444101523,-6.39468222258,-4.02002514453,6758662.10525,1.38211987415,-0.4724836258684431,-0.1150696386451051,0.4664381411216842,-2.5730561334511286,-0.23435046099048445,-2.285679841341507,-4.7903686215025804E-4,-0.0010138859620285995,-2.1822209305914317E-4,391842.919778,2.99715558065E-12,939.756429764,4.33444101518,-6.39468222254,-4.02002514461
4980.0,3914054.47876,4342642.3346,3404777.24232,-3540701.82707,4650184.83552,3407357.4139,-2755.90349616,-5477.36750699,4611.06262296,4.55767427166,-5.98582765242,-4.38603102583,6758662.12222,1.38649514324,-0.4721344014234658,-0.11451991616349007,0.47891046211762833,-2.611289926526582,-0.1894240582104637,-2.2418131571920035,-4.874868974340865E-4,-0.0010096736379385696,-2.1903017121068357E-4,392714.620469,2.96475814362E-12,941.0629683,4.55767427161,-5.98582765238,-4.38603102591
5040.0,3571014.82721,4418817.24803,3673200.29143,-3697727.68646,4311026.18713,3675915.71167,-2476.26979592,-5823.5553993,4337.42283601,4.75986087542,-5.54932370532,-4.73178453672,6758662.13601,1.39087041233,-0.4715137830358256,-0.11415888315205723,0.49112306899978503,-2.647701423005544,-0.14317400397400912,-2.2001431649641314,-4.959075397501551E-4,-0.0010053952441915392,-2.197689673778661E-4,393575.984233,2.93836591207E-12,942.74757846,4.75986087537,-5.54932370528,-4.73178453679
5100.0,3212092.27093,4477678.65693,3924608.04848,-3837624.64097,3951897.6692,3927446.13879,-2185.15977571,-6142.77333728,4043.68535814,4.94007156892,-5.08717293104,-5.05569736387,6758662.14637,1.39524568142,-0.47064155277515535,-0.11398499214272512,0.5030596271147477,-2.6824409484630087,-0.09574120335089398,-2.160517657216539,-5.042953099207358E-4,-0.001001052658896174,-2.20438191783675E-4,394410.689707,2.91929606639E-12,944.854863526,4.94007156887,-5.08717293099,-5.05569736394
5160.0,2838790.08329,4519086.88563,4157835.44283,-3959744.18106,3574462.38862,4160783.05604,-1883.91738911,-6433.54552682,3731.20582618,5.09747663294,-4.60149452578,-5.35628001632,6758662.15314,1.3996209505,-0.46953799233951166,-0.11399518467583948,0.5147049487452467,-2.7156547433214153,-0.047253152982093885,-2.1227900140573,-5.126467799760606E-4,-9.966478551157773E-4,-2.2103759923203966E-4,395202.493804,2.90883823623E-12,947.429257111,5.0974766329,-4.60149452574,-5.35628001639
5220.0,2452676.85427,4542969.03633,4371801.30012,-4063519.86651,3180468.11954,4374844.78117,-1573.93329272,-6694.52659294,3401.42611481,5.2313496021,-4.09451500146,-5.63214846106,6758662.1562,1.40399621959,-0.4682237591143086,-0.11418491918337886,0.5260450753797338,-2.747483289882748,0.002174936343811271,-2.0868209983546784,-5.209585767479548E-4,-9.921828985295495E-4,-2.2156698929109409E-4,395935.534132,2.90828347507E-12,950.516232662,5.23134960207,-4.09451500142,-5.63214846113
5280.0,2055379.91792,4549318.78818,4565513.32064,-4148469.94064,2771739.2909,4568638.56957,-1256.63855024,-6924.50772708,3055.86782082,5.34107055007,-3.56855839305,-5.88203032253,6758662.15552,1.40837148868,-0.46671976594880293,-0.11454821343152234,0.5370673563604089,-2.778060360844842,0.05243900073589147,-2.052479867948193,-5.292273853552594E-4,-9.876599449088412E-4,-2.2202620636997146E-4,396594.62511,2.91895013772E-12,954.162907139,5.34107055004,-3.56855839301,-5.88203032259
5340.0,1648578.50878,4538195.95612,4738072.65603,-4214199.56123,2350168.62291,4741265.19313,-933.498152601,-7122.42223404,2696.12538917,5.42612893099,-3.02603603956,-6.10477062121,6758662.15112,1.41274675777,-0.4650470655926079,-0.11507770079215895,0.5477605228363115,-2.8075126125698526,0.10344501368406549,-2.019644990528113,-5.374499525321739E-4,-9.83081237418875E-4,-2.2241513971705875E-4,397165.542506,2.94220272991E-12,958.417742045,5.42612893096,-3.02603603952,-6.10477062127
5400.0,1233996.67482,4509725.81311,4888678.06392,-4260402.63778,1917708.44948,4891923.09652,-606.004381292,-7287.35045377,2323.85890908,5.48612596469,-2.46943597557,-6.2993370281,6758662.14308,1.41712202686,-0.4632267405025865,-0.11576469945758444,0.5581147559393718,-2.835959583112034,0.15510793439577564,-1.988204112625602,-5.456230898396623E-4,-9.784491037581505E-4,-2.2273372334145701E-4,397635.291369,2.97945668038E-12,963.328847881,5.48612596466,-2.46943597552,-6.29933702815
5460.0,813395.975962,4464098.18083,5016629.62142,-4286863.26653,1476361.76454,5019912.11224,-275.670042509,-7418.52403598,1940.78661003,5.52077655431,-1.90131197171,-6.4648246125,6758662.13157,1.42149729594,-0.4612797986327315,-0.11659929357125877,0.5681217481519323,-2.8635139889411674,0.20735072981749675,-1.9580544039440826,-5.537436767093071E-4,-9.73765953137279E-4,-2.2298193581924962E-4,397992.352714,3.03215968591E-12,968.940321175,5.52077655429,-1.90131197167,-6.46482461255
5520.0,388567.997866,4401566.29402,5121331.98044,-4293456.75634,1028173.03186,5124636.71702,55.9783994494,-7515.32954766,1548.67708851,5.5299107264,-1.3242722642,-6.60046006223,6758662.11679,1.42587256503,-0.45922707565209475,-0.11757042512392915,0.5777747569756226,-2.8902822444049017,0.2601034773913363,-1.9291023736706967,-5.618086633423015E-4,-9.690342731042305E-4,-2.2315980003693902E-4,398226.904727,3.10174022463E-12,975.286219983,5.52991072638,-1.32427226416,-6.60046006227
5580.0,-38673.2880607,4322445.44462,5202297.14968,-4280150.24038,575218.798854,5205608.8147,387.40776065,-7577.31139606,1149.34129799,5.51347458464,-0.740968014754,-6.70560535623,6758662.09901,1.43024783412,-0.4570891438036934,-0.11866599536773162,0.5870686499992511,-2.9163651530362222,0.3133025496686239,-1.9012637374647645,-5.698150734321626E-4,-9.642566262421698E-4,-2.2326738283889028E-4,398331.014731,3.18951842727E-12,982.382380138,5.51347458463,-0.740968014706,-6.70560535626
5640.0,-466499.286845,4227111.41242,5259146.79009,-4247002.86997,119598.155951,5262450.03215,717.085118442,-7604.17405219,744.624335336,5.47153076997,-0.154081544045,-6.77976087134,6758662.07856,1.43462310321,-0.45488622754925656,-0.11987297442374062,0.5959999406850366,-2.941858742902933,0.3668898780354359,-1.8744633007127105,-5.777600067216392E-4,-9.594356467363944E-4,-2.2330479459797999E-4,398298.798668,3.29658565475E-12,990.217331812,5.47153076997,-0.154081543998,-6.77976087138
5700.0,-893074.631917,4115998.68946,5291614.0125,-4194165.58908,-336576.916196,5294893.51715,1043.48480502,-7595.78356278,336.397058311,5.40425842104,0.433685616769,-6.82256790614,6758662.05579,1.4389983723,-0.4526381259177814,-0.12117751770258603,0.6045668142308955,-2.9668552385291593,0.4208122904461889,-1.848634917896798,-5.856406413693779E-4,-9.545740368103718E-4,-2.2327218869199746E-4,398126.545396,3.4236753681E-12,998.744781784,5.40425842104,0.433685616817,-6.82256790617
5760.0,-1316565.09389,3989598.50615,5299544.66857,-4121880.48964,-791191.268589,5302785.22915,1365.0953835,-7552.16834088,-73.4524305577,5.31195263077,1.01962481046,-6.83381060655,6758662.03112,1.44337364138,-0.4503641413624225,-0.1225650877305293,0.6127691430392976,-2.9914441826359117,0.47502091658750567,-1.823721588343893,-5.934542361472931E-4,-9.496745630867286E-4,-2.2316976091546882E-4,397812.803682,3.57106172542E-12,1007.88072551,5.31195263078,1.01962481051,-6.83381060657
5820.0,-1735145.51268,3848456.66744,5282898.12787,-4030479.74946,-1242136.3314,5286084.71595,1680.42657622,-7473.51922858,-483.027397312,5.19502339633,1.6010324265,-6.81341727965,6758662.00498,1.44774891047,-0.4480830148150446,-0.12402057996326801,0.6206084914174349,-3.0157137440559203,0.5294706531896174,-1.7996757558286829,-6.011981324284964E-4,-9.447400528138481E-4,-2.2299774880246928E-4,397358.430351,3.73852235801E-12,1017.50742038,5.19502339634,1.60103242655,-6.81341727967
5880.0,-2147007.71907,3693171.20821,5241747.53658,-3920384.15675,-1687319.84329,5244865.37158,1988.01611482,-7360.18882793,-890.431150084,5.05399406137,2.17522211337,-6.76146108399,6758661.97784,1.45212417956,-0.4458128665300335,-0.12552845117968583,0.6280881093306906,-3.039752276783894,0.5841196815999048,-1.7764598975175783,-6.088697560024393E-4,-9.397733900488355E-4,-2.2275643089358487E-4,396766.598685,3.92538145846E-12,1027.48410395,5.05399406138,2.17522211341,-6.761461084
5940.0,-2550368.41177,3524389.87712,5176279.55516,-3792101.2267,-2124675.51864,5179314.17292,2286.43648158,-7212.69009912,-1293.77573509,4.88949925177,2.73953698009,-6.67816008667,6758661.95017,1.45649944865,-0.4435711421902735,-0.1270728490811019,0.6352129150784995,-3.0636502340267544,0.6389290294382209,-1.7540475187714826,-6.164666186683991E-4,-9.347775117322723E-4,-2.2244612590164494E-4,396042.766749,4.13061639259E-12,1037.6616193,4.88949925179,2.73953698013,-6.67816008668
6000.0,-2943476.95558,3342807.45909,5086793.57495,-3646222.91757,-2552172.60871,5089730.89481,2574.30151187,-7031.6942283,-1691.19061685,4.7022823075,3.29136173571,-6.56387667981,6758661.92248,1.46087471774,-0.4413745637621667,-0.1286377417728843,0.6419894669536922,-3.0875025991680287,0.6938621674869204,-1.7324247219960738,-6.239863196509405E-4,-9.297554037367906E-4,-2.2206719184778424E-4,395194.605985,4.35298504631E-12,1047.89669403,4.70228230753,3.29136173575,-6.56387667981
6060.0,-3324623.06677,3149162.94675,4973700.41562,-3483422.9556,-2967825.31304,4976526.80585,2850.27282743,-6818.02777005,-2080.83130403,4.49319221565,3.82813471417,-6.41911635113,6758661.89525,1.46524998683,-0.4392390845115167,-0.1302070458656835,0.6484259240581075,-3.1114120846945714,0.7488846318637282,-1.7115926034012396,-6.31426546798957E-4,-9.247100968318728E-4,-2.2162002509802127E-4,394231.891017,4.59112770587E-12,1058.06231656,4.49319221568,3.82813471421,-6.41911635113
6120.0,-3692144.35142,2944236.57168,4837520.50801,-3304453.77976,-3369701.99794,4840222.84917,3113.06607091,-6572.66907326,-2460.88788215,4.26318005184,4.34735973118,-6.24452580626,6758661.86897,1.46962525591,-0.43717984759908307,-0.13176475201626692,0.6545319965432568,-3.1354934944724935,0.803963659520197,-1.6915708732101344,-6.387850775805084E-4,-9.196446626486494E-4,-2.2110505936667518E-4,393166.352239,4.84361532138E-12,1068.05275193,4.26318005187,4.34735973122,-6.24452580624
6180.0,-4044433.6634,2728846.70669,4678881.56904,-3110143.11901,-3755934.17925,4681447.31507,3361.45691228,-6296.7440019,-2829.59341401,4.0132949393,4.84661771914,-6.04089044262,6758661.8441,1.474000525,-0.4352111477234798,-0.13329504681834706,0.6603188856722246,3.1233054199592467,0.8590678212321274,-1.6724033349353604,-6.460597798891633E-4,-9.145622095853569E-4,-2.2052276465171484E-4,392011.4934,5.10894109874E-12,1077.78381209,4.01329493934,4.84661771918,-6.0408904426
6240.00000001,-4379946.24849,2503846.65083,4498515.77792,-2901390.2169,-4124725.22755,4500933.01452,3594.28679876,-5991.52096576,-3185.23216938,3.74467953753,5.32357808543,-5.80913117804,6758661.82109,1.47837579409,-0.43334639529131147,-0.13478243005449872,0.6657992142054686,3.0984537082956525,0.9141666292565331,-1.6541662789867384,-6.532486126286839E-4,-9.094658787197767E-4,-2.1987364611076703E-4,390782.376954,5.38547054531E-12,1087.19009003,3.74467953758,5.32357808547,-5.80913117802
6300.00000001,-4697206.64245,2270121.30884,4297256.46478,-2679161.71942,-4474358.75501,4299513.96503,3810.46842009,-5658.40527936,-3526.14764501,3.45856507464,5.77600973942,-5.55030063976,6758661.80034,1.48275106318,-0.43159808267821353,-0.13621182643074142,0.6709869477126483,3.0729353653666385,0.9692300836228298,-1.6369816046081451,-6.603496261057255E-4,-9.043588397112021E-4,-2.1915824291094424E-4,389495.380586,5.67137158656E-12,1096.22092946,3.45856507469,5.77600973945,-5.55030063973
6360.00000001,-4994815.29094,2028583.77756,4076034.32576,-2444487.24423,-4803206.64412,4078121.60248,4008.9908627,-5298.9328705,-3850.75033707,3.15626594012,6.20179173333,-5.26557872305,6758661.78224,1.48712633227,-0.4299777522422029,-0.13756869102584215,0.6758973074632433,3.0464864763406325,1.0242280957814827,-1.621037916441874,-6.67360962220077E-4,-8.992442867076411E-4,-2.1837712700711437E-4,388167.928825,5.96454419981E-12,1104.8363946,3.15626594017,6.20179173336,-5.26557872302
6420.00000001,-5271454.86079,1780171.85152,3835873.18023,-2198454.65061,-5109736.68001,3837780.53506,4188.92442651,-4914.76336339,-4157.52522853,2.83917385728,6.59892346285,-4.95626753159,6758661.7671,1.49150160135,-0.42849596580834154,-0.13883910781305736,0.6805466756778632,3.0187448809298036,1.0791296776873849,-1.6066256820030103,-6.742808544576803E-4,-8.941254342757089E-4,-2.1753090190795274E-4,386818.204187,6.26256337508E-12,1113.0038972,2.83917385733,6.59892346287,-4.95626753155
6480.00000001,-5525896.21272,1525844.4606,3577885.28862,-1942205.03111,-5392519.74977,3579603.85736,4349.4250802,-4507.67256419,-4445.03895478,2.50875165724,6.96553437358,-4.62378571525,6758661.75521,1.49587687044,-0.42716227546588703,-0.14000988072844606,0.6849524939588129,2.989188454376373,1.1339016772773973,-1.5941985050093292,-6.811076276881708E-4,-8.890055133549537E-4,-2.1662020138788938E-4,385464.842745,6.56264373006E-12,1120.69567945,2.50875165731,6.9655343736,-4.62378571521
6540.00000001,-5757004.00708,1266578.05258,3303266.25092,-1676927.44734,-5650236.57365,3304788.04515,4489.73853141,-4079.54438039,-4711.94661183,2.16652667871,7.29989312097,-4.26966222432,6758661.74677,1.50025213953,-0.42598519566047827,-0.1410686168804893,0.6891331557673377,2.957021806070642,1.1885065989782297,-1.5844860174835607,-6.878396977704344E-4,-8.838877672505824E-4,-2.156456881763665E-4,384126.619407,6.86163012026E-12,1127.88709076,2.16652667878,7.299893121,-4.26966222426
6600.00000001,-5963741.9156,1003362.93361,3013289.50862,-1403853.43365,-5881683.93536,3014607.45314,4609.2038905,-3632.36220823,-4956.99817294,1.81408382049,7.60041613249,-3.89552950252,6758661.74194,1.50462740862,-0.4249721765988082,-0.1420038016210646,0.6931078939074828,2.920952917147887,1.2428984507705318,-1.578716865809404,-6.944755709766483E-4,-8.787754476733067E-4,-2.1460805262091644E-4,382822.128491,7.15601600612E-12,1134.55548904,1.81408382055,7.60041613251,-3.89552950246
6660.00000001,-6145177.41361,737199.579851,2709300.47427,-1124251.29365,-6085780.38052,2710408.44044,4707.25690764,-3168.19982558,-5179.04448051,1.45305827615,7.86567552269,-3.50311614504,6758661.74082,1.50900267771,-0.42412957917522354,-0.14280486530795483,0.6968966639311185,2.878711419055565,1.2970139233716516,-1.5791000854703738,-7.010138432278263E-4,-8.736718108420244E-4,-2.1350801132405953E-4,381569.465397,7.44198957128E-12,1140.67957811,1.45305827622,7.86567552271,-3.50311614498
6720.00000001,-6300486.12897,469094.933345,2392710.31533,-839420.215801,-6261571.35492,2393603.14994,4783.43276534,-2689.21183047,-5377.04278225,1.08512798267,8.09440631428,-3.09423905077,6758661.74342,1.51337794679,-0.42346265164365415,-0.1434622417026926,0.7005200245026,2.8258801543319767,1.350751060217778,-1.5899932207170544,-7.074531991583231E-4,-8.685801136318767E-4,-2.1234630577496576E-4,380385.915295,7.71550604652E-12,1146.23901221,1.08512798275,8.09440631429,-3.0942390507
6780.00000001,-6428955.72565,200058.695496,2064989.42032,-550684.235183,-6408233.75647,2065662.96999,4837.36841015,-2197.62366837,-5550.06178199,0.712005817,8.28551292048,-2.67079510174,6758661.7497,1.51775321588,-0.4229755084240802,-0.14396741805749533,0.7039990156690347,2.752565976539162,1.4039080648241047,-1.6212312293140285,-7.137924110092949E-4,-8.635036098200455E-4,-2.1112370095319167E-4,379287.654729,7.97238292681E-12,1151.21412099,0.712005817074,8.28551292049,-2.67079510167
6840.00000001,-6529989.30221,-68900.3687593,1727660.57737,-259386.069527,-6525079.87762,1728111.70822,4868.80440941,-1695.72129365,-5697.28617811,0.335431576983,8.43807484752,-2.23475240609,6758661.75956,1.52212848497,-0.42267111144496217,-0.14431297703231438,0.7073550360711324,2.6314114511798383,1.4559581557914345,-1.7001145088157592,-7.200303373598457E-4,-8.584455463926368E-4,-2.098409839376527E-4,378289.471904,8.20841183065E-12,1155.58558444,0.335431577059,8.43807484753,-2.23475240602
6900.00000001,-6603108.28708,-336778.10291,1382291.89647,33119.1415843,-6611560.71763,1382518.50915,4877.58632142,-1185.84051331,-5818.02066432,-0.0428362151727,8.55135157925,-1.78814114388,6758661.77281,1.52650375406,-0.42255125451556247,-0.14449263067953724,0.7106097200214122,2.3560107413527356,1.5048086346938276,-1.9329927584406448,-7.261659216976018E-4,-8.534091599440657E-4,-2.0849896249988795E-4,377404.511164,8.41949190049E-12,1159.33447147,-0.0428362150954,8.55135157925,-1.7881411438
6960.00000001,-6647954.81515,-602578.593974,1030489.50857,325470.1649,-6667268.64727,1030490.54835,4863.66556949,-670.35606301,-5911.69337039,-0.421028646807,8.62478660969,-1.33304405841,6758661.78921,1.53087902315,-0.42261655125524894,-0.14450124680509124,0.7137848154341286,1.3965646865390788,1.5351877881234894,-2.849609666899121,-7.321981908391899E-4,-8.483976731689458E-4,-2.0709846370605133E-4,376644.046769,8.60179087595E-12,1162.44313284,-0.421028646728,8.62478660969,-1.33304405833
7020.00000001,-6664293.57236,-865317.757922,673890.075458,616306.039055,-6691939.41128,673665.537529,4827.09981283,-151.670467422,-5977.85872284,-0.797374844385,8.65801059376,-0.871586638551,6758661.80846,1.53525429223,-0.42286642712432115,-0.14433486808171905,0.7169020634830747,0.35080204743546056,1.5088644305216325,2.4310038550605078,-7.381262532163227E-4,-8.434142914552053E-4,-2.0564033252588429E-4,376017.290562,8.75190361147E-12,1164.89594357,-0.797374844306,8.65801059376,-0.871586638468
7080.00000001,-6652013.09742,-1124026.86282,314153.145996,904272.447172,-6685453.45731,313704.075801,4768.0528099,367.79726128,-6016.19970851,-1.17011045574,8.65084359086,-0.40592704006,6758661.83022,1.53962956132,-0.42329911610963006,-0.14399072434150695,0.7199830808302546,0.04859613929214889,1.4614599516458397,2.172405277854364,-7.439492970187692E-4,-8.384621995731982E-4,-2.0412543043470704E-4,375531.237459,8.86699655018E-12,1166.67982799,-1.17011045566,8.65084359085,-0.405927039974
7140.00000001,-6611126.53236,-1377755.97736,-47046.6052633,1188028.06598,-6647836.58335,-47718.1165992,4686.79377232,885.623031865,-6026.52952679,-1.53748614085,8.60329638072,0.06175420342,6758661.85407,1.54400483041,-0.42391166259906193,-0.14346723851384402,0.7230492452055886,-0.08049849785719193,1.4110713221440665,2.087389147968431,-7.496665882151514E-4,-8.335445584852423E-4,-2.025546340450803E-4,375190.551964,8.94493057771E-12,1167.78466006,-1.53748614077,8.60329638071,0.0617542035076
7200.00000001,-6541771.81604,-1625577.33277,-408027.21995,1466250.86089,-6579259.89877,-408918.045092,4583.69621023,1399.3891332,-6008.79261957,-1.89777602631,8.51557083661,0.52926462718,6758661.87957,1.5483800995,-0.42469992896848424,-0.14276402670204208,0.7261215850410175,-0.15814420019909328,1.3601167342894167,2.0543479233426667,-7.552774684515674E-4,-8.286645022546406E-4,-2.0092883374893926E-4,374997.498066,8.98435475302E-12,1168.20358297,-1.89777602623,8.51557083659,0.529264627269
7260.00000001,-6444211.31783,-1866588.5864,-767107.340719,1737644.29667,-6480039.0978,-768213.330464,4459.23627258,1906.69568726,-5963.06507097,-2.24928607799,8.38805934571,0.994410385643,6758661.90626,1.55275536859,-0.4256586093087606,-0.14188189289865327,0.7292206737506747,-0.2145115731097382,1.3091801315849603,2.043166035523971,-7.607813528489861E-4,-8.23825135078622E-4,-1.9924893236496343E-4,374951.913953,8.98476501985E-12,1167.93327682,-2.24928607792,8.38805934569,0.994410385733
