time,gePosition_m_X,gePosition_m_Y,gePosition_m_Z,eiPosition_m_X,eiPosition_m_Y,eiPosition_m_Z,eiVelocity_m_s_X,eiVelocity_m_s_Y,eiVelocity_m_s_Z,eiAccel_m_s2_X,eiAccel_m_s2_Y,eiAccel_m_s2_Z,semiMajorAxis_m,gast_rad,eulerAngle_rad_Roll,eulerAngle_rad_Pitch,eulerAngle_rad_Yaw,eulerAngleWrtEi_rad_Roll,eulerAngleWrtEi_rad_Pitch,eulerAngleWrtEi_rad_Yaw,bodyAngularRateWrtEi_rad_s_Roll,bodyAngularRateWrtEi_rad_s_Pitch,bodyAngularRateWrtEi_rad_s_Yaw,altitudeMsl_m,airDensity_kg_m3,ambientTemperature_dgK,eiGravitation_m_s2_X,eiGravitation_m_s2_Y,eiGravitation_m_s2_Z
0.0,-1428622.3120664244,4163200.465251461,5136049.672040268,-4292653.410000001,955168.4699999995,5139356.569999999,109.64966299999837,-7527.726490000003,1484.521489,5.528985889000605,-1.2302678486373773,-6.619550558962002,6758662.11722885,1.0233194459853856,1.1333718620180008E-16,-0.20245819323134245,-1.0625361206418758E-16,-2.4715939053549034,-0.03718896447613391,-1.4289931348885438,-2.541098841762901E-21,-0.0011344542745508244,6.640738306473715E-19,398252.76383814117,3.1125051777514152E-12,976.2183377126014,5.528985889000605,-1.2302678486373773,-6.619550558962002
60.0,-1789712.6502305893,3920255.31410847,5213136.60277765,-4276130.764833001,501640.1507239459,5216447.9465093445,440.89946350769645,-7584.0430424481965,1084.1893564704544,5.508416008466334,-0.6462016353003585,-6.719713088122588,6758662.09731906,1.027694715234372,-2.3650622484725854E-6,-0.20245604264890918,-1.006078451598359E-4,-2.4720592963923615,0.01612042366582495,-1.386661179676411,-7.049068602884885E-7,-0.001134477987848552,-3.302852372536554E-6,398335.1613190008,3.202793358151162E-12,983.397071364577,5.508416008466334,-0.6462016353003585,-6.719713088122588
120.0,-2144732.036347836,3662345.316519358,5266057.236022164,-4239785.4697591225,45786.44967776277,5269357.675246073,770.1497746091638,-7605.207750885237,678.7771609655232,5.462359540981598,-0.05898922940898675,-6.78881820190014,6758662.074719539,1.0320699844833425,-2.5120015675302477E-5,-0.20244904694044444,-4.002719994956937E-4,-2.4703079486899955,0.06928029515576355,-1.3441021824371808,-1.5682193694862947E-6,-0.001134495908219746,-6.615080444255327E-6,398280.4824443074,3.312437829199636E-12,991.3056588662866,5.462359540981598,-0.05898922940898675,-6.78881820190014
180.0,-2492166.1284609213,3390599.0123572224,5294562.845691343,-4183783.268667925,-410279.47971076897,5297837.078540966,1095.876758372309,-7591.112892800247,270.1591301774134,5.391014433408126,0.5286658629594921,-6.826530191335646,6758662.0498699015,1.0364452537322815,-9.179920628334995E-5,-0.202436413930469,-8.945557430244907E-4,-2.4663158457456267,0.12219457297363527,-1.3010762842737915,-2.5897433370929423E-6,-0.0011345075693188359,-9.935939052550294E-6,398085.3767451572,3.4421151023077506E-12,999.8931986260723,5.391014433408126,0.5286658629594921,-6.826530191335646
240.0,-2830524.9415612817,3106195.86952564,5298517.6071911175,-4108380.909800029,-864442.8918922803,5301750.451032238,1416.5719326335532,-7541.813171633606,-139.77465110455876,5.294694451438632,1.114054974050724,-6.8326564491694235,6758662.023213206,1.0408205229812044,-2.2590571735527242E-4,-0.20241740244408551,-0.0015774140557798422,-2.4600313118618438,0.17476349162083676,-1.257339171451772,-3.769247684377168E-6,-0.0011345124437284078,-1.326467640190879E-5,397748.76411363855,3.5920374213091458E-12,1009.0715704542052,5.294694451438632,1.114054974050724,-6.8326564491694235
300.0,-3158349.2832938344,2810361.153481157,5277899.290945926,-4013925.0165300644,-1314597.1967442196,5281075.752688318,1730.7490887004526,-7457.525661302241,-549.1268666023567,5.1738280474173015,1.6944764569618356,-6.807148683535567,6758661.995223979,1.0451957922300796,-4.507976334606913E-4,-0.20239134494775576,-0.0024412221049799777,-2.451374639570682,0.2268815292002877,-1.2126385786794334,-5.106463907630985E-6,-0.0011345099435635,-1.660053348917089E-5,397271.8765715095,3.761927433293315E-12,1018.7204244333459,5.1738280474173015,1.6944764569618356,-6.807148683535567
360.0,-3474217.104538191,2504360.6380314245,5232799.43690157,-3900850.5454306365,-1758653.6818347252,5235904.782480958,2036.9511258951156,-7338.6290185614125,-956.0016482783257,5.028956720597494,2.267247899630113,-6.7501035064295865,6758661.966399423,1.049571061478955,-7.895745156175309E-4,-0.20235766770600616,-0.0034768113511658536,-2.440237430158893,0.278435208533253,-1.1667109306417667,-6.601085475735118E-6,-0.001134499421152991,-1.9942743537003316E-5,396658.26018679864,3.951072021537178E-12,1028.6985975480675,5.028956720597494,2.267247899630113,-6.7501035064295865
420.0,-3776749.7372502843,2189495.179587381,5163423.007885963,-3769678.837518477,-2194551.165446794,5166442.830596701,2333.7567725117106,-7185.6619628405,-1358.5132723769068,4.860732871056918,2.8297183198713203,-6.661762387620377,6758661.937251983,1.0539463307277828,-0.0012649645775691808,-0.2023159076981125,-0.004673513099887009,-2.4264817776228673,0.32930071575534214,-1.1192781943571282,-8.252767163891883E-6,-0.0011344801697988547,-2.329053143748681E-5,395913.73693876824,4.158433660854094E-12,1038.8588078534376,4.860732871056918,2.8297183198713203,-6.661762387620377
480.0,-4064617.992059384,1867095.1775231052,5070087.52198781,-3621015.270409305,-2620265.5364760286,5073007.809351175,2619.787162894028,-6999.321026231935,-1754.7948334808457,4.669917150491213,3.379280289879686,-6.542510966900522,6758661.908299666,1.0583215999766105,-0.0018992130702323688,-0.20226572561821593,-0.006019209288032653,-2.4099394927543343,0.3793412918773781,-1.0700450871338973,-1.0061124325700758E-5,-0.0011344514246144544,-2.6643113207726744E-5,395046.32695414795,4.3827746818636444E-12,1049.0613777169772,4.669917150491213,3.379280289879686,-6.542510966900522
540.0,-4336548.088348127,1538514.943678448,4953221.666427968,-3455546.5209156033,-3033819.1375695085,4956028.865286623,2893.7122405941304,-6780.457579439218,-2143.0068579284143,4.457375315188165,3.9133819375617054,-6.39287771995039,6758661.880056981,1.0626968692254064,-0.0027139723964177105,-0.2022069143665497,-0.007500390247664579,-2.390411662844495,0.428404365851138,-1.018696889845236,-1.2025732105981924E-5,-0.0011344123634425183,-2.9999695459422932E-5,394066.1321690503,4.622750299917971E-12,1059.1837201671183,4.457375315188165,3.9133819375617054,-6.39287771995039
600.0,-4591327.38989209,1205127.0043523312,4813363.397717499,-3274037.4494156395,-3433289.94831705,4816044.477253935,3154.2569579570363,-6530.074142676356,-2521.345817729774,4.22407458868955,4.429538771210673,-6.213531975638746,6758661.853026876,1.0670721384741706,-0.0037301944902931893,-0.20213940254853272,-0.009102219158364752,-2.3676689847490815,0.4763184212478097,-0.9648982634153678,-1.414612459698505E-5,-0.0011343621078542846,-3.335947488433026E-5,392985.1830928913,4.87694634001696E-12,1069.124492118225,4.22407458868955,4.429538771210673,-6.213531975638746
660.0,-4827809.919612155,868316.358348945,4651157.535232814,-3077327.6190840607,-3816820.5259425864,4653700.047618097,3400.2072429945565,-6249.319993738274,-2888.0525060705145,3.9710795439300353,4.925345273359867,-6.005281285289473,6758661.827691365,1.0714474077229348,-0.00496802600290461,-0.20206325261733757,-0.010808602871866633,-2.3414535056237398,0.5228896292523043,-0.9082936684165336,-1.6421793940852895E-5,-0.0011342997242302917,-3.672163775756346E-5,391817.25096842967,5.143862123257471E-12,1078.8032635515128,3.9710795439300353,4.925345273359867,-6.005281285289473
720.0,-5044921.627591932,529474.7147825969,4467352.857666975,-2866327.464805647,-4182626.6617732486,4469744.996056111,3630.415705069856,-5939.48608872976,-3241.420235607802,3.699547517021644,5.3984862092137655,-5.76906814730611,6758661.804503238,1.075822676973096,-0.006446706839363522,-0.2019786534223523,-0.012602268762567738,-2.311482662738315,0.5678983472287795,-0.8485102496251709,-1.8852189381439027E-5,-0.0011342242249244607,-4.0085359460701E-5,390577.62822155573,5.4218552699387304E-12,1088.157464741772,3.699547517021644,5.3984862092137655,-5.76906814730611
780.0,-5241665.387249059,189994.73433785958,4262798.71413546,-2642014.128277238,-4529005.712793979,4265029.367736972,3843.8070517174992,-5601.999314220192,-3579.802821056951,3.4107235672941116,5.8467475948785115,-5.5059660935515256,6758661.783878257,1.0801979462217968,-0.008184472588045895,-0.20188590706729817,-0.014464847244141273,-2.2774568236568653,0.6110956857903639,-0.785164361492129,-2.143671626881366E-5,-0.0011341345695120662,-4.3449804026641554E-5,389282.8806728533,5.709069986150161E-12,1097.1383148449263,3.4107235672941116,5.8467475948785115,-5.5059660935515256
840.0,-5417125.695386979,-148735.70221743145,4038441.1640099795,-2405426.977437586,-4854344.568816149,4040499.9699699166,4039.3831898754856,-5238.416092878272,-3901.6223080437185,3.105935000709779,6.268027270718239,-5.21717514702355,6758661.766187447,1.0845732154704657,-0.01019846137472742,-0.20178541012110657,-0.016376959574077476,-2.239071852012533,0.6522004999653718,-0.7178732380708669,-2.417473502001461E-5,-0.0011340296661230072,-4.681412370818589E-5,387950.57552601886,6.003367425627459E-12,1105.7068921394573,3.105935000709779,6.268027270718239,-5.21717514702355
900.0,-5570473.05287826,-485339.17486145365,3795318.6618147874,-2157662.8299343497,-5157127.21721461,3797196.0536692836,4216.227985907947,-4850.415367909323,-4205.376410867569,2.786585476308995,6.66034502558769,-4.904016663619164,6758661.751750572,1.0889484847191346,-0.012504625653884178,-0.201677629373497,-0.01831831056201165,-2.1960384656091896,0.6908973697255794,-0.6462735555571122,-2.7065560039844733E-5,-0.0011339083728610687,-5.017745857229368E-5,386598.9896506063,6.302271013105306E-12,1113.8309171608837,2.786585476308995,6.66034502558769,-4.904016663619164
960.0,-5700968.003808239,-818454.3310772645,3534557.3057353366,-1899870.9018382963,-5435941.8688000655,3536244.5582009805,4373.511660055085,-4439.79099485214,-4489.645622689041,2.4541487179069916,7.02185221845184,-4.567927574138322,6758661.740829856,1.0933237539677718,-0.01511764942408555,-0.20156307246966024,-0.020267785791211412,-2.1481101246443552,0.7268363965059521,-0.570048609286927,-3.010845860572329E-5,-0.001133769499310478,-5.3538936121975884E-5,385246.8031194126,6.6029343905647475E-12,1121.4823952725312,2.4541487179069916,7.02185221845184,-4.567927574138322
1020.0,-5807964.812179653,-1146741.3956097458,3257365.670445881,-1633247.5042355184,-5689487.610206582,3258854.9403334283,4510.494792355103,-4008.4435724695913,-4753.099962724408,2.1101618558173456,7.350840845022243,-4.210454046097489,6758661.733625277,1.0976990232163775,-0.0180508713247682,-0.20144225390077627,-0.022203552959739813,-2.09512058408835,0.7596359203570676,-0.48896522548725607,-3.330264972084668E-5,-0.0011336118081304552,-5.689767094776573E-5,383912.78333944676,6.902135943185094E-12,1128.6360335881152,2.1101618558173456,7.350840845022243,-4.210454046097489
1080.0,-5890914.756637074,-1468887.5606756853,2965029.2470489913,-1359030.5116590478,-5916580.550167732,2966313.610103414,4626.531918647197,-3558.3717475666012,-4994.505326311943,1.7562184259099616,7.645751998543901,-3.8332445884027715,6758661.730270729,1.1020742924649671,-0.021316214022029715,-0.20131565696284381,-0.024103166947325703,-2.037030670305896,0.7888894703336407,-0.40291995598099883,-3.664730294011757E-5,-0.0011334340167386992,-6.025276441070258E-5,382615.46540575987,7.196301458489056E-12,1135.2682571635826,1.7562184259099616,7.645751998543901,-3.8332445884027715
1140.0,-5949369.025166342,-1783612.2346189225,2658904.5149241327,-1078493.6275542479,-6116159.429238396,2659977.9984124107,4721.074696975966,-3091.663031566339,-5212.7294051981635,1.393961055782886,7.905183675756547,-3.4380426254161955,6758661.730830795,1.1064495617135248,-0.024924120254190614,-0.20118369241903966,-0.02594367821344067,-1.9739809588076325,0.8141782427666634,-0.31199122237698246,-4.014153717352721E-5,-0.0011332347990845191,-6.360330435874117E-5,381372.83450806374,7.481554759929208E-12,1141.356638488691,1.393961055782886,7.905183675756547,-3.4380426254161955
1200.0,-5982981.193333537,-2089672.1276291865,2340412.672189611,-792940.4730984733,-6287290.664874739,2341270.2830771413,4793.674626578515,-2610.4841695464984,-5406.747147091768,1.0250738702228603,8.127897881353045,-3.026678570425042,6758661.735299342,1.110824830962067,-0.02888349584698064,-0.20104665471168973,-0.027701744127139456,-1.9063428938437597,0.8350899448856627,-0.21648994137975475,-4.3784419471897355E-5,-0.0011330127875123163,-6.6948364878482E-5,380202.01630866696,7.753794581202794E-12,1146.8795751929529,1.0250738702228603,8.127897881353045,-3.026678570425042
1260.0,-5991509.271348718,-2385866.153870597,2011033.0532838334,-503698.526704581,-6429172.80630876,2011670.8018606277,4843.985303633636,-2117.071105160081,-5575.645725435344,0.6512746504111442,8.312826986963051,-2.601061431951097,6758661.743598906,1.115200100210593,-0.033201659955348004,-0.20090467667142614,-0.029353742829261505,-1.8347564423277372,0.8512437524473696,-0.11699671566363395,-4.7574963800073817E-5,-0.001132766574715915,-7.028700608407667E-5,379118.9811816189,8.008794066801969E-12,1151.8160706726171,0.6512746504111442,8.312826986963051,-2.601061431951097
1320.0,-5974817.307069705,-2671040.130183421,1672296.2638502978,-212112.9424243424,-6541140.376338068,1672711.1826892202,4871.764200085433,-1613.7185874113031,-5718.628992451839,0.27430678347519927,8.459079303802277,-2.1631699896730225,6758661.755581136,1.1195753694590873,-0.037884302728650406,-0.2007576837477689,-0.030875889214247033,-1.760139752981449,0.8623194042315315,-0.014371054008784676,-5.151212980288934E-5,-0.0011324947157839095,-7.361827394514277E-5,378138.2680489244,8.242316318929159E-12,1156.1454487745236,0.27430678347519927,8.459079303802277,-2.1631699896730225
1380.0,-5932876.533986576,-2944091.252436563,1325777.0646595492,80459.72377808896,-6622667.07998074,1325967.2228106859,4876.873954110609,-1102.7694676056192,-5835.021390827297,-0.10406895903689115,8.565943831641212,-1.7150435799544292,6758661.771030541,1.123950638707566,-0.04293545053552784,-0.2006053488448835,-0.032244352608998904,-1.6836583329895896,0.8680864723402063,0.09027987352938614,-5.5594821569395363E-5,-0.0011321957303366327,-7.694120015547216E-5,377272.7332642151,8.450253740934475E-12,1159.8475532437867,-0.10406895903689115,8.565943831641212,-1.7150435799544292
1440.0,-5865766.055241129,-3203972.331611855,973087.0377049982,372657.8502974784,-6673368.362907501,973051.5500526013,4859.283163166127,-586.6037369182541,-5924.27130188156,-0.48208277340263844,8.632894150656563,-1.2587725340285627,6758661.789665779,1.1283259079560126,-0.048357438826725795,-0.20044704888705706,-0.033435375705703686,-1.6066497274965046,0.868428418293915,0.19567696606816562,-5.982188640103175E-5,-0.0011318681047543617,-8.025480204426597E-5,376533.32957577886,8.628792579984371E-12,1162.9037230872632,-0.48208277340263844,8.632894150656563,-1.2587725340285627
1500.0,-5773673.056835588,-3449695.772790539,615867.0688582595,663121.1186479328,-6693003.305651518,615606.1005896176,4819.0666730254425,-67.62735690581765,-5985.95381075095,-0.8579642647792193,8.659591426996002,-0.7964883147453432,6758661.811145477,1.1327011772044275,-0.05415089265843333,-0.2002818242531572,-0.03442539428130549,-1.5305129958301156,0.863356113268872,0.30048011965268345,-6.419211358961567E-5,-0.0011315102944968168,-8.355808253158966E-5,375928.9196609278,8.774572300419757E-12,1165.2975585089978,-0.8579642647792193,8.659591426996002,-0.7964883147453432
1560.0,-5656892.545345437,-3680337.281385794,255779.6825539828,950496.8843376946,-6681475.842781378,255294.44871278043,4756.405358764378,451.73906310211873,-6019.772871940323,-1.2299509338447843,8.645886507519695,-0.3303534004142337,6758661.835074073,1.1370764464528427,-0.0603147148494026,-0.20010834221449875,-0.0351911572078644,-1.4565848510564992,0.8530075085810214,0.40341249099048543,-6.870423321115365E-5,-0.0011311207265133868,-8.685003012965487E-5,375466.12805868004,8.884829606446949E-12,1167.0154771179052,-1.2299509338447843,8.645886507519695,-0.3303534004142337
1620.0,-5515826.607676546,-3895039.2822164646,-105498.73511635177,1233446.5193196344,-6638835.299502952,-106205.9749960965,4671.585396285406,969.0716864681599,-6025.562861584223,-1.5962966647723966,8.591821084117818,0.13744903337386832,6758661.861008088,1.1414517157012258,-0.06684608170070297,-0.19992486547808222,-0.03570984621860842,-1.3860294783389648,0.8376335257590589,0.5033710867570542,-7.335691494164512E-5,-0.0011306978017434951,-9.012961899148203E-5,375149.2345650133,8.957519250577967E-12,1168.047141579986,-1.5962966647723966,8.591821084117818,0.13744903337386832
1680.0,-5350983.192676048,-4093014.0383375078,-466285.78779585403,1510651.6954742053,-6565276.241502597,-467211.7399555693,4564.997025647123,1481.9549112858763,-6003.289505876439,-1.9552801695415254,8.49762791323101,0.6047255810148926,6758661.88846484,1.1458269849495775,-0.07374044617096343,-0.19972922688233857,-0.03595919485991637,-1.319763769820403,0.8175735940680819,0.5995019456897288,-7.814876690119967E-5,-0.0011302398977062703,-9.339580900841958E-5,374980.11130294745,8.991404156683943E-12,1168.3857986933413,-1.9552801695415254,8.49762791323101,0.6047255810148926
1740.0,-5162974.416705931,-4273546.457935407,-824900.957096699,1780820.5787391714,-6461137.6372440895,-826041.3086754134,4437.132810179604,1987.99281700926,-5953.050178352566,-2.305213343164611,8.363730081666526,1.0692831686092958,6758661.916930818,1.1502022541979289,-0.08099154837575348,-0.19951881121661233,-0.03591760601021192,-1.2584270854582613,0.7932262108674792,0.6912308089147328,-8.307833453287465E-5,-0.001129745371178121,-9.664754595789299E-5,374958.2047657576,8.986109164379322E-12,1168.0285564219894,-2.305213343164611,8.363730081666526,1.0692831686092958
1800.0,-4952514.397610296,-4435996.57904296,-1179673.4896957097,2042693.9038205422,-6326901.335363615,-1181022.9286417204,4288.585398097193,2484.8205383243717,-5875.073562032664,-2.6444494843045,8.190739315466537,1.528939654143336,6758661.945870794,1.154577523446217,-0.08859143326256654,-0.19929054503366558,-0.03556426730756998,-1.2023913748140231,0.7650199035359799,0.7782534483659987,-8.814409952277346E-5,-0.001129212560956912,-9.988376170267421E-5,375080.5631790478,8.942135220232906E-12,1166.9766179258775,-2.6444494843045,8.190739315466537,1.528939654143336
1860.0,-4720416.623834336,-4579801.723325511,-1528950.2451708522,2295050.8999046,-6163189.863249503,-1530502.4848527717,4120.0447960462425,2970.1155088944874,-5769.718675821506,-2.9713913359983417,7.979453334397557,1.9815344091932798,6758661.974738276,1.1589527926945367,-0.0965304753073857,-0.19904089520339305,-0.034879263779360105,-1.1517991043654334,0.7333884990751024,0.8604982136109712,-9.334447876801457E-5,-0.0011286397907108526,-1.0310337444284818E-4,375341.90856260795,8.860833743588609E-12,1165.235486355934,-2.9713913359983417,7.979453334397557,1.9815344091932798
1920.0,-4467590.867765114,-4704478.311741692,-1871103.466524629,2536715.0384375174,-5970763.556329229,-1872851.2749287812,3932.2951667250177,3441.6085179395923,-5637.473267996697,-3.2844989017840573,7.730852260532183,2.4249388246655252,6758662.002985727,1.163328061942793,-0.10479741007972661,-0.1987658768145893,-0.03384368692926256,-1.1066144703153056,0.69875260953399,0.9380753220280313,-9.867782339924313E-5,-0.001128025371910028,-1.0630528902155463E-4,375734.75192622445,8.744343829099781E-12,1162.8151501748273,-3.2844989017840573,7.730852260532183,2.4249388246655252
1980.0,-4195039.654664119,-4809623.336447689,-2204538.435613471,2766559.5748475273,-5750517.030986629,-2206473.668992203,3726.211165371496,3897.09452330008,-5478.951583072608,-3.582296993460838,7.446094095344951,2.8570666829678015,6758662.030075091,1.1677033311910492,-0.11337937254187447,-0.19846107087268064,-0.032439739498203196,-1.0666760399706068,0.6615075241447885,1.011224754214142,-1.0414241786440697E-4,-0.0011273676068379852,-1.0948839728543218E-4,376249.5491254497,8.595497578999151E-12,1159.730255701804,-3.582296993460838,7.446094095344951,2.8570666829678015
2040.0,-3903854.3008139166,-4894915.4849278955,-2527700.976181921,2983512.857050837,-5503475.017387545,-2529814.6169956294,3502.7538325029245,4334.443165674391,-5294.8915117741335,-3.8633824679904842,7.126509285661286,3.275884339320025,6758662.055488321,1.1720786004407024,-0.12226194195828784,-0.1981216520713625,-0.030650835089237553,-1.031743419568909,0.622016628956666,1.0802701616736838,-1.0973647908054696E-4,-0.0011266647916807339,-1.1265157850058733E-4,376874.894068694,8.41770090198102E-12,1156.0002712747812,-3.8633824679904842,7.126509285661286,3.275884339320025
2100.0,-3595210.536660881,-4960115.913982678,-2839084.7678876263,3186563.3747004555,-5230787.571767258,-2841366.966862255,3262.9660627924854,4751.608930120489,-5086.151137273726,-4.126431112668445,6.773594404651978,3.679420655674142,6758662.07873722,1.176453869688895,-0.13142919332964614,-0.1977424267257377,-0.028461691825335485,-1.0015346691897078,0.5806090365814109,1.145582070985465,-1.1545815566030553E-4,-0.0011259152196897828,-1.1579369982475348E-4,377597.7452157839,8.214798380658429E-12,1151.649645553973,-4.126431112668445,6.773594404651978,3.679420655674142
2160.0,-3270363.73301008,-5005068.672720994,-3137238.4355907394,3374764.524402967,-4933724.690919285,-3139678.55769236,3007.9676723670464,5146.640902651265,-4853.704694202274,-4.370204139641934,6.389004979773524,4.065776631907296,6758662.099373308,1.180829138937088,-0.14086375527764053,-0.1973178807666347,-0.02585841921276799,-0.9757540496197552,0.5375801051454844,1.2075508041420135,-1.2130552721989913E-4,-0.0011251171844158384,-1.1891361683615348E-4,378403.6806680953,7.990931209124359E-12,1146.7079604773,-4.370204139641934,6.389004979773524,4.065776631907296
2220.0,-2930643.7501376574,-5029700.775530332,-3420772.3792719855,3547239.067534144,-4613670.35469334,-3423359.0533808707,2738.9500890753266,5517.692071836949,-4598.637960217431,-4.59355425311793,5.97454750506954,4.433134680588231,6758662.116996869,1.1852044081852489,-0.15054687435097483,-0.19684223749357613,-0.022828597380616846,-0.9541112435923883,0.49319374248527525,1.2665679767285074,-1.27276603775158E-4,-0.001124268983008961,-1.2201017411943106E-4,379277.17662961537,7.750396758773209E-12,1141.210076218988,-4.59355425311793,5.97454750506954,4.433134680588231
2280.0,-2577449.4318869542,-5034021.927405891,-3688365.311222666,3703183.25882164,-4272116.0252460865,-3691086.4832711625,2457.170692402331,5863.028127730722,-4322.143103075171,-4.7954312551653135,5.532170680514924,4.779767493669585,6758662.131264994,1.1895796774333782,-0.16045848574090477,-0.1963095245838586,-0.019361347906689384,-0.9363337861272697,0.44768567412300503,1.3230148424509525,-1.3336932523221547E-4,-0.0011233689195811263,-1.250822059088316E-4,380201.9036268583,7.497517155667426E-12,1135.1962597229597,-4.7954312551653135,5.532170680514924,4.779767493669585
2340.0,-2212242.76851218,-5018123.905737232,-3938770.4686189303,3841870.6255230443,-3910653.634567462,-3941613.457940538,2163.9468316670245,6181.035713145514,-4025.5130091789383,-4.974887158851499,5.063955926043464,5.104046451924606,6758662.141898441,1.1939549466814758,-0.1705772904106175,-0.195713649661414,-0.015447395481135025,-0.9221744604115485,0.40126711643191115,1.3772557294570509,-1.395815609793E-4,-0.001122415308626273,-1.2812853678865834E-4,381161.03461638925,7.236522517435377E-12,1128.712277954384,-4.974887158851499,5.063955926043464,5.104046451924606
2400.0,-1836542.753813424,-4982179.604168419,-4170821.4712356576,3962655.3788009086,-3530968.094417545,-4173773.029857073,1860.6495529239248,6470.230085308069,-3710.1351224465034,-5.13108078053261,4.572107222502491,5.404449530787242,6758662.148687752,1.1983302159295892,-0.18088083866540425,-0.19504848353235116,-0.011079119726279297,-0.9114151695324676,0.3541285058189084,1.4296350579652717,-1.45911109585885E-4,-0.0011214064784925953,-1.3114798245079525E-4,382137.5589846628,6.9714524022884714E-12,1121.8094196273266,-5.13108078053261,4.572107222502491,5.404449530787242
2460.0,-1451918.9636920143,-4926441.745672106,-4383437.795866276,4064975.440769556,-3134829.365229208,-4386484.170459903,1548.697066583742,6729.262149179428,-3377.4848250206896,-5.263281786415506,4.058940335984298,5.679568659458515,6758662.151497628,1.2027054851776549,-0.19134562017617557,-0.19430795001797452,-0.0062505965813941,-0.9038684667839211,0.3064430861982848,1.4804767532220668,-1.5235569861536146E-4,-0.001120340774901873,-1.3413935050899154E-4,383114.596445317,6.706076777007457E-12,1114.5443829468968,-5.263281786415506,4.058940335984298,5.679568659458515
2520.0,-1059984.8847132197,-4851241.273444778,-4575629.840979727,4148355.0726525867,-2724084.1227505375,-4578756.837181328,1229.5479891556383,6956.924827233605,-3029.118393835962,-5.370874171992913,3.5268714857458705,5.928116493666796,6758662.15026968,1.207080754425705,-0.2019471604644107,-0.19348612114825525,-9.576287664469356E-4,-0.8993776135865955,0.25837025897554966,1.5300851770514052,-1.5891298455711204E-4,-0.0011192165645095562,-1.3710144136927545E-4,384075.7049604827,6.443835632400129E-12,1106.978932210111,-5.370874171992913,3.5268714857458705,5.928116493666796
2580.0,-662391.0225608613,-4756985.42964252,-4746503.557256004,4212407.091530608,-2300647.063204379,-4749696.606040857,904.6943936910661,7152.158734197877,-2666.6655693144057,-5.453359156579278,2.9784055192120222,6.148932566280833,6758662.145023236,1.211456023673723,-0.21266012381736882,-0.1925773163315013,0.004802235033568541,-0.8978157721557415,0.21005866419203706,1.5787469568358838,-1.655805528836544E-4,-0.0011180322384994209,-1.4003304915575178E-4,385005.1770453776,6.1877945188608505E-12,1099.1791887558747,-5.453359156579278,2.9784055192120222,6.148932566280833
2640.0,-260817.82141742334,-4644155.533314548,-4895264.62187602,4256834.665262833,-1866491.8895137561,-4898508.847677226,575.6547044623871,7314.05712915882,-2291.821774493211,-5.5103574789241465,2.416123660340145,6.3409887840400545,6758662.135856509,1.2158312929217412,-0.22345842255851422,-0.1915762039891091,0.011029692478698484,-0.8990847371145414,0.16164899953314332,1.626733284873975,-1.7235591823825752E-4,-0.001116786216206091,-1.429329626908337E-4,385888.3191401209,5.940612080405446E-12,1091.214397534184,-5.5103574789241465,2.416123660340145,6.3409887840400545
2700.0,143031.57372078046,-4513304.470161455,-5021222.136795148,4281432.677321415,-1423642.022679801,-5024502.427039573,243.96647213732288,7441.870121477464,-1906.3400246628808,-5.5416110836912384,1.8426708998753136,6.503394242931397,6758662.12294445,1.2202065621697118,-0.23431533252881906,-0.19047790404668166,0.017723691435910044,-0.9031134595896304,0.11327660431316593,1.6743023995557396,-1.7923652475808143E-4,-0.0011154769487581812,-1.4579996652862371E-4,386711.7091470204,5.7045155682630964E-12,1083.1550283717497,-5.5416110836912384,1.8426708998753136,6.503394242931397
2760.0,547438.6789727506,-4365053.907928583,-5123791.8336767405,4286088.655469564,-974161.0836853825,-5127092.909407679,-88.82093379296442,7535.008111129369,-1512.022569110106,-5.546984192453069,1.2607430977359542,6.635399339176703,6758662.1065338105,1.2245818314176822,-0.24520361455457232,-0.18927808959625284,0.024881445280878683,-0.9098565077184486,0.06507384455122375,1.7217020529106424,-1.8621974653759734E-4,-0.0011141029227348628,-1.4863284204012791E-4,387463.4277103987,5.481281744344544E-12,1075.070168421798,-5.546984192453069,1.2607430977359542,6.635399339176703
2820.0,950677.1242958206,-4200091.252341504,-5202498.770698864,4270783.260427714,-520143.19233466923,-5205805.257949676,-421.15367830868286,7593.044448335931,-1110.7123078073007,-5.526463756696067,0.6730738689269875,6.736399157341225,6758662.086940608,1.228957100665621,-0.25609564157604475,-0.18797308600708776,0.03249845935408635,-0.9192925275442045,0.017172336938938285,1.7691718269970735,-1.93302888236618E-4,-0.0011126626638277254,-1.514303685485506E-4,388133.25935756887,5.27222362060203E-12,1067.024364389324,-5.526463756696067,0.6730738689269875,6.736399157341225
2880.0,1351020.1630903764,-4019166.359495066,-5256979.509041306,4235590.332897739,-63703.130217842794,-5260276.010621248,-751.480822820391,7615.7173016544775,-704.2840268600023,-5.480159294155444,0.0824213249868775,6.805936121694033,6758662.064542267,1.2333323699135281,-0.2669635310007336,-0.18655996574916656,0.04056856811079543,-0.9314227081904216,-0.030294953638488917,1.8169451927411138,-2.0048318583690242E-4,-0.0011111547404998605,-1.5419132451286992E-4,388712.8602005118,5.078187338202093E-12,1059.0743532219194,-5.480159294155444,0.0824213249868775,6.805936121694033
2940.0,1746748.2044997776,-3823088.021510254,-5286983.759515359,4180676.4995315075,393033.5844901508,-5290254.926867451,-1078.2616589249415,7602.930728023764,-294.6354972175263,-5.408302113528574,-0.5084452569673377,6.843701901594686,6758662.039770648,1.2377076391614352,-0.2777792817268114,-0.18503663721743246,0.04908398233003394,-0.9462692072148854,-0.0771917150554503,1.865251215550472,-2.077578075508229E-4,-0.001109577767633935,-1.5691448875757952E-4,389195.88951883046,4.8995662410671576E-12,1051.2663660826197,-5.408302113528574,-0.5084452569673377,6.843701901594686
3000.0,2136156.3341170144,-3612720.2430777997,-5292375.49247469,4106300.340633159,847940.6624266026,-5295606.09726579,-1399.9729775041583,7554.754942572977,116.32151843400374,-5.311243936258723,-1.0967587660038198,6.84953856630585,6758662.013103536,1.2420829084093103,-0.28851491515206085,-0.18340192590317608,0.05803534559196375,-0.9638734503247907,-0.12337636920228408,1.9143158069140116,-2.1512385488513597E-4,-0.001107930410160243,-1.5959864174624946E-4,389578.10318307,4.736338462715293E-12,1043.6347305693564,-5.311243936258723,-1.0967587660038198,6.84953856630585
3060.0,2517561.7888852074,-3388978.3272054414,-5273133.506850906,4012811.124553157,1298901.0006607769,-5276308.51195622,-1715.1162373382197,7471.425790267326,526.6703055376993,-5.18945492756025,-1.6797675193444306,6.823438989186444,6758661.985054815,1.246458177657154,-0.2991426193626642,-0.18165564634423373,0.06741179908163555,-0.9842941802208787,-0.16870022849001826,1.9643624036208192,-2.2257836386233953E-4,-0.00110621138665568,-1.6224256689639454E-4,389857.4075396994,4.588129126758128E-12,1036.202213922235,-5.18945492756025,-1.6797675193444306,6.823438989186444
3120.0,2889311.3522313084,-3152824.789075047,-5229351.456851596,3900647.115856913,1743816.5848140144,-5232456.086399527,-2022.2245982376287,7353.343425663547,934.4982393644549,-5.043521152187703,-2.254748385410854,6.765546505680817,6758661.956164766,1.2508334469049975,-0.309634895565428,-0.17979866340939568,0.0772010536599716,-1.0076050900499054,-0.21300573960854688,2.015611929182118,-2.3011830640163708E-4,-0.0011044194729047832,-1.6484505193281945E-4,390033.8730406538,4.454290563815488E-12,1028.9820194498138,-5.043521152187703,-2.254748385410854,6.765546505680817
3180.0,3249788.63589195,-2905265.1174002397,-5161237.337545333,3770333.466422076,2180618.288457286,-5164257.145693894,-2319.869784721449,7201.0702111343135,1337.9057840122266,-4.8741414735704085,-2.8190197007587257,6.676153833822869,6758661.926988262,1.2552087161527934,-0.31996470572247476,-0.17783294161915914,0.08738946803938406,-1.033891837791326,-0.2561248484458399,2.068281858937242,-2.3774059186093348E-4,-0.0011025535054128392,-1.6740489027653358E-4,390109.70757186314,4.3339880217523616E-12,1021.9808338609017,-4.8741414735704085,-2.8190197007587257,6.676153833822869
3240.0,3597421.215475399,-2647343.403051285,-5069112.433208193,3622479.70062162,2607275.523304943,-5072033.371331141,-2606.668747476172,7015.327847888264,1735.0154048221666,-4.682123917845697,-3.369953916072541,6.555701270105333,6758661.898084459,1.2595839854005895,-0.3301056202378563,-0.17576158138052583,0.09796213184257331,-1.0632482015946396,-0.29787754772964087,2.1225841762677238,-2.454420687406669E-4,-0.001100612384861933,-1.6992088246597115E-4,390089.190097717,4.226277532485804E-12,1015.2020921374569,-4.682123917845697,-3.369953916072541,6.555701270105333
3300.0,3930687.5875506666,-2380137.8549770066,-4953409.7349145105,3457776.807674013,3021805.694697447,-4956218.216883821,-2881.290091202262,6796.993757917212,2123.9803512177186,-4.4683815269914735,-3.9049899091410256,6.404774177482705,6758661.870005944,1.2639592546483536,-0.34003196447056816,-0.17358884121082171,0.1089029522813275,-1.0957711091669748,-0.3380707029522181,2.178721980347689,-2.5321952654973394E-4,-0.0010985950795000315,-1.7239183760712356E-4,389978.5658936654,4.130166764708625E-12,1008.6487475415447,-4.4683815269914735,-3.9049899091410256,6.404774177482705
3360.0,4248123.916948868,-2104756.223619738,-4814671.836397257,3276993.9560819864,3422283.4180641156,-4817354.801658421,-3142.4602389814136,6547.096738638733,2502.9932680903603,-4.233927727682901,-4.421644905827256,6.224099785954215,6758661.8432877185,1.268334523896086,-0.34971896277907705,-0.1713201452396657,0.1201947432077905,-1.131554268231833,-0.3764972921215698,2.236884498423974,-2.6106969783309014E-4,-0.0010965006284530438,-1.7481657484901388E-4,389785.90527692856,4.044655862499758E-12,1002.3251623387625,-4.233927727682901,-4.421644905827256,6.224099785954215
3420.0,4548330.544003998,-1822331.1520783012,-4653548.3196785655,3080974.8468228565,3806849.453467444,-4656093.2938266415,-3388.9693049618727,6266.811915438752,2870.2945951858724,-3.979871244648853,-4.917525953438453,6.01454332958746,6758661.818436177,1.2727097931452471,-0.35914287877099177,-0.16896207551092246,0.13181931531998634,-1.170680157310186,-0.4129362387843421,2.2972402857894596,-2.6898926036001265E-4,-0.001094328144950574,-1.7719392488069714E-4,389520.9283645654,3.968760336054906E-12,996.2380657598967,-3.979871244648853,-4.917525953438453,6.01454332958746
3480.0,4829978.222654509,-1534015.4751871137,-4470792.644356342,2870633.7235936183,4173719.31693969,-4473187.796933262,-3619.6766489416905,5957.4550205495125,3224.1807154730773,-3.707410589193326,-5.390340894545842,5.7771035469781555,6758661.795920628,1.2770850623929477,-0.3682811504121281,-0.16652234883889908,0.14375756638603462,-1.2132102299196004,-0.4471530605793533,2.3599284881371108,-2.769748394712426E-4,-0.0010920768194548358,-1.795227314458349E-4,389194.7989763605,3.9015206614366715E-12,990.3967376613429,-3.707410589193326,-5.390340894545842,5.7771035469781555
3540.0,5091814.061575509,-1240977.4866718075,-4267258.556721532,2646951.059941653,4521191.529121266,-4269492.755969184,-3833.516088322362,5620.476029695762,3563.0118151823463,-3.41782815515863,-5.837908793162013,5.512907574979423,6758661.776163281,1.2814603316406326,-0.37711251866675577,-0.16400977821837653,0.1559895704596346,-1.2591733674191545,-0.4789015882812827,2.4250482207382253,-2.850230105826665E-4,-0.0010897459226833829,-1.8180185287072211E-4,388819.89135248883,3.842003655811525E-12,984.8126549695893,-3.41782815515863,-5.837908793162013,5.512907574979423
3600.0,5332667.142031817,-944396.1940849143,-4043896.0370653304,2410968.944526708,4847655.463679302,-4045958.901384013,-4029.5007448803954,5257.452190712481,3885.2194200689587,-3.1124839559463564,-6.258169769191377,5.2232052680648895,6758661.75953213,1.2858356008883016,-0.3856171483776892,-0.16143421902868463,0.1684946651964741,-1.308552909069909,-0.5079270188929683,2.4926464099508947,-2.931303018425132E-4,-0.001087334808515668,-1.8403016360149743E-4,388409.5338656954,3.789299879018028E-12,979.4988266383009,-3.1124839559463564,-6.258169769191377,5.2232052680648895
3660.0,5551453.787571907,-645456.5811207036,-3801746.805598145,2163786.1870489637,5151598.760114578,-3803628.75147618,-4206.727505856903,4870.080480856434,4189.313574467494,-2.792809037284425,-6.649194201206894,4.909362977915773,6758661.7463333905,1.2902108701359387,-0.39377674015645325,-0.15880650050620004,0.18125153654728546,-1.3612729985651626,-0.5339705323602226,2.5627048511381054,-3.0129319693820793E-4,-0.0010848429167741361,-1.8620655574613773E-4,387977.7343578215,3.742520110181148E-12,974.4689913622253,-2.792809037284425,-6.649194201206894,4.909362977915773
3720.0,5747182.462373187,-345344.8963731302,-3541939.4093472725,1906553.168547995,5431614.267837693,-3543631.6955448124,-4364.381080971958,4460.169531805842,4473.889631835771,-2.4602986012350807,-7.009191261797591,4.572856829728943,6758661.736806983,1.29458613938356,-0.40157463214065714,-0.1561383431868313,0.19423830028319494,-1.417185484729314,-0.5567756048478647,2.635127733601895,-3.0950813804852975E-4,-0.0010822697758700454,-1.8832994061670542E-4,387538.8921221204,3.700792829570126E-12,969.7367943151017,-2.4602986012350807,-7.009191261797591,4.572856829728943
3780.0,5918958.2767431345,-45243.987156193296,-3265683.91420795,1640466.460814392,5686406.490796282,-3267178.6819960442,-4501.737639115998,4029.6310633605963,4737.634627728383,-2.116504877497503,-7.3365167539670475,4.215265533351287,6758661.731121632,1.2989614086311496,-0.40899589058022223,-0.15344226323235566,0.20743258000436937,-1.4760591153326363,-0.5760959771131179,2.7097313826810443,-3.1777152893592685E-4,-0.0010796150053052236,-1.903992502672643E-4,387107.50186152395,3.663263769705687E-12,965.3150107020559,-2.116504877497503,-7.3365167539670475,4.215265533351287
3840.0,6065987.080078167,253671.30355311433,-2974266.227997847,1366763.2405670313,5914797.50445084,-2975556.5372728063,-4618.168010647965,3580.4708686203503,4979.333208465142,-1.7630297783750792,-7.629680221275532,3.838262768646645,6758661.729372959,1.3033366778787392,-0.41602738833605035,-0.15073146474939464,0.22081158147599808,-1.5375731182127148,-0.5917049844306248,2.7862383228925056,-3.2607973817320903E-4,-0.0010768783180206882,-1.9241343902274072E-4,386697.8551801952,3.6290979862712297E-12,961.2148493332913,-1.7630297783750792,-7.629680221275532,3.838262768646645
3900.0,6187579.123442538,550238.6596156699,-2669042.0818951903,1086715.5248266554,6115732.319509561,-2670121.9430078324,-4713.140443412458,3114.779394930063,5197.873091157172,-1.4015173738720523,-7.887351308592956,3.443609185518158,6758661.731581901,1.307711947126297,-0.42265787051177145,-0.14801972138775787,0.23435216333609,-1.6013172804660891,-0.6034056513184207,2.864277781249864,-3.344291024980794E-4,-0.0010740595225837463,-1.9437148499400414E-4,386323.74529160466,3.5974844782772123E-12,957.4453474408297,-1.4015173738720523,-7.887351308592956,3.443609185518158
3960.0,6283152.2758476045,843312.716918093,-2351430.69902836,801624.2545650018,6288283.669528788,-2352295.1001879806,-4786.222902776378,2634.7219661484664,5392.250033201814,-1.033646223270993,-8.108365354418837,3.0331440597485106,6758661.737695492,1.312087216373823,-0.4288780065845711,-0.14532124865927096,0.2480309043967334,-1.666800139687575,-0.6110406593694472,2.9433942519511795,-3.428159302885336E-4,-0.0010711585252051532,-1.962723915743739E-4,385998.18064787507,3.5676430916342734E-12,954.0128554104365,-1.033646223270993,-8.108365354418837,3.0331440597485106
4020.0,6352234.780278291,1131769.3752312476,-2022908.1802221858,512813.25422462495,6431656.202251421,-2023553.110355818,-4837.084908156614,2142.5286928165224,5561.572291842317,-0.6611215992393087,-8.29172819971023,2.6087766463009143,6758661.747587648,1.3164624856213492,-0.4346804285577174,-0.1426505685492051,0.2618241679288147,-1.7334658307508202,-0.6145010952959364,3.023064672140493,-3.5123650515126305E-4,-0.001068175331579069,-1.9811518891275145E-4,385733.1131020882,3.538833221471658E-12,950.920603739831,-0.6611215992393087,-8.29172819971023,2.6087766463009143
4080.0,6394467.537518075,1414509.9815030915,-1685000.6379960994,221623.09509226072,6545190.057375291,-1685423.1049647348,-4865.498900661117,1640.4841175906968,5705.064556896355,-0.2856676400412703,-8.436620202005958,2.172477271965328,6758661.761062724,1.3208377548688435,-0.4400597548158218,-0.14002236809991134,0.2757081634603055,-1.8007186307129806,-0.6137328659677173,3.1027232566655254,-3.5968708961483517E-4,-0.0010651100485381758,-1.9989893535859557E-4,385539.18600507546,3.510363658732794E-12,948.1683417924817,-0.2856676400412703,-8.436620202005958,2.172477271965328
4140.0,6409605.9078569235,1690465.370171356,-1339277.1108460224,-70595.1092331024,6628363.816302431,-1339475.1549409349,-4871.341138581146,1130.9166438664563,5822.071342272102,0.09098053518988625,-8.542399447337571,1.7262682092568882,6758661.77786013,1.325213024116306,-0.44501259952695943,-0.13745135372881545,0.289659006730045,-1.867952676447272,-0.6087398790719374,-3.101393836163142,-3.6816392891860883E-4,-0.0010619628855173837,-2.0162271887396005E-4,385425.5073058265,3.4816027964206106E-12,945.7520369427277,0.09098053518988625,-8.542399447337571,1.7262682092568882
4200.0,6397521.022820825,1958599.7469422803,-987342.290630036,-362485.94690230134,6680796.812307536,-987314.9932940021,-4854.5921195490755,616.1877958617363,5912.059824399213,0.4670847139167035,-8.608604155945525,1.2722143732972766,6758661.797659505,1.3295882933637686,-0.4495375676027415,-0.1349521030980629,0.3036527785186697,-1.9345831745868496,-0.599583514426587,-3.0234758412344145,-3.766632548880913E-4,-0.0010587341558201192,-2.032856584079211E-4,385399.4522771169,3.4519883218993627E-12,943.6636222516687,0.4670847139167035,-8.608604155945525,1.2722143732972766
4260.0,6358200.601128443,2217914.4033671576,-630829.0965146273,-652695.963023609,6702250.792465583,-630576.5842546113,-4815.336530201831,98.68135856702911,5974.622118197922,0.8409114470583409,-8.634954281169463,0.8124138830577826,6758661.820087279,1.3339635626111994,-0.4536352353767392,-0.13253891638340665,0.3176655831204642,-2.0000750789529937,-0.5863784583279757,-2.947220354891473,-3.8518128988663603E-4,-0.0010554242776814845,-2.048869052287346E-4,385466.49992860993,3.4210354800392998E-12,941.8907799914252,0.8409114470583409,-8.634954281169463,0.8124138830577826
4320.0,6291749.2651513675,2467451.250455493,-271391.12942729046,-939879.8977407835,6692630.925581388,-270914.5729069688,-4753.7627261631405,-419.2075540887871,6009.4769836773385,1.2107398428584453,-8.621352304047443,0.34898852783990764,6758661.844724363,1.3383388318585985,-0.45730811734239746,-0.1302256687944939,0.3316736072263041,-2.0639658014222073,-0.5692855014356024,-2.873069222413747,-3.9371425083314053E-4,-0.0010520337751235692,-2.064256442092134E-4,385630.1065087853,3.3883430021576843E-12,940.4167464859972,1.2107398428584453,-8.621352304047443,0.34898852783990764
4380.0,6198388.356222408,2706296.160494702,89304.95869797173,-1222706.8791330783,6651986.153259169,90003.35037573802,-4670.1617470703895,-935.0834547505567,6016.470958686761,1.5748692663956867,-8.567883229133253,-0.11592582076681664,6758661.871113751,1.3427141011059978,-0.46056061942468807,-0.12802566617763927,0.34565317995789785,-2.125879836324624,-0.5485022770267783,-2.8013790699396792,-4.0225835327489605E-4,-0.0010485632785986031,-2.079010950609186E-4,385891.61875090713,3.3536659143453206E-12,939.2248782809261,1.5748692663956867,-8.567883229133253,-0.11592582076681664
4440.0,6078455.249195302,2933582.107183888,449587.1463984685,-1499866.5432281054,6580508.884125071,450504.13618752244,-4564.925873221135,-1446.5614141352246,5995.578915738715,1.9316269144514222,-8.474813789827547,-0.5801888119526264,6758661.898769921,1.347089370353365,-0.4633989794172154,-0.12595150548702708,0.3595808347279917,-2.185534774492739,-0.5242530660073125,-2.7324151596615596,-4.1080981550429917E-4,-0.0010450135254164979,-2.0931251351293177E-4,386250.22870340385,3.317097030366833E-12,938.3111279851116,1.9316269144514222,-8.474813789827547,-0.5801888119526264
4500.0,5932402.168700913,3148492.095134018,807785.7403460252,-1770075.0538666465,6478534.034058976,808917.0784781239,-4438.546732199052,-1951.2779214017908,5946.904043165989,2.2793752365682796,-8.34259087412695,-1.0416651951162754,6758661.927187354,1.3514646396007006,-0.46583119536557194,-0.12401494183724977,0.3734333735011306,-2.2427395955531444,-0.49677872042466154,-2.666352985288962,-4.1936486270796527E-4,-0.0010413853599539162,-2.106591924310735E-4,386702.9711205373,3.2788576553940624E-12,937.6705324078171,2.2793752365682796,-8.34259087412695,-1.0416651951162754
4560.0,5760794.511566436,3350261.8707415154,1162241.054741947,-2032080.995712116,6346537.418100462,1163581.4985992513,-4291.612965554105,-2446.9016270062366,5870.6772531683355,2.616519174275689,-8.17183918411641,-1.498234337890977,6758661.955850495,1.3558399088480522,-0.46786694278708246,-0.12222676376294354,0.3871879339104766,-2.2973870473183986,-0.4663275227997788,-2.6032857976540926,-4.279197311363991E-4,-0.0010376797336433129,-2.1194046287373864E-4,387244.76350456156,3.239232202937461E-12,937.2934353668944,2.616519174275689,-8.17183918411641,-1.498234337890977
4620.0,5564308.681853629,3538182.4073895733,1511311.0382103464,-2284671.1143515487,6185133.502448557,1512854.3767545142,-4124.807467258879,-2931.143922522578,5767.25602154214,2.941513191616606,-7.963358144800589,-1.9477996459562432,6758661.984242057,1.360215178095356,-0.46951748176909824,-0.1205966781861169,0.4008220595295798,-2.349442267041208,-0.43314749426860855,-2.543235904797048,-4.364706722821401E-4,-0.001033897704740094,-2.131556950806422E-4,387868.4879993052,3.198557365909131E-12,937.1655768146761,2.941513191616606,-7.963358144800589,-1.9477996459562432
4680.0,5343729.446936539,3711602.158873115,1853378.8143097733,-2526675.8781857546,5995072.527679711,1855117.8969528647,-3938.904207239474,-3401.769312911613,5637.122666067141,3.2528680712659694,-7.718118079973585,-2.3882978488129383,6758662.011854132,1.3645904473426438,-0.470795555056489,-0.11913320646799645,0.4143137734432228,-2.3989296722658677,-0.39748037040751055,-2.486167718178053,-4.4501395705425916E-4,-0.0010300404378679091,-2.1430429939102135E-4,388565.11347305216,3.15720117863732E-12,937.2676334359353,3.2528680712659694,-7.718118079973585,-2.3882978488129383
4740.0,5099946.824958461,3869929.075880019,2186860.102263865,-2756974.837650332,5777237.016943133,2188786.872046689,-3734.764654788559,-3856.6055378400606,5480.882072638583,3.549157451689034,-7.43725567480659,-2.8177081167108358,6758662.038194789,1.3689657165913447,-0.4717152783644519,-0.11784359275741105,0.42764165507688107,-2.445919737262155,-0.3595572304048852,-2.4320009287873914,-4.5354587993686054E-4,-0.0010261092033424862,-2.1538572708812906E-4,389323.855306614,3.1155098592517323E-12,937.5725189653306,3.549157451689034,-7.43725567480659,-2.8177081167108358
4800.0,4833952.515855425,4012632.3813317767,2510210.4851196953,-2974501.7582403645,5532637.685463832,2512316.0160442693,-3513.3338181060067,-4293.553399890261,5299.258880298366,3.829024081924568,-7.1220687466768,-3.234060974940303,6758662.062798965,1.373340985838585,-0.4722920242047211,-0.11673372568181357,0.44078492007319225,-2.4905167594946627,-0.3195956115355845,-2.380622708785218,-4.6206276311924093E-4,-0.0010221053762748888,-2.1639947116707547E-4,390132.36965411407,3.073793904477327E-12,938.0454048019781,3.829024081924568,-7.1220687466768,-3.234060974940303
4860.0,4546835.890073567,4139244.101147416,2821932.493269807,-3178249.5048285434,5262408.770169209,2824207.031614367,-3275.6359175831294,-4710.596258844605,5093.094138307918,4.091185771711246,-6.774010347516486,-3.6354469827289226,6758662.085234468,1.3777162550858253,-0.47254230057153135,-0.11580807424518669,0.45372350282458135,-2.5328482413212052,-0.27779786171223114,-2.3318983139527263,-4.705609605854499E-4,-0.0010180304354564789,-2.1734506702340722E-4,390976.9782729671,3.033539607579352E-12,938.7340801798657,4.091185771711246,-6.774010347516486,-3.6354469827289226
4920.0,4239779.550700518,4249360.348152961,3120582.4721217975,-3367274.6558622518,4967802.800665293,3123015.481549289,-3022.7697117518874,-5105.809152675562,4863.341450345981,4.334441015779502,-6.394682222613129,-4.020025145006929,6758662.105110578,1.3820915243330338,-0.4724836258617104,-0.11506963859269433,0.4664381411065243,-2.5730561334548194,-0.23435046099215612,-2.285679841337811,-4.7903686215089447E-4,-0.0010138859620282747,-2.1822209306005376E-4,391842.91945561935,2.9964419043667923E-12,939.7032146632802,4.334441015779502,-6.394682222613129,-4.020025145006929
4980.0,3914054.4866428366,4342642.357473662,3404777.2036579223,-3540701.827199287,4650184.835101373,3407357.41391226,-2755.9034960558283,-5477.367507416991,4611.062622784209,4.557674272231928,-5.985827652388277,-4.386031026326287,6758662.12208434,1.3864667935802266,-0.472134401413301,-0.11451991610770591,0.47891046210302923,-2.611289926530884,-0.18942405821245242,-2.2418131571824085,-4.874868974339644E-4,-0.0010096736379383462,-2.1903017121065334E-4,392714.62013391714,2.9639722381456694E-12,941.0037309013525,4.557674272231928,-5.985827652388277,-4.386031026326287
5040.0,3571014.836032878,4418817.272767038,3673200.2527003335,-3697727.6865839763,4311026.186685145,3675915.711668903,-2476.2697957731953,-5823.555399728557,4337.422835808549,4.759860876009628,-5.549323705218274,-4.7317845372333025,6758662.135865672,1.3908420628273876,-0.4715137830230535,-0.1141588830928364,0.4911230689861297,-2.647701422993663,-0.14317400397612096,-2.200143164964401,-4.959075397507708E-4,-0.0010053952441914375,-2.1976896737753635E-4,393575.9838859672,2.9374969683473206E-12,942.6814407627146,4.759860876009628,-5.549323705218274,-4.7317845372333025
5100.0,3212092.2806872413,4477678.683441166,3924608.009873601,-3837624.641081829,3951897.6687287977,3927446.138779685,-2185.1597755307953,-6142.773337697255,4043.685357903921,4.94007156951804,-5.087172930861101,-5.055697364403699,6758662.146222263,1.3952173320745327,-0.47064155276021186,-0.11398499208043879,0.5030596271014465,-2.682440948453483,-0.09574120335288798,-2.1605176572119733,-5.042953099212712E-4,-0.0010010526588963488,-2.2043819178301283E-4,394410.68934952863,2.918321837033506E-12,944.780092133496,4.94007156951804,-5.087172930861101,-5.055697364403699
5160.0,2838790.0939655546,4519086.913831494,4157835.4045387194,-3959744.1811678405,3574462.388121154,4160783.056013654,-1883.9173888893572,-6433.545527233405,3731.2058259131068,5.097476633549507,-4.6014945255308035,-5.356280016859102,6758662.152983096,1.399592601321678,-0.4695379923235202,-0.1139951846102903,0.5147049487334495,-2.7156547433226894,-0.04725315298423492,-2.1227900140530798,-5.126467799754556E-4,-9.966478551163968E-4,-2.2103759923292182E-4,395202.49343856977,2.907724450661135E-12,947.3432117610594,5.097476633549507,-4.6014945255308035,-5.356280016859102
5220.0,2452676.8658390283,4542969.066103005,4371801.262352765,-4063519.8666003644,3180468.11902098,4374844.781124845,-1573.9332924621526,-6694.52659333155,3401.426114508607,5.231349602714463,-4.094515001133679,-5.632148461606272,6758662.156041181,1.4039678705687753,-0.4682237590952871,-0.11418491911448168,0.5260450753681821,-2.7474832898779686,0.0021749363414980813,-2.086820998351502,-5.209585767487281E-4,-9.921828985300432E-4,-2.215669892917959E-4,395935.5337595165,2.9069836477330795E-12,950.4153646216312,5.231349602714463,-4.094515001133679,-5.632148461606272
5280.0,2055379.9303642926,4549318.819422033,4565513.283585554,-4148469.9407109707,2771739.290352122,4568638.56951103,-1256.6385499428914,-6924.507727455068,3055.867820487153,5.341070550675472,-3.5685583926433586,-5.882030323069207,6758662.155355022,1.4083431398158728,-0.46671976592872977,-0.11454821335933804,0.5370673563491584,-2.778060360835696,0.052439000733000646,-2.052479867938931,-5.292273853557752E-4,-9.876599449085267E-4,-2.220262063692489E-4,396594.624733053,2.917405843141822E-12,954.0428203636536,5.341070550675472,-3.5685583926433586,-5.882030323069207
5340.0,1648578.5220597982,4538195.988693384,4738072.6198927285,-4214199.561286573,2350168.6223442745,4741265.1930436455,-933.4981522682997,-7122.422234389938,2696.12538880173,5.426128931584995,-3.0260360390744117,-6.10477062174592,6758662.150948539,1.4127184090629386,-0.4650470655703097,-0.11507770071734302,0.5477605228269282,-2.807512612568805,0.10344501368119223,-2.019644990519212,-5.37449952532958E-4,-9.8308123741857E-4,-2.2241513971765103E-4,397165.54212676635,2.940344443242019E-12,958.2733290095096,5.426128931584995,-3.0260360390744117,-6.10477062174592
5400.0,1233996.6889043858,4509725.846883936,4888678.02890301,-4260402.6378187,1917708.448895497,4891923.096417328,-606.0043809226246,-7287.350454085909,2323.8589086862216,5.486125965267839,-2.4694359750002546,-6.2993370286202754,6758662.14291064,1.4170936783099726,-0.4632267404766419,-0.11576469938005417,0.5581147559295337,-2.835959583106871,0.15510793439269452,-1.9882041126279781,-5.456230898396071E-4,-9.784491037585252E-4,-2.227337233414432E-4,397635.29098930594,2.9772053382748046E-12,963.154511329984,5.486125965267839,-2.4694359750002546,-6.2993370286202754
5460.0,813395.9908050301,4464098.215661337,5016629.587718772,-4286863.266536794,1476361.7639361625,5019912.1121099945,-275.6700421039256,-7418.524036261687,1940.7866096045784,5.520776554869361,-1.9013119710678192,-6.464824613004294,6758662.131393785,1.4214689475570224,-0.4612797986053505,-0.11659929349103627,0.5681217481438103,-2.8635139889401096,0.20735072981406807,-1.9580544039332959,-5.537436767092552E-4,-9.737659531371444E-4,-2.2298193581875576E-4,397992.35233573796,3.029429177110852E-12,968.7302897990858,5.520776554869361,-1.9013119710678192,-6.464824613004294
5520.0,388568.01341726794,4401566.329754943,5121331.948249969,-4293456.756324606,1028173.0312363488,5124636.716866681,55.97839988832351,-7515.329547906464,1548.6770880568247,5.5299107269298515,-1.3242722634819493,-6.600460062701629,6758662.116610036,1.4258442168040246,-0.45922707562169174,-0.11757042504103875,0.57777475696758,-2.8902822443976324,0.2601034773880222,-1.929102373660277,-5.618086633423712E-4,-9.690342731041681E-4,-2.231598000364269E-4,398226.90435227606,3.0984410301011437E-12,975.0349570202461,5.5299107269298515,-1.3242722634819493,-6.600460062701629
5580.0,-38673.271858421445,4322445.481103337,5202297.11920115,-4280150.240338573,575218.798218295,5205608.814521259,387.4077611209804,-7577.3113962539555,1149.341297504823,5.513474585143301,-0.7409680139589836,-6.705605356670716,6758662.098828159,1.430219486051027,-0.4570891437704929,-0.11866599528246614,0.5870686499913812,-2.916365153023053,0.3133025496645628,-1.901263737460265,-5.698150734329531E-4,-9.64256626243022E-4,-2.23267382839744E-4,398331.01436210825,3.185562542244158E-12,982.0850664898263,5.513474585143301,-0.7409680139589836,-6.705605356670716
5640.0,-466499.2700544966,4227111.449485255,5259146.761500049,-4247002.869896213,119598.15530474728,5262450.031940276,717.0851189433597,-7604.174052338848,744.6243348277121,5.471530770435773,-0.15408154318048223,-6.779760871752125,6758662.078368498,1.4345947552979816,-0.4548862275143701,-0.11987297433581973,0.5959999406779497,-2.941858742894594,0.36688987803192863,-1.8744633006955405,-5.777600067217526E-4,-9.594356467357671E-4,-2.2330479459865309E-4,398298.7983066948,3.291892695867338E-12,989.8703800687181,5.471530770435773,-0.15408154318048223,-6.779760871752125
5700.0,-893074.614607195,4115998.7269389066,5291613.985990714,-4194165.588980754,-336576.9168501634,5294893.516908946,1043.4848055462205,-7595.783562875907,336.3970577793926,5.404258421459697,0.4336856177004115,-6.8225679065128375,6758662.055597761,1.4389700245449362,-0.45263812587999575,-0.12117751761221209,0.6045668142258482,-2.96685523852216,0.4208122904414308,-1.8486349178848418,-5.856406413698099E-4,-9.545740368110871E-4,-2.2327218869237572E-4,398126.54504429386,3.4181794122875397E-12,998.3463116366052,5.404258421459697,0.4336856177004115,-6.8225679065128375
5760.0,-1316565.0761367322,3989598.5438573216,5299544.644311325,-4121880.4895048896,-791191.2692471113,5302785.2288779635,1365.0953840501784,-7552.168340918596,-73.45243111062378,5.311952631152179,1.019624811451852,-6.833810606873231,6758662.030921941,1.443345293791875,-0.4503641413208547,-0.1225650876377991,0.612769143033826,-2.991444182622954,0.4750209165842207,-1.8237215883399218,-5.934542361467463E-4,-9.496745630862652E-4,-2.2316976091479068E-4,397812.80334060354,3.564718059383167E-12,1007.430918163928,5.311952631152179,1.019624811451852,-6.833810606873231
5820.0,-1735145.4945568086,3848456.7052065665,5282898.106030019,-4030479.7492912346,-1242136.3320550127,5286084.715644266,1680.4265767974402,-7473.519228561269,-483.0273978829708,5.195023396653047,1.601032427550682,-6.813417279920748,6758662.004780192,1.447720563038782,-0.4480830147717779,-0.12402057986817945,0.6206084914131155,-3.0157137440508643,0.5294706531857799,-1.7996757558197047,-6.01198132428674E-4,-9.447400528144525E-4,-2.2299774880313558E-4,397358.4300221723,3.731313137635482E-12,1017.0086831931176,5.195023396653047,1.601032427550682,-6.813417279920748
5880.0,-2147007.7006713287,3693171.2458459544,5241747.517309865,-3920384.156549817,-1687319.8439445356,5244865.371238203,1988.0161154114346,-7360.188827841113,-890.4311506709905,5.053994061638649,2.1752221144658783,-6.761461084203532,6758661.977636848,1.4520958322856732,-0.4458128664838682,-0.1255284510822091,0.6280881093277356,-3.039752276781714,0.5841196815947947,-1.7764598975093213,-6.088697560018371E-4,-9.397733900484896E-4,-2.2275643089288545E-4,396766.5983694512,3.917319445575668E-12,1026.941018354722,5.053994061638649,2.1752221144658783,-6.761461084203532
5940.0,-2550368.393178328,3524389.9144368293,5176279.538618801,-3792101.226460503,-2124675.519292169,5179314.172535588,2286.4364821869362,-7212.690098970249,-1293.7757356880784,4.889499251985996,2.7395369812297363,-6.678160086830747,6758661.949973545,1.4564711015325642,-0.4435711421405691,-0.1270728489813161,0.635212915075888,-3.0636502340236977,0.6389290294341896,-1.7540475187638658,-6.164666186683041E-4,-9.347775117329822E-4,-2.2244612590188744E-4,396042.7664478591,4.121746423023845E-12,1037.0806980751977,4.889499251985996,2.7395369812297363,-6.678160086830747
6000.0,-2943476.9368992997,3342807.4959047306,5086793.561276538,-3646222.917290004,-2552172.609345359,5089730.894390768,2574.301512486949,-7031.69422807807,-1691.190617452729,4.702282307653434,3.291361736891348,-6.563876679904312,6758661.9222812,1.4608463707794237,-0.4413745637096555,-0.12863774167090702,0.6419894669520764,-3.0875025991693734,0.6938621674830588,-1.7324247219825215,-6.239863196513213E-4,-9.297554037360388E-4,-2.2206719184714294E-4,395194.6056991486,4.343383447687933E-12,1047.2860137960358,4.702282307653434,3.291361736891348,-6.563876679904312
6060.0,-3324623.0480870623,3149162.9828751534,4973700.404936463,-3483422.9552883897,-2967825.3136615655,4976526.805394247,2850.2728280576034,-6818.027769758027,-2080.831304645148,4.493192215738227,3.8281347153802296,-6.419116351158851,6758661.89505132,1.4652216400262512,-0.43923908445552984,-0.13020704576148567,0.6484259240583051,-3.1114120846865174,0.7488846318596382,-1.7115926033878015,-6.314265467983845E-4,-9.247100968323075E-4,-2.21620025097696E-4,394231.89074582077,4.580900243927355E-12,1057.4311008522961,4.493192215738227,3.8281347153802296,-6.419116351158851
6120.0,-3692144.332842745,2944236.606929131,4837520.500420639,-3304453.779403255,-3369701.9985479917,4840222.848679958,3113.066071534856,-6572.669072893549,-2460.887882756956,4.263180051854695,4.347359732415513,-6.244525806212281,6758661.868767657,1.4695969092745076,-0.43717984754039013,-0.13176475190983858,0.6545319965445255,-3.135493494471576,0.8039636595145406,-1.6915708731959174,-6.387850775808622E-4,-9.19644662648924E-4,-2.211050593674317E-4,393166.35198382614,4.832894287055877E-12,1067.410963455151,4.263180051854695,4.347359732415513,-6.244525806212281
