time,gePosition_m_X,gePosition_m_Y,gePosition_m_Z,eiPosition_m_X,eiPosition_m_Y,eiPosition_m_Z,eiVelocity_m_s_X,eiVelocity_m_s_Y,eiVelocity_m_s_Z,eiAccel_m_s2_X,eiAccel_m_s2_Y,eiAccel_m_s2_Z,semiMajorAxis_m,gast_rad,eulerAngle_rad_Roll,eulerAngle_rad_Pitch,eulerAngle_rad_Yaw,eulerAngleWrtEi_rad_Roll,eulerAngleWrtEi_rad_Pitch,eulerAngleWrtEi_rad_Yaw,bodyAngularRateWrtEi_rad_s_Roll,bodyAngularRateWrtEi_rad_s_Pitch,bodyAngularRateWrtEi_rad_s_Yaw,altitudeMsl_m,airDensity_kg_m3,ambientTemperature_dgK,eiGravitation_m_s2_X,eiGravitation_m_s2_Y,eiGravitation_m_s2_Z
0.0,-1428622.31112709,4163200.4655738,5136049.67204027,-4292653.41,955168.47,5139356.57,109.649663,-7527.72649,1484.521489,5.52898588897571,-1.23026784863548,-6.61955055897505,6758662.11722884,1.02331944621101,-0.0,-0.202458193231342,-0.0,-2.4715939053549,-0.0371889644761344,-1.42899313488854,0.0,-0.0011344542745508,0.0,398252.763838142,3.1122E-12,976.192653674721,5.52898588897571,-1.23026784863548,-6.61955055897505
60.0,-1789712.64932811,3920255.31452079,5213136.60277727,-4276130.7648331,501640.150725508,5216447.94650896,440.899463505259,-7584.04304242859,1084.18935646669,5.50841600844236,-0.646201635299396,-6.7197130881357,6758662.09728357,1.02769471546425,-2.3650619896E-6,-0.202456042649015,-1.006078454E-4,-2.47205929639209,0.0161204236657014,-1.38666117967647,-7.049068604E-7,-0.0011344779878485,-3.3028523725E-6,398335.161318886,3.2024E-12,983.369143350587,5.50841600844236,-0.646201635299396,-6.7197130881357
120.0,-2144732.03548779,3662345.31702348,5266057.23602157,-4239785.46975949,45786.4496808986,5269357.67524548,770.149774604623,-7605.20775086555,678.777160961835,5.46235954095881,-0.0589892294088966,-6.78881820191343,6758662.07468343,1.0320699847175,-2.5120015302E-5,-0.202449046940662,-4.002720000291E-4,-2.47030794868962,0.069280295155486,-1.34410218243724,-1.5682193696E-6,-0.0011344959082197,-6.6150804443E-6,398280.482444098,3.312E-12,991.275655150042,5.46235954095881,-0.0589892294088966,-6.78881820191343
180.0,-2492166.12768751,3390599.01292605,5294562.84569045,-4183783.26866868,-410279.479706065,5297837.07854007,1095.87675836575,-7591.11289278061,270.159130173778,5.3910144333873,0.528665862958804,-6.82653019134963,6758662.04983281,1.03644525395931,-9.17992059714E-5,-0.202436413930927,-8.945557437834E-4,-2.46631584574527,0.122194572973341,-1.30107628427383,-2.5897433372E-6,-0.0011345075693188,-9.9359390526E-6,398085.376744631,3.4417E-12,999.861373894616,5.3910144333873,0.528665862958804,-6.82653019134963
240.0,-2830524.94084677,3106195.87017659,5298517.60719004,-4108380.90980124,-864442.891886015,5301750.45103115,1416.57193262511,-7541.8131716141,-139.774651108183,5.29469445142012,1.11405497404944,-6.83265644918439,6758662.02317504,1.04082052320969,-2.259057170617E-4,-0.202417402444704,-0.001577414056718,-2.46003131186148,0.174763491620489,-1.25733917145186,-3.7692476845E-6,-0.0011345124437284,-1.32646764019E-5,397748.764112725,3.5916E-12,1009.03826067083,5.29469445142012,1.11405497404944,-6.83265644918439
300.0,-3158349.28263362,2810361.15422213,5277899.29094455,-4013925.01653193,-1314597.1967364,5281075.75268695,1730.74908869032,-7457.52566128301,-549.12686660604,5.17382804740182,1.69447645696028,-6.80714868355186,6758661.99518459,1.04519579246293,-4.507976331985E-4,-0.202391344948604,-0.0024412221061992,-2.45137463957029,0.226881529199867,-1.21263857867943,-5.1064639077E-6,-0.0011345099435635,-1.66005334892E-5,397271.876570026,3.7614E-12,1018.68603125027,5.17382804740182,1.69447645696028,-6.80714868355186
360.0,-3474217.1039731,2504360.63881286,5232799.43690006,-3900850.54543325,-1758653.68182538,5235904.78247945,2036.95112588352,-7338.62901854258,-956.001648282164,5.02895672058525,2.26724789962861,-6.75010350644741,6758661.966359,1.04957106170188,-7.89574515468E-4,-0.202357667706975,-0.0034768113525414,-2.44023743015857,0.278435208532751,-1.16671093064184,-6.6010854758E-6,-0.001134499421153,-1.9942743537E-5,396658.260184709,3.9505E-12,1028.66356474353,5.02895672058525,2.26724789962861,-6.75010350644741
420.0,-3776749.7367511,2189495.18044362,5163423.00788426,-3769678.83752198,-2194551.16543596,5166442.83059501,2333.75677249885,-7185.66196282213,-1358.51327238099,4.86073287104843,2.82971831987039,-6.66176238764002,6758661.93721041,1.05394633095227,-0.0012649645775441,-0.202315907699416,-0.004673513101705,-2.42648177762254,0.329300715754733,-1.11927819435689,-8.252767164E-6,-0.0011344801697988,-2.32905314375E-5,395913.736935911,4.1579E-12,1038.82359462442,4.86073287104843,2.82971831987039,-6.66176238764002
480.0,-4064617.99162882,1867095.17845175,5070087.52198599,-3621015.27041371,-2620265.53646375,5073007.80934936,2619.78716288014,-6999.32102621393,-1754.79483348532,4.66991715048671,3.3792802898799,-6.54251096692228,6758661.90825673,1.05832160020265,-0.0018992130702694,-0.202265725620016,-0.0060192092905759,-2.40993949275385,0.379341291876588,-1.07004508713299,-1.00611243258E-5,-0.0011344514246144,-2.66431132077E-5,395046.326950395,4.3822E-12,1049.02643408421,4.66991715048671,3.3792802898799,-6.54251096692228
540.0,-4336548.08798859,1538514.94467698,4953221.66642601,-3455546.52092101,-3033819.1375558,4956028.86528467,2893.71224057951,-6780.45757942164,-2143.00685793347,4.45737531518798,3.91338193756373,-6.39287771997447,6758661.8800128,1.06269686945303,-0.0027139723965493,-0.202206914368784,-0.0075003902507732,-2.39041166284383,0.428404365850198,-1.01869688984379,-1.20257321061E-5,-0.0011344123634425,-2.99996954594E-5,394066.132164236,4.6222E-12,1059.1494682127,4.45737531518798,3.91338193756373,-6.39287771997447
600.0,-4591327.38959885,1205127.00544407,4813363.39771534,-3274037.44942209,-3433289.94830196,4816044.47725178,3154.256957942,-6530.07414265908,-2521.34581773553,4.22407458869391,4.42953877121535,-6.21353197566533,6758661.85298132,1.06707213870913,-0.0037301944906032,-0.202139402551139,-0.0091022191619387,-2.36766898474829,0.476318421246715,-0.964898263413453,-1.41461245971E-5,-0.0011343621078543,-3.33594748843E-5,392985.183086827,4.8764E-12,1069.09131441938,4.22407458869391,4.42953877121535,-6.21353197566533
660.0,-4827809.91940085,868316.359478108,4651157.53523043,-3077327.61909164,-3816820.52592607,4653700.04761572,3400.20724297941,-6249.31999372123,-2888.05250607713,3.97107954393914,4.92534527336801,-6.00528128531866,6758661.8276445,1.0714474079538,-0.0049680260035558,-0.20206325262009,-0.0108086028756261,-2.34145350562307,0.522889629251059,-0.908293668414527,-1.64217939409E-5,-0.0011342997242303,-3.67216377576E-5,391817.25096093,5.1433E-12,1078.77149815285,3.97107954393914,4.92534527336801,-6.00528128531866
720.0,-5044921.62745804,529474.715964526,4467352.8576643,-2866327.46481431,-4182626.66175543,4469744.99605344,3630.41570505489,-5939.48608871275,-3241.4202356155,3.69954751703537,5.39848620922641,-5.7690681473378,6758661.80445512,1.07582267720419,-0.0064467068403027,-0.20197865342521,-0.0126022687664314,-2.31148266273773,0.567898347227422,-0.84851024962313,-1.88521893815E-5,-0.0011342242249244,-4.00853594607E-5,390577.628212454,5.4213E-12,1088.12740493618,3.69954751703537,5.39848620922641,-5.7690681473378
780.0,-5241665.38719309,189994.735560599,4262798.71413248,-2642014.12828695,-4529005.71277483,4265029.367734,3843.80705170305,-5601.99931420299,-3579.8028210659,3.41072356731228,5.8467475948966,-5.50596609358566,6758661.78382897,1.08019794645171,-0.0081844725892336,-0.201885907070212,-0.0144648472479773,-2.27745682365638,0.61109568578895,-0.785164361490176,-2.14367162689E-5,-0.001134134569512,-4.34498040266E-5,389282.880661963,5.7086E-12,1097.11021187066,3.41072356731228,5.8467475948966,-5.50596609358566
840.0,-5417125.69540673,-148735.701005493,4038441.16400663,-2405426.97744835,-4854344.56879571,4040499.96996657,4039.38318986181,-5238.41609286055,-3901.62230805406,3.10593500073212,6.26802727074275,-5.21717514705975,6758661.76613707,1.08457321569067,-0.0101984613760855,-0.201785410124122,-0.0163769595777381,-2.23907185201206,0.652200499964049,-0.71787323806903,-2.41747350201E-5,-0.001134029666123,-4.68141237082E-5,387950.575513191,6.0029E-12,1105.68094980367,3.10593500073212,6.26802727074275,-5.21717514705975
900.0,-5570473.05297211,-485339.1736047,3795318.66181098,-2157662.82994614,-5157127.21719277,3797196.05366548,4216.22798589533,-4850.41536789071,-4205.3764108795,2.78658547633519,6.66034502561969,-4.90401666365717,6758661.7516991,1.08894848494105,-0.0125046256551861,-0.20167762937654,-0.0183183105653819,-2.19603846560858,0.6908973697244,-0.646273555555516,-2.70655600399E-5,-0.001133908372861,-5.01774585723E-5,386598.989635584,6.3018E-12,1113.80732577019,2.78658547633519,6.66034502561969,-4.90401666365717
960.0,-5700968.0039766,-818454.329780197,3534557.305731,-1899870.90185104,-5435941.86877689,3536244.55819665,4373.51166004377,-4439.7909948322,-4489.64562270262,2.45414871793638,7.02185221849218,-4.5679275741774,6758661.74077752,1.09332375419143,-0.0151176494256612,-0.201563072472463,-0.0202677857941736,-2.14811012464414,0.726836396504885,-0.570048609285883,-3.01084586058E-5,-0.0011337694993105,-5.3538936122E-5,385246.803102096,6.6025E-12,1121.46130508489,2.45414871793638,7.02185221849218,-4.5679275741774
1020.0,-5807964.81242907,-1146741.39424387,3257365.67044087,-1633247.50424913,-5689487.61018199,3258854.94032843,4510.49479234534,-4008.44357244786,-4753.0999627398,2.11016185584928,7.35084084507188,-4.21045404613693,6758661.73357231,1.09769902344753,-0.0180508713265933,-0.201442253903338,-0.0222035529622517,-2.09512058408851,0.759635920356194,-0.488965225486745,-3.33026497209E-5,-0.0011336118081304,-5.68976709478E-5,383912.783319629,6.9018E-12,1128.61756905199,2.11016185584928,7.35084084507188,-4.21045404613693
1080.0,-5890914.75696244,-1468887.55927876,2965029.24704325,-1359030.51167341,-5916580.55014157,2966313.61009768,4626.53191863916,-3558.37174754258,-4994.50532632921,1.7562184259436,7.64575199860366,-3.83324458844181,6758661.73021729,1.10207429269791,-0.0213162140241796,-0.201315656965478,-0.0241031669495722,-2.03703067030618,0.788889470332977,-0.402919955980441,-3.66473029402E-5,-0.0011334340167387,-6.02527644107E-5,382615.465383238,7.196E-12,1135.25252002311,1.7562184259436,7.64575199860366,-3.83324458844181
1140.0,-5949369.0255415,-1783612.23328124,2658904.51491753,-1078493.62756928,-6116159.42921057,2659977.99840582,4721.07469696978,-3091.66303153943,-5212.72940521722,1.39396105581728,7.90518367582704,-3.43804262545375,6758661.73077699,1.10644956193401,-0.024924120256627,-0.201183692421693,-0.025943678215386,-1.97398095880797,0.814178242766206,-0.311991222376339,-4.01415371736E-5,-0.0011332347990845,-6.36033043587E-5,381372.834482687,7.4813E-12,1141.34371041246,1.39396105581728,7.90518367582704,-3.43804262545375
1200.0,-5982981.19379043,-2089672.12623764,2340412.67218212,-792940.473114066,-6287290.66484504,2341270.28306967,4793.67462657429,-2610.48416951606,-5406.7471471125,1.02507387025696,8.12789788143472,-3.02667857046004,6758661.73524533,1.11082483119011,-0.0288834958495962,-0.201046654714169,-0.0277017441288644,-1.90634289384416,0.835089944885254,-0.21648994137914,-4.3784419472E-5,-0.0011330127875123,-6.69483648785E-5,380202.016280274,7.7536E-12,1146.86952006513,1.02507387025696,8.12789788143472,-3.02667857046004
1260.0,-5991509.27187577,-2385866.15246474,2011033.05327538,-503698.52672061,-6429172.80627696,2011670.80185219,4843.98530363132,-2117.07110512544,-5575.64572545761,0.651274650443778,8.31282698705624,-2.60106143198231,6758661.74354475,1.11520010044049,-0.0332016599581058,-0.200904676673659,-0.0293537428307628,-1.83475644232819,0.851243752446994,-0.116996715663056,-4.75749638001E-5,-0.0011327665747159,-7.02870060841E-5,379118.981150036,8.0086E-12,1151.80893687816,0.651274650443778,8.31282698705624,-2.60106143198231
1320.0,-5974817.30763482,-2671040.1288372,1672296.26384077,-212112.942440704,-6541140.376304,1672711.1826797,4871.76420008499,-1613.71858737182,-5718.62899247554,0.274306783505126,8.45907930390685,-2.16316998969894,6758661.75552736,1.11957536967945,-0.0378843027315611,-0.200757683749664,-0.0308758892155256,-1.76013975298198,0.862319404231171,-0.0143710540082631,-5.1512129803E-5,-0.0011324947157839,-7.36182739451E-5,378138.268014089,8.2422E-12,1156.1412709762,0.274306783505126,8.45907930390685,-2.16316998969894
1380.0,-5932876.53462348,-2944091.2510701,1325777.06464887,80459.7237614997,-6622667.07994405,1325967.22280001,4876.87395411184,-1102.76946756063,-5835.02139085211,-0.104068959010947,8.56594383175708,-1.71504357997362,6758661.7709771,1.12395063893269,-0.0429354505385743,-0.200605348846363,-0.0322443526100032,-1.6836583329902,0.868086472339898,0.0902798735298352,-5.55948215695E-5,-0.0011321957303366,-7.69412001555E-5,377272.733225943,8.4502E-12,1159.84635131069,-0.104068959010947,8.56594383175708,-1.71504357997362
1440.0,-5865766.05594919,-3203972.33023112,973087.037693109,372657.850280756,-6673368.3628679,973051.550040724,4859.28316316887,-586.603736867122,-5924.27130190702,-0.482082773381987,8.63289415078309,-1.25877253403946,6758661.78961289,1.12832590818593,-0.0483574388297997,-0.20044704888794,-0.0334353757062411,-1.60664972749718,0.868428418293824,0.195676966068391,-5.98218864011E-5,-0.0011318681047543,-8.02548020443E-5,376533.32953401,8.6288E-12,1162.90550094807,-0.482082773381987,8.63289415078309,-1.25877253403946
1500.0,-5773673.05760386,-3449695.77141831,615867.068845134,663121.118631164,-6693003.30560865,615606.100576503,4819.06667302934,-67.6273568479075,-5985.95381077664,-0.857964264765163,8.65959142713232,-0.796488314746369,6758661.81109335,1.13270117743631,-0.0541508926615373,-0.200281824253422,-0.0344253942813542,-1.53051299583076,0.863356113269028,0.300480119652833,-6.41921135897E-5,-0.0011315102944968,-8.35580825316E-5,375928.919615596,8.7747E-12,1165.30230327305,-0.857964264765163,8.65959142713232,-0.796488314746369
1560.0,-5656892.54616047,-3680337.28004429,255779.682539637,950496.884320943,-6681475.84273487,255294.448698446,4756.40535876903,451.739063167348,-6019.77287196556,-1.22995093383857,8.64588650766453,-0.330353400403851,6758661.83502274,1.13707644668384,-0.060314714852687,-0.200108342214318,-0.0351911572072296,-1.45658485105687,0.853007508581553,0.403412490991037,-6.87042332112E-5,-0.0011311207265133,-8.68500301296E-5,375466.128009766,8.885E-12,1167.02315836302,-1.22995093383857,8.64588650766453,-0.330353400403851
1620.0,-5515826.60850063,-3895039.28095807,-105498.735131871,1233446.51930293,-6638835.29945244,-106205.975011604,4671.58539629038,969.071686541164,-6025.56286160841,-1.59629666477513,8.59182108426951,0.13744903339713,6758661.86095793,1.14145171592279,-0.0668460817041824,-0.199924865477461,-0.0357098462173638,-1.386029478339,0.837633525759827,0.503371086758166,-7.33569149417E-5,-0.0011306978017434,-9.01296189915E-5,375149.234512548,8.9578E-12,1168.05771079362,-1.59629666477513,8.59182108426951,0.13744903339713
1680.0,-5350983.19357143,-4093014.03707256,-466285.787812468,1510651.69545757,-6565276.24144759,-467211.739972172,4564.99702565186,1481.95491136703,-6003.28950589889,-1.95528016955431,8.49762791338779,0.604725581052412,6758661.88841596,1.14582698517889,-0.0737404461745226,-0.199729226881178,-0.0359591948580067,-1.31976376982,0.817573594069086,0.599501945691421,-7.81487669013E-5,-0.0011302398977062,-9.33958090084E-5,374980.111246903,8.9917E-12,1168.39918886734,-1.95528016955431,8.49762791338779,0.604725581052412
1740.0,-5162974.41764667,-4273546.45670123,-824900.957114271,1780820.57872253,-6461137.63718409,-826041.308692975,4437.13281018346,1987.9928170988,-5953.05017837239,-2.30521334318834,8.36373008182636,1.06928316866232,6758661.91688308,1.15020225442927,-0.0809915483793044,-0.199518811214779,-0.0359176060076714,-1.25842708545743,0.793226210868653,0.691230808916919,-8.30783345329E-5,-0.001129745371178,-9.66475459579E-5,374958.204706124,8.9865E-12,1168.04468180033,-2.30521334318834,8.36373008182636,1.06928316866232
1800.0,-4952514.39859269,-4435996.577845,-1179673.48971405,2042693.90380385,-6326901.33529806,-1181022.92866005,4288.58539809964,2484.82053842247,-5875.073562049,-2.64444948434,8.19073931562716,1.52893965421298,6758661.94582431,1.15457752367966,-0.0885914332661922,-0.199290545031075,-0.0355642673043222,-1.20239137481287,0.765019903537339,0.778253448368709,-8.81440995228E-5,-0.0011292125609568,-9.98837617027E-5,375080.563115816,8.9426E-12,1166.99537391289,-2.64444948434,8.19073931562716,1.52893965421298
1860.0,-4720416.62485417,-4579801.72216971,-1528950.24518974,2295050.89988777,-6163189.863178,-1530502.48487165,4120.04479604658,2970.11550900108,-5769.71867583334,-2.9713913360461,7.97945333455607,1.98153440928034,6758661.97469315,1.15895279293004,-0.0965304753108342,-0.199040895199953,-0.0348792637755177,-1.15179910436384,0.733388499076516,0.860498213614106,-9.33444787681E-5,-0.0011286397907108,-1.031033744428E-4,375341.908495953,8.8613E-12,1165.25674958594,-2.9713913360461,7.97945333455607,1.98153440928034
1920.0,-4467590.86876454,-4704478.31068442,-1871103.46654379,2536715.03842041,-5970763.55625127,-1872851.27494794,3932.29516672249,3441.60851805456,-5637.47326800306,-3.2844989018444,7.73085226068574,2.42493882477066,6758662.00294199,1.16332806216899,-0.104797410083041,-0.198765876810004,-0.0338436869250582,-1.10661447031368,0.698752609535358,0.93807532203117,-9.86778233993E-5,-0.00112802537191,-1.063052890215E-4,375734.751856237,8.7449E-12,1162.8387787495,-3.2844989018444,7.73085226068574,2.42493882477066
1980.0,-4195039.65570493,-4809623.33542829,-2204538.43563253,2766559.57482996,-5750517.03090176,-2206473.66901125,3726.21116536547,3897.094523423,-5478.95158307243,-3.58229699353383,7.44609409549049,2.85706668309125,6758662.03003271,1.16770333142223,-0.11337937254466,-0.198461070866952,-0.0324397394938931,-1.06667603996873,0.661507524145863,1.01122475421716,-1.041424178645E-4,-0.0011273676068379,-1.094883972854E-4,376249.549052278,8.5961E-12,1159.75608960632,-3.58229699353383,7.44609409549049,2.85706668309125
2040.0,-3903854.30188525,-4894915.48395864,-2527700.97620047,2983512.85703261,-5503475.0172953,-2529814.61701417,3502.75383249262,4334.44316580476,-5294.89151176632,-3.86338246807597,7.12650928579563,3.27588433946179,6758662.05544718,1.17207860067547,-0.122261941960936,-0.198121652064346,-0.0306508350845305,-1.03174341956706,0.622016628957735,1.08027016167671,-1.097364790806E-4,-0.0011266647916807,-1.126515785006E-4,376874.893992506,8.4183E-12,1156.0281329825,-3.86338246807597,7.12650928579563,3.27588433946179
2100.0,-3595210.53768045,-4960115.91312585,-2839084.76790516,3186563.37468131,-5230787.5716672,-2841366.96687978,3262.96606277724,4751.60893025759,-5086.15113725727,-4.12643111276603,6.77359440477198,3.67942065583386,6758662.07869727,1.17645386991157,-0.131429193331969,-0.19774242671739,-0.0284616918205025,-1.00153466918789,0.580609036582268,1.14558207098831,-1.154581556603E-4,-0.0011259152196897,-1.157936998247E-4,377597.745136739,8.2155E-12,1151.67934084389,-4.12643111276603,6.77359440477198,3.67942065583386
2160.0,-3270363.73402896,-5005068.67193478,-3137238.43560673,3374764.52438259,-4933724.69081102,-3139678.55770834,3007.96767234615,5146.64090279418,-4853.70469417624,-4.3702041397509,6.38900497987601,4.06577663208431,6758662.09933446,1.1808291391591,-0.140863755279545,-0.197317880756932,-0.0258584192077407,-0.975754049617838,0.537580105146178,1.20755080414478,-1.213055272199E-4,-0.0011251171844158,-1.189136168361E-4,378403.680586387,7.9916E-12,1146.73927949208,-4.3702041397509,6.38900497987601,4.06577663208431
2220.0,-2930643.75116573,-5029700.77480881,-3420772.37928584,3547239.06751221,-4613670.35457666,-3423359.05339471,2738.95008904814,5517.69207198458,-4598.63796018079,-4.59355425323713,5.9745475051513,4.43313468078131,6758662.11695908,1.18520440840948,-0.150546874352884,-0.196842237482205,-0.0228285973753504,-0.9541112435909,0.493193742486036,1.26656797673102,-1.272766037752E-4,-0.0011242689830089,-1.220101741194E-4,379277.176545563,7.7511E-12,1141.24279479677,-4.59355425323713,5.9745475051513,4.43313468078131
2280.0,-2577449.43294854,-5034021.92673838,-3688365.31123373,3703183.25879771,-4272116.02512076,-3691086.48328221,2457.17069236832,5863.02812788183,-4322.14310302703,-4.79543125529348,5.53217068057312,4.77976749387736,6758662.1312281,1.18957967766558,-0.160458485742651,-0.196309524570769,-0.0193613479012845,-0.936333786126099,0.447685674123789,1.32301484245315,-1.333693252322E-4,-0.0011233689195811,-1.250822059088E-4,380201.903540677,7.4983E-12,1135.23014106101,-4.79543125529348,5.53217068057312,4.77976749387736
2340.0,-2212242.7695596,-5018123.90515078,-3938770.46862654,3841870.62549673,-3910653.63443331,-3941613.45794814,2163.94683162571,6181.03571329869,-4025.51300911859,-4.9748871589871,5.06395592607532,5.10404645214527,6758662.14186245,1.1939549469131,-0.170577290412353,-0.195713649646515,-0.0154473954755268,-0.922174460410823,0.401267116432826,1.37725572945899,-1.395815609793E-4,-0.0011224153086262,-1.281285367886E-4,381161.034528372,7.2373E-12,1128.74707466662,-4.9748871589871,5.06395592607532,5.10404645214527
2400.0,-1836542.75479934,-4982179.60368046,-4170821.47123914,3962655.37877179,-3530968.09427453,-4173773.02986053,1860.64955287496,6470.23008546171,-3710.13512237324,-5.13108078067379,4.57210722250548,5.4044495310186,6758662.14865259,1.19833021615206,-0.180880838666975,-0.195048483515558,-0.0110791197204133,-0.911415169532024,0.354128505820047,1.429635057967,-1.459111095859E-4,-0.0011214064784925,-1.311479824508E-4,382137.558895156,6.9722E-12,1121.84487627985,-5.13108078067379,4.57210722250548,5.4044495310186
2460.0,-1451918.96468358,-4926441.7452565,-4383437.79586478,4064975.44073719,-3134829.36507733,-4386484.17045838,1548.69706652685,6729.26214933182,-3377.48482493401,-5.26328178656045,4.05894033595641,5.67956865969815,6758662.15146305,1.2027054854053,-0.191345620177638,-0.194307949999293,-0.0062505965752569,-0.903868466783819,0.306443086199658,1.48047675322365,-1.523556986154E-4,-0.0011203407749018,-1.34139350509E-4,383114.59635457,6.7068E-12,1114.58023915145,-5.26328178656045,4.05894033595641,5.67956865969815
2520.0,-1059984.88567801,-4851241.27311297,-4575629.84097242,4148355.07261653,-2724084.12259001,-4578756.837174,1229.54798909066,6956.9248273827,-3029.11839373549,-5.37087417213948,3.5268714856855,5.92811649391188,6758662.15023523,1.20708075465283,-0.201947160465741,-0.193486121127816,-9.576287600941E-4,-0.899377613586829,0.258370258977042,1.53008517705292,-1.589129845571E-4,-0.0011192165645095,-1.371014413692E-4,384075.704868832,6.4446E-12,1107.01492634645,-5.37087417213948,3.5268714856855,5.92811649391188
2580.0,-662391.023467915,-4756985.42939884,-4746503.55724208,4212407.09149038,-2300647.06303543,-4749696.60602691,904.694393617985,7152.158734342,-2666.6655691999,-5.45335915672526,2.97840551911791,6.14893256652845,6758662.14498909,1.21145602389464,-0.212660123818482,-0.192577316309332,0.0048022350400583,-0.897815772156278,0.210058664193582,1.57874695683733,-1.655805528837E-4,-0.0011180322384994,-1.400330491557E-4,385005.176953136,6.1885E-12,1099.21506235992,-5.45335915672526,2.97840551911791,6.14893256652845
2640.0,-260817.822317464,-4644155.53315164,-4895264.62185471,4256834.66521792,-1866491.88933674,-4898508.84765589,575.654704381339,7314.05712929601,-2291.82177436469,-5.51035747906719,2.41612366021154,6.34098878428714,6758662.13582252,1.21583129314788,-0.223458422559095,-0.191576203965372,0.011029692485328,-0.899084737115069,0.161648999534633,1.62673328487548,-1.723559182383E-4,-0.001116786216206,-1.429329626908E-4,385888.319047608,5.9413E-12,1091.24990028145,-5.51035747906719,2.41612366021154,6.34098878428714
2700.0,143031.57284523,-4513304.47008344,-5021222.13676554,4281432.67727136,-1423642.02249521,-5024502.42700993,243.966472048556,7441.87012160556,-1906.34002452046,-5.54161108382915,1.84267089971204,6.50339424317472,6758662.12291002,1.22020656239826,-0.234315332528709,-0.1904779040213,0.0177236914426532,-0.903113459590058,0.113276604314671,1.67430239955725,-1.792365247581E-4,-0.0011154769487581,-1.457999665286E-4,386711.709054502,5.7052E-12,1083.18992344677,-5.54161108382915,1.84267089971204,6.50339424317472
2760.0,547438.678125686,-4365053.90793738,-5123791.83363815,4286088.65541394,-974161.083493821,-5127092.90936906,-88.8209338890694,7535.00811124645,-1512.02256895414,-5.54698419258331,1.26074309753823,6.63539933941283,6758662.10649911,1.22458183164864,-0.245203614553754,-0.189278089569224,0.0248814452876429,-0.90985650771881,0.0650738445527194,1.72170205291211,-1.862197465376E-4,-0.0011141029227348,-1.486328420401E-4,387463.427618295,5.4819E-12,1075.1042378811,-5.54698419258331,1.26074309753823,6.63539933941283
2820.0,950677.123468975,-4200091.25244149,-5202498.77065042,4270783.26036617,-520143.19213687,-5205805.2579012,-421.153678411603,7593.04444843998,-1110.71230763833,-5.52646375681654,0.673073868695678,6.73639915756677,6758662.08690527,1.22895710090188,-0.256095641574418,-0.187973085978471,0.0324984593609429,-0.919292527544434,0.0171723369404682,1.7691718269986,-1.933028882366E-4,-0.0011126626638276,-1.514303685485E-4,388133.259266151,5.2728E-12,1067.0574139414,-5.52646375681654,0.673073868695678,6.73639915756677
2880.0,1351020.16235728,-4019166.35966666,-5256979.50898238,4235590.33282989,-63703.130014639,-5260276.01056228,-751.480822929464,7615.71730174355,-704.284026678777,-5.48015929426379,0.0824213247233335,6.80593612190559,6758662.06450623,1.23333237013798,-0.266963530998384,-0.186559965718934,0.0405685681176013,-0.931422708190663,-0.0302949536369427,1.81694519274257,-2.004831858369E-4,-0.0011111547404997,-1.541913245128E-4,388712.860110166,5.0787E-12,1059.10621578133,-5.48015929426379,0.0824213247233335,6.80593612190559
2940.0,1746748.20380381,-3823088.02176794,-5286983.75944517,4180676.49945697,393033.584697814,-5290254.92679721,-1078.26165903941,7602.93072809623,-294.635497024986,-5.40830211362295,-0.508445257261237,6.84370190178923,6758662.03973384,1.23770763938837,-0.277779281723725,-0.185036637185748,0.0490839823368575,-0.946269207215159,-0.0771917150539201,1.86525121555202,-2.077578075508E-4,-0.0011095777676338,-1.569144887575E-4,389195.889429757,4.9001E-12,1051.29690358925,-5.40830211362295,-0.508445257261237,6.84370190178923
3000.0,2136156.33346132,-3612720.24342232,-5292375.49239269,4106300.34055171,847940.662637682,-5295606.09718374,-1399.97297762311,7554.75494262709,116.321518636736,-5.31124393633715,-1.0967587663257,6.84953856648012,6758662.01306591,1.24208290863875,-0.288514915148589,-0.183401925870087,0.0580353455987072,-0.963873450325502,-0.123376369200803,1.9143158069156,-2.151238548851E-4,-0.0011079304101601,-1.595986417462E-4,389578.103095658,4.7368E-12,1043.66383389218,-5.31124393633715,-1.0967587663257,6.84953856648012
3060.0,2517561.78831149,-3388978.32760838,-5273133.5067565,4012811.12446461,1298901.00087414,-5276308.51186175,-1715.11623746068,7471.42579030163,526.670305749323,-5.18945492762118,-1.6797675196915,6.8234389893376,6758661.98501632,1.2464581778777,-0.299142619358702,-0.181655646309806,0.0674117990883909,-0.984294180221969,-0.168700228488507,1.96436240362256,-2.225783638623E-4,-0.0011062113866556,-1.622425668963E-4,389857.407454196,4.5886E-12,1036.22980112298,-5.18945492762118,-1.6797675196915,6.8234389893376
3120.0,2889311.35169198,-3152824.78956903,-5229351.45674428,3900647.11576102,1743816.58502841,-5232456.08629215,-2022.22459836252,7353.34342567662,934.498239583527,-5.04352115222985,-2.25474838577993,6.76554650580646,6758661.95612505,1.25083344713094,-0.309634895560959,-0.179798663373733,0.0772010536665844,-1.00760509005141,-0.213005739607106,2.01561192918394,-2.301183064016E-4,-0.0011044194729047,-1.648450519328E-4,390033.872957247,4.4547E-12,1029.00803300921,-5.04352115222985,-2.25474838577993,6.76554650580646
3180.0,3249788.63539916,-2905265.11797787,-5161237.33742465,3770333.46631877,2180618.28867141,-5164257.14557313,-2319.86978484764,7201.07021112502,1337.90578423714,-4.87414147359282,-2.81901970114637,6.67615383392077,6758661.92694715,1.25520871638133,-0.319964705717154,-0.177832941582375,0.0873894680459858,-1.03389183779296,-0.256124848444385,2.06828185893932,-2.377405918609E-4,-0.0011025535054127,-1.674048902765E-4,390109.707490727,4.3344E-12,1022.00523754165,-4.87414147359282,-2.81901970114637,6.67615383392077
3240.0,3597421.21503156,-2647343.40371181,-5069112.43307395,3622479.70051085,2607275.52351743,-5072033.37119682,-2606.66874760247,7015.32784785568,1735.01540505121,-4.6821239178474,-3.36995391647488,6.55570127017351,6758661.89804204,1.25958398563171,-0.330105620231571,-0.175761581342662,0.0979621318487183,-1.06324820159631,-0.297877547728405,2.12258417626971,-2.454420687406E-4,-0.0011006123848618,-1.699208824659E-4,390089.190019129,4.2266E-12,1015.22486800346,-4.6821239178474,-3.36995391647488,6.55570127017351
3300.0,3930687.58715792,-2380137.85571945,-4953409.73476658,3457776.80755584,3021805.69490686,-4956218.21673581,-2881.29009132742,6796.99375786064,2123.9803514491,-4.46838152697192,-3.90498990955395,6.40477417751957,6758661.86996223,1.26395925488209,-0.340031964463101,-0.173588841171633,0.108902952286937,-1.09577110916839,-0.338070702950991,2.17872198034933,-2.532195265497E-4,-0.0010985950794999,-1.723918376071E-4,389978.565817845,4.1305E-12,1008.66989337228,-4.46838152697192,-3.90498990955395,6.40477417751957
3360.0,4248123.91663328,-2104756.22439419,-4814671.83623554,3276993.95595652,3422283.41826907,-4817354.80149662,-3142.46023910424,6547.09673855761,2502.99326832215,-4.2339277276419,-4.42164490624667,6.22409978595859,6758661.84324257,1.26833452412105,-0.349718962770523,-0.17132014519923,0.120194743212796,-1.13155426823307,-0.376497292120381,2.23688449842523,-2.61069697833E-4,-0.0010965006284529,-1.74816574849E-4,389785.905204033,4.045E-12,1002.34468947286,-4.2339277276419,-4.42164490624667,6.22409978595859
3420.0,4548330.54373754,-1822331.15293452,-4653548.31950313,3080974.84669032,3806849.45366646,-4656093.29365111,-3388.96930508105,6266.81191533301,2870.29459541614,-3.97987124458652,-4.91752595386006,6.01454332955856,6758661.81838978,1.27270979337429,-0.359142878761312,-0.168962075469365,0.131819315324285,-1.1706801573112,-0.412936238783289,2.29724028579029,-2.6898926036E-4,-0.0010943281449505,-1.771939248806E-4,389520.928294747,3.969E-12,996.255997305846,-3.97987124458652,-4.91752595386006,6.01454332955856
3480.0,4829978.2224461,-1534015.47610325,-4470792.6441673,2870633.72345424,4173719.31713131,-4473187.79674412,-3619.676649056,5957.45502041923,3224.18071569987,-3.70741058911008,-5.39034089496547,5.77710354691568,6758661.79587303,1.27708506262181,-0.368281150401226,-0.166522348796286,0.143757566389679,-1.21321022992028,-0.447153060578386,2.35992848813756,-2.769748394712E-4,-0.0010920768194547,-1.795227314458E-4,389194.798909698,3.9018E-12,990.413106993324,-3.70741058911008,-5.39034089496547,5.77710354691568
3540.0,5091814.06143549,-1240977.4876004,-4267258.55651926,2646951.05979583,4521191.52930403,-4269492.7557668,-3833.51608843057,5620.47602954118,3563.01181540362,-3.41782815505512,-5.83790879357527,5.51290757488336,6758661.77611451,1.28146033186077,-0.3771125186547,-0.164009778174827,0.155989570462569,-1.25917336741955,-0.478901588280454,2.42504822073829,-2.850230105826E-4,-0.0010897459226833,-1.818018528707E-4,388819.891289143,3.8422E-12,984.827504497861,-3.41782815505512,-5.83790879357527,5.51290757488336
3600.0,5332667.14194646,-944396.195063415,-4043896.03685018,2410968.94437479,4847655.46385177,-4045958.90116875,-4029.50074498127,5257.45219053411,3885.21942028279,-3.11248395582355,-6.25816976959431,5.2232052679358,6758661.75948209,1.28583560110829,-0.385617148364561,-0.161434218984288,0.168494665198653,-1.30855290907007,-0.507927018892328,2.49264640995055,-2.931303018425E-4,-0.0010873348085156,-1.840301636014E-4,388409.533805668,3.7895E-12,979.512206748215,-3.11248395582355,-6.25816976959431,5.2232052679358
3660.0,5551453.78753679,-645456.58217683,-3801746.80537066,2163786.18689144,5151598.76027539,-3803628.75124858,-4206.72750594949,4870.08048065509,4189.31357467195,-2.79280903714345,-6.64919420159552,4.90936297775444,6758661.74628237,1.29021087036154,-0.393776740142327,-0.158806500461069,0.181251536548718,-1.36127299856516,-0.533970532359776,2.56270485113741,-3.012931969382E-4,-0.001084842916774,-1.862065557461E-4,387977.734301182,3.7427E-12,974.480959578794,-2.79280903714345,-6.64919420159552,4.90936297775444
3720.0,5747182.46239277,-345344.897472026,-3541939.40910804,1906553.16838539,5431614.26798551,-3543631.69530546,-4364.38108105517,4460.16953158253,4473.88963202901,-2.46029860107736,-7.0091912621683,4.57285682953656,6758661.736755,1.29458613960906,-0.401574632125582,-0.156138343141174,0.194238300284183,-1.4171854847293,-0.556775604847436,2.63512773360117,-3.095081380485E-4,-0.0010822697758699,-1.883299406167E-4,387538.892068856,3.701E-12,969.747414630927,-2.46029860107736,-7.0091912621683,4.57285682953656
3780.0,5918958.27681593,-45243.9883441779,-3265683.91395774,1640466.46064734,5686406.49092984,-3267178.68174571,-4501.73763918901,4029.63106311663,4737.63462790861,-2.11650487732462,-7.33651675431632,4.21526553312937,6758661.73106904,1.29896140886516,-0.408995890564169,-0.15344226318628,0.20743258000486,-1.47605911533258,-0.576095977112738,2.7097313826803,-3.177715289359E-4,-0.0010796150053051,-1.903992502672E-4,387107.501811652,3.6634E-12,965.324353052679,-2.11650487732462,-7.33651675431632,4.21526553312937
3840.0,6065987.08020298,253671.302399646,-2974266.22773757,1366763.24039618,5914797.50456898,-2975556.5370124,-4618.16801070993,3580.47086835711,4979.33320863068,-1.76302977818872,-7.62968022160013,3.838262768397,6758661.72931991,1.30333667810126,-0.416027388319061,-0.150731464702966,0.220811581476016,-1.53757311821262,-0.591704984430248,2.78623832289174,-3.260797381731E-4,-0.0010768783180206,-1.924134390227E-4,386697.855133729,3.6292E-12,961.222989189238,-1.76302977818872,-7.62968022160013,3.838262768397
3900.0,6187579.12361906,550238.658416069,-2669042.0816258,1086715.52465268,6115732.31961124,-2670121.94273831,-4713.14044346269,3114.77939464914,5197.87309130655,-1.40151737367402,-7.88735130888998,3.44360918524282,6758661.73152878,1.30771194735164,-0.422657870493831,-0.148019721341104,0.234352163335611,-1.60131728046595,-0.603405651318077,2.86427778124913,-3.34429102498E-4,-0.0010740595225836,-1.943714849939E-4,386323.745248545,3.5976E-12,957.452365493581,-1.40151737367402,-7.88735130888998,3.44360918524282
3960.0,6283152.27607586,843312.715676589,-2351430.69875083,801624.254388621,6288283.66961294,-2352295.09991032,-4786.22290281425,2634.72196585162,5392.25003333357,-1.03364622306326,-8.10836535468609,3.03314405944986,6758661.73764219,1.31208721660202,-0.428878006565717,-0.145321248612506,0.248030904395733,-1.66680013968743,-0.611040659369155,2.94339425195052,-3.428159302884E-4,-0.001071158525205,-1.962723915743E-4,385998.180608043,3.5677E-12,954.018837326922,-1.03364622306326,-8.10836535468609,3.03314405944986
4020.0,6352234.78054206,1131769.37404334,-2022908.17993759,512813.25404661,6431656.20231716,-2023553.11007109,-4837.08490818172,2142.52869250564,5561.5722919551,-0.661121599023855,-8.29172819994569,2.60877664598138,6758661.7475343,1.31646248583812,-0.434680428538,-0.142650568502325,0.261824167927281,-1.73346583075065,-0.614501095295652,3.02306467213983,-3.512365051512E-4,-0.0010681753315789,-1.981151889127E-4,385733.113065391,3.5389E-12,950.925639969789,-0.661121599023855,-8.29172819994569,2.60877664598138
4080.0,6394467.53782931,1414509.98028355,-1685000.63770561,221623.094913383,6545190.0574219,-1685423.10467411,-4865.49890067305,1640.48411726777,5705.0645569891,-0.285667639820052,-8.43662020220784,2.17247727162745,6758661.7610096,1.3208377550885,-0.440059754795323,-0.140022368052944,0.275708163458179,-1.8007186307128,-0.613732865967489,3.10272325666481,-3.596870896147E-4,-0.0010651100485381,-1.998989353585E-4,385539.185971447,3.5104E-12,948.172527417219,-0.285667639820052,-8.43662020220784,2.17247727162745
4140.0,6409605.90821533,1690465.36892499,-1339277.1105509,-70595.1094120432,6628363.81632927,-1339475.15464567,-4871.34113857966,1130.91664353356,5822.07134234384,0.0909805354148886,-8.54239944750454,1.7262682089034,6758661.77780738,1.32521302433889,-0.44501259950641,-0.137451353681895,0.28965900672733,-1.86795267644783,-0.608739879071771,-3.10139383616382,-3.681639289185E-4,-0.0010619628855173,-2.016227188739E-4,385425.507275155,3.4817E-12,945.755471560684,0.0909805354148886,-8.54239944750454,1.7262682089034
4200.0,6397521.02323155,1958599.74565612,-987342.290331555,-362485.947080496,6680796.81231413,-987314.992995383,-4854.59211953402,616.187795520985,5912.05982444913,0.467084714143538,-8.6086041560765,1.2722143729309,6758661.7976073,1.32958829359213,-0.449537567581706,-0.134952103051355,0.303652778515421,-1.93458317458775,-0.599583514426425,-3.0234758412349,-3.76663254888E-4,-0.00105873415582,-2.032856584079E-4,385399.452249314,3.452E-12,943.66640990411,0.467084714143538,-8.6086041560765,1.2722143729309
4260.0,6358200.601586,2217914.40206496,-630829.096214139,-652695.963200241,6702250.79245153,-630576.583953985,-4815.33653017321,98.6813582206248,5974.6221182255,0.840911447285108,-8.63495428126386,0.812413882681366,6758661.82003589,1.33396356284251,-0.453635235355528,-0.132538916336997,0.317665583116723,-2.0000750789545,-0.586378458327763,-2.94722035489173,-3.851812898865E-4,-0.0010554242776814,-2.048869052287E-4,385466.499903525,3.4211E-12,941.893029138337,0.840911447285108,-8.63495428126386,0.812413882681366
4320.0,6291749.26562674,2467451.24921488,-271391.129126145,-939879.897915044,6692630.9255464,-270914.572605686,-4753.76272612111,-419.207554438643,6009.47698368204,1.21073984308334,-8.62135230410507,0.348988527456243,6758661.8446738,1.33833883208147,-0.457308117321332,-0.130225668748333,0.331673607222185,-2.06396580142451,-0.569285501435191,-2.8730692224139,-3.93714250833E-4,-0.0010520337751235,-2.064256442092E-4,385630.106486239,3.3884E-12,940.418569991911,1.21073984308334,-8.62135230410507,0.348988527456243
4380.0,6198388.35674007,2706296.15924887,89304.9589983928,-1222706.87930418,6651986.15320319,90003.3506762946,-4670.16174701516,-935.083455101671,6016.47095866825,1.57486926661698,-8.567883229154,-0.115925821154968,6758661.87106418,1.34271410133185,-0.460560619403281,-0.128025666131712,0.345653179953662,-2.12587983632709,-0.548502277025904,-2.80137906993985,-4.022583532748E-4,-0.0010485632785985,-2.079010950609E-4,385891.61873081,3.3537E-12,939.226289904015,1.57486926661698,-8.567883229154,-0.115925821154968
4440.0,6078455.24976261,2933582.10592132,449587.146696774,-1499866.54339528,6580508.88404809,450504.136485961,-4564.92587315301,-1446.56141448539,5995.57891569692,1.93162691466751,-8.47481378981177,-0.580188812342544,6758661.89872148,1.34708937058509,-0.463398979395724,-0.125951505441054,0.359580834723537,-2.18553477449538,-0.524253066006128,-2.73241515966214,-4.108098155042E-4,-0.0010450135254164,-2.093125135129E-4,386250.228685583,3.3171E-12,938.312051719671,1.93162691466751,-8.47481378981177,-0.580188812342544
4500.0,5932402.16930898,3148492.09387854,807785.740640827,-1770075.05402912,6478534.03396118,808917.078773056,-4438.54673211844,-1951.27792174887,5946.90404310092,2.27937523677759,-8.34259087407513,-1.0416651955053,6758661.92714018,1.35146463983547,-0.465831195343134,-0.124014941791411,0.373433373496585,-2.24273959555512,-0.496778720423051,-2.66635298528982,-4.193648627078E-4,-0.0010413853599538,-2.10659192431E-4,386702.971104878,3.2789E-12,937.670896619329,2.27937523677759,-8.34259087407513,-1.0416651955053
4560.0,5760794.51221369,3350261.86949969,1162241.05503183,-2032080.99586915,6346537.41798207,1163581.49888926,-4291.61296546154,-2446.90162734809,5870.67725308012,2.6165191744769,-8.17183918402952,-1.49823433827654,6758661.95580449,1.35583990908586,-0.467866942764482,-0.122226763717022,0.387187933905627,-2.29738704732037,-0.466327522798029,-2.60328579765548,-4.279197311363E-4,-0.0010376797336432,-2.119404628737E-4,387244.763490863,3.2392E-12,937.293173023531,2.6165191744769,-8.17183918402952,-1.49823433827654
4620.0,5564308.68248813,3538182.40624723,1511311.03849397,-2284671.11450243,6185133.50231007,1512854.37703827,-4124.80746715488,-2931.14392285716,5767.25602143127,2.94151319180833,-7.96335814467948,-1.94779964633587,6758661.9841976,1.36021517832195,-0.469517481745964,-0.120596678140301,0.400822059524595,-2.34944226704283,-0.433147494266575,-2.54323590479882,-4.36470672282E-4,-0.00103389770474,-2.131556950806E-4,387868.487987502,3.1985E-12,937.16462612035,2.94151319180833,-7.96335814467948,-1.94779964633587
4680.0,5343729.44760451,3711602.15775426,1853378.81458579,-2526675.87832987,5995072.52752156,1855117.897229,-3938.90420712467,-3401.76931323693,5637.12266593395,3.2528680714472,-7.71811807981963,-2.38829784918432,6758662.01181089,1.36459044757234,-0.470795555032668,-0.119133206422439,0.414313773438074,-2.39892967226703,-0.397480370405199,-2.48616771818005,-4.450139570541E-4,-0.0010300404378678,-2.14304299391E-4,388565.11346293,3.1572E-12,937.265939837981,3.2528680714472,-7.71811807981963,-2.38829784918432
4740.0,5099946.82564163,3869929.07481291,2186860.10253098,-2756974.83778709,5777237.01676601,2188786.87231392,-3734.76465466367,-3856.6055381542,5480.88207248376,3.54915745185872,-7.43725567462104,-2.81770811707171,6758662.03815297,1.36896571681986,-0.471715278340328,-0.117843592711962,0.427641655071451,-2.44591973726317,-0.359557230402493,-2.43200092878974,-4.535458799367E-4,-0.0010261092033424,-2.153857270881E-4,389323.855298098,3.1155E-12,937.570044256507,3.54915745185872,-7.43725567462104,-2.81770811707171
4800.0,4833952.51651056,4012632.38036878,2510210.48537661,-2974501.75836918,5532637.68526841,2512316.01630129,-3513.33381797172,-4293.55340019142,5299.25888012261,3.82902408208194,-7.12206874646137,-3.23406097528863,6758662.0627583,1.37334098605596,-0.472292024180959,-0.116733725636764,0.440784920067325,-2.49051675949632,-0.319595611533165,-2.38062270878755,-4.620627631191E-4,-0.0010221053762748,-2.16399471167E-4,390132.36964699,3.0737E-12,938.042076988226,3.82902408208194,-7.12206874646137,-3.23406097528863
4860.0,4546835.89077789,4139244.10019577,2821932.49351532,-3178249.50494883,5262408.76995641,2824207.03185999,-3275.6359174403,-4710.5962591311,5093.09413811212,4.0911857718554,-6.77401034727284,-3.63544698306273,6758662.08519506,1.37771625531206,-0.472542300548378,-0.115808074200466,0.453723502818273,-2.53284824132369,-0.277797861709832,-2.3318983139551,-4.705609605853E-4,-0.0010180304354564,-2.173450670234E-4,390976.978267144,3.0335E-12,938.729702753874,4.0911857718554,-6.77401034727284,-3.63544698306273
4920.0,4239779.55140486,4249360.34727071,3120582.47235472,-3367274.65597365,4967802.80043608,3123015.48178231,-3022.76971160135,-5105.80915294584,4863.3414501311,4.3344410159099,-6.39468222234298,-4.0200251453243,6758662.10507249,1.38209152455673,-0.472483625839319,-0.11506963854819,0.466438141099831,-2.5730561334582,-0.234350460989793,-2.28567984134034,-4.790368621507E-4,-0.0010138859620282,-2.1822209306E-4,391842.919451005,2.9964E-12,939.697619467811,4.3344410159099,-6.39468222234298,-4.0200251453243
4980.0,3914054.4873812,4342642.35662962,3404777.20387717,-3540701.82730132,4650184.83485676,3407357.4141316,-2755.9034958984,-5477.36750766948,4611.06262255137,4.55767427234806,-5.98582765209361,-4.38603102662565,6758662.12204728,1.38646679380997,-0.4721344013917,-0.114519916063289,0.478910462096099,-2.61128992653512,-0.189424058210101,-2.24181315718525,-4.874868974338E-4,-0.0010096736379383,-2.190301712106E-4,392714.620130355,2.9639E-12,940.996759043272,4.55767427234806,-5.98582765209361,-4.38603102662565
5040.0,3571014.83679087,4418817.27197918,3673200.25290487,-3697727.6866762,4311026.18642616,3675915.71187352,-2476.2697956098,-5823.55539996199,4337.42283555888,4.75986087611125,-5.54932370490125,-4.73178453751336,6758662.13582944,1.39084206306035,-0.471513783002094,-0.114158883048492,0.491123068978964,-2.6477014229986,-0.143174003973814,-2.20014316496754,-4.959075397506E-4,-0.0010053952441914,-2.197689673775E-4,393575.983883226,2.9374E-12,942.672938009204,4.75986087611125,-5.54932370490125,-4.73178453751336
5100.0,3212092.28141134,4477678.68275219,3924608.01006244,-3837624.641164,3951897.6684567,3927446.1389686,-2185.15977536236,-6142.77333791022,4043.6853576387,4.94007156960484,-5.08717293052366,-5.05569736466295,6758662.14618663,1.3952173322993,-0.470641552739587,-0.113984992036114,0.503059627094153,-2.68244094845878,-0.0957412033506029,-2.16051765721548,-5.042953099211E-4,-0.0010010526588963,-2.20438191783E-4,394410.689347561,2.9182E-12,944.769907750348,4.94007156960484,-5.08717293052366,-5.05569736466295
5160.0,2838790.09470386,4519086.91320624,4157835.40471098,-3959744.18123967,3574462.38783723,4160783.05618598,-1883.9173887168,-6433.54552742492,3731.20582563361,5.09747663362133,-4.60149452517507,-5.35628001709637,6758662.15294801,1.39959260154969,-0.469537992303019,-0.113995184566011,0.514704948726108,-2.71565474332814,-0.0472531529819268,-2.12279001405696,-5.126467799753E-4,-9.966478551164E-4,-2.210375992329E-4,395202.493437257,2.9076E-12,947.331199128346,5.09747663362133,-4.60149452517507,-5.35628001709637
5220.0,2452676.86660215,4542969.06553982,4371801.26250771,-4063519.86666166,3180468.11872649,4374844.78127985,-1573.9332922864,-6694.52659350069,3401.42611421618,5.23134960277126,-4.0945150007617,-5.63214846182058,6758662.15600656,1.40396787080293,-0.46822375907468,-0.114184919070471,0.526045075360894,-2.74748328988333,0.0021749363440275,-2.08682099835562,-5.209585767486E-4,-9.9218289853E-4,-2.215669892917E-4,395935.533758759,2.9068E-12,950.401383486277,5.23134960277126,-4.0945150007617,-5.63214846182058
5280.0,2055379.93107165,4549318.81896377,4565513.28372245,-4148469.94076159,2771739.2900485,4568638.56964798,-1256.63854976487,-6924.50772760087,3055.86782018334,5.34107055071726,-3.56855839225731,-5.88203032325958,6758662.15532063,1.40834314003902,-0.46671976590767,-0.114548213315706,0.537067356342288,-2.77806036084058,0.0524390007360571,-2.05247986794343,-5.292273853556E-4,-9.876599449085E-4,-2.220262063692E-4,396594.624732771,2.9172E-12,954.026741019585,5.34107055071726,-3.56855839225731,-5.88203032325958
5340.0,1648578.52277391,4538195.9883099,4738072.62001093,-4214199.56132641,2350168.62203301,4741265.19316189,-933.498152088917,-7122.42223451178,2696.12538848798,5.42612893161191,-3.02603603867658,-6.10477062191163,6758662.1509143,1.41271840928941,-0.465047065549622,-0.11507770067347,0.54776052282044,-2.8075126125741,0.103445013684282,-2.01964499052453,-5.374499525328E-4,-9.830812374186E-4,-2.224151397176E-4,397165.542126846,2.9401E-12,958.255038853155,5.42612893161191,-3.02603603867658,-6.10477062191163
5400.0,1233996.68962267,4509725.8465799,4888678.02900207,-4260402.6378477,1917708.44857804,4891923.09651642,-606.004380742769,-7287.35045418322,2323.85890836411,5.48612596528003,-2.46943597459272,-6.29933702876073,6758662.1428765,1.41709367853979,-0.463226740455802,-0.115764699336128,0.558114755923535,-2.83595958311209,0.155107934395969,-1.98820411263404,-5.456230898394E-4,-9.784491037585E-4,-2.227337233414E-4,397635.290989687,2.9769E-12,963.133924198397,5.48612596528003,-2.46943597459272,-6.29933702876073
5460.0,813395.991524577,4464098.21544123,5016629.58779821,-4286863.26655498,1476361.76361397,5019912.11218946,-275.670041924473,-7418.524036334,1940.78660927563,5.52077655486726,-1.90131197065276,-6.46482461311914,6758662.13135945,1.42146894779017,-0.461279798584417,-0.116599293447035,0.56812174813837,-2.86351398894536,0.207350729817511,-1.95805440394016,-5.537436767091E-4,-9.737659531371E-4,-2.229819358187E-4,397992.352336289,3.0291E-12,968.707358157827,5.52077655486726,-1.90131197065276,-6.46482461311914
5520.0,388568.014122811,4401566.32962399,5121331.94830936,-4293456.75633207,1028173.03091095,5124636.71692609,55.9784000665253,-7515.32954795354,1548.67708772258,5.52991072691402,-1.32427226306154,-6.60046006279063,6758662.11657534,1.4258442170377,-0.459227075600678,-0.11757042499699,0.57777475696268,-2.89028224440298,0.260103477391592,-1.92910237366792,-5.618086633422E-4,-9.690342731042E-4,-2.231598000364E-4,398226.904352841,3.0981E-12,975.009686357117,5.52991072691402,-1.32427226306154,-6.60046006279063
5580.0,-38673.2712064837,4322445.48106255,5202297.11924029,-4280150.24033541,575218.797891214,5205608.81456041,387.407761297119,-7577.31139627556,1149.34129716685,5.51347458511416,-0.740968013535256,-6.70560535673377,6758662.09879293,1.43021948627666,-0.457089143749339,-0.118665995238354,0.587068649987131,-2.91636515302852,0.31330254966827,-1.90126373746878,-5.698150734328E-4,-9.64256626243E-4,-2.232673828397E-4,398331.01436261,3.1852E-12,982.057530164757,5.51347458511416,-0.740968013535256,-6.70560535673377
5640.0,-466499.269396404,4227111.44953496,5259146.76151889,-4247002.8698826,119598.154977533,5262450.03195911,717.085119116646,-7604.17405233489,744.6243344876,5.47153077039371,-0.154081542755456,-6.77976087178914,6758662.07833269,1.4345947555299,-0.454886227492769,-0.119872974291971,0.595999940674357,-2.94185874289988,0.366889878035981,-1.87446330070474,-5.777600067216E-4,-9.594356467358E-4,-2.233047945986E-4,398298.798307109,3.2915E-12,989.840731642587,5.47153077039371,-0.154081542755456,-6.77976087178914
5700.0,-893074.613958258,4115998.72708204,5291613.98598909,-4194165.5889569,-336576.917175982,5294893.51690732,1043.48480571592,-7595.78356284643,336.397057438709,5.40425842140553,0.433685618124787,-6.82256790652413,6758662.05556106,1.43897002478028,-0.452638125858264,-0.121177517568391,0.604566814222904,-2.9668552385277,0.420812290445597,-1.8486349178949,-5.856406413696E-4,-9.545740368111E-4,-2.232721886923E-4,398126.545044431,3.4177E-12,998.314790963336,5.40425842140553,0.433685618124787,-6.82256790652413
5760.0,-1316565.07554551,3989598.54408145,5299544.64428927,-4121880.48947104,-791191.269570013,5302785.22885589,1365.09538421558,-7552.16834086385,-73.4524314503424,5.31195263108663,1.01962481187376,-6.83381060685917,6758662.03088432,1.44334529401923,-0.450364141298736,-0.122565087594133,0.612769143031567,-2.99144418262854,0.475020916588588,-1.82372158835082,-5.934542361465E-4,-9.496745630863E-4,-2.231697609147E-4,397812.803340333,3.5643E-12,1007.39784802866,5.31195263108663,1.01962481187376,-6.83381060685917
5820.0,-1735145.49399001,3848456.70551919,5282898.10598771,-4030479.74924765,-1242136.3323735,5286084.71560194,1680.4265769579,-7473.51922848149,-483.027398220221,5.19502339657673,1.60103242796838,-6.81341727988178,6758662.00474154,1.44772056326676,-0.44808301474919,-0.124020579824827,0.620608491411527,-3.01571374405647,0.529470653190431,-1.79967575583137,-6.011981324285E-4,-9.447400528145E-4,-2.229977488031E-4,397358.430021398,3.7308E-12,1016.97445538733,5.19502339657673,1.60103242796838,-6.81341727988178
5880.0,-2147007.70013093,3693171.24624665,5241747.51724751,-3920384.15649692,-1687319.84425708,5244865.37117582,1988.01611556635,-7360.18882773664,-890.431151004287,5.05399406155236,2.17522211487769,-6.76146108414012,6758661.97759707,1.45209583251429,-0.445812866460814,-0.125528451039083,0.628088109326754,-3.0397522767874,0.584119681599591,-1.7764598975218,-6.088697560016E-4,-9.397733900485E-4,-2.227564308928E-4,396766.59836808,3.9168E-12,1026.90607116133,5.05399406155236,2.17522211487769,-6.76146108414012
5940.0,-2550368.39265625,3524389.9149319,5176279.53853662,-3792101.22639862,-2124675.51959736,5179314.17245337,2286.43648233576,-7212.69009884165,-1293.775736016,4.88949925189064,2.73953698163431,-6.67816008674369,6758661.9499326,1.45647110176467,-0.44357114211729,-0.127072848938536,0.635212915075143,-3.06365023402958,0.638929029439031,-1.75404751877673,-6.164666186681E-4,-9.34777511733E-4,-2.224461259018E-4,396042.766445686,4.1212E-12,1037.04548971498,4.88949925189064,2.73953698163431,-6.67816008674369
6000.0,-2943476.93639833,3342807.49649513,5086793.56117496,-3646222.91721953,-2552172.60964177,5089730.89428915,2574.30151262917,-7031.69422792582,-1691.19061777389,4.70228230754971,3.29136173728733,-6.56387667979435,6758661.92223897,1.46084637101505,-0.441374563686173,-0.128637741628562,0.641989466951579,-3.08750259917548,0.693862167488023,-1.73242472199575,-6.239863196511E-4,-9.297554037361E-4,-2.220671918471E-4,395194.605696052,4.3428E-12,1047.25099716724,4.70228230754971,3.29136173728733,-6.56387667979435
6060.0,-3324623.0476369,3149162.9835329,4973700.40481593,-3483422.95520975,-2967825.31394773,4976526.80527366,2850.27282819278,-6818.02776958278,-2080.83130495821,4.49319221562701,3.82813471576643,-6.41911635102694,6758661.89500774,1.46522164025686,-0.439239084431921,-0.130207045719665,0.648425924058141,-3.11141208469299,0.748884631864832,-1.71159260340148,-6.314265467982E-4,-9.247100968323E-4,-2.216200250977E-4,394231.89074161,4.5803E-12,1057.39670363829,4.49319221562701,3.82813471576643,-6.41911635102694
6120.0,-3692144.33244703,2944236.60764253,4837520.50028163,-3304453.77931688,-3369701.99882264,4840222.84854089,3113.0660716626,-6572.66907269599,-2460.88788306064,4.26318005173673,4.34735973279104,-6.24452580605929,6758661.8687227,1.46959690949868,-0.437179847516575,-0.131764751868511,0.654531996544656,-3.13549349447838,0.80396365951993,-1.69157087321005,-6.387850775807E-4,-9.196446626489E-4,-2.211050593674E-4,393166.351978325,4.8323E-12,1067.37757535743,4.26318005173673,4.34735973279104,-6.24452580605929
6180.0,-4044433.6446581,2728846.74168553,4678881.56450347,-3110143.11852627,-3755934.18009593,4681447.31438594,3361.45691303295,-6296.74400123866,-2829.59341491243,4.01329493912232,4.84661772075575,-6.04089044233249,6758661.84385158,1.47397217874906,-0.435211147637879,-0.133295046668849,0.660318885673897,3.12330541995601,0.859067821231963,-1.67240333493546,-6.460597798898E-4,-9.145622095856E-4,-2.205227646516E-4,392011.49315245,5.0973E-12,1077.10975141456,4.01329493912232,4.84661772075575,-6.04089044233249
6240.0,-4379946.2301237,2503846.68462506,4498515.77665104,-2901390.21637092,-4124725.22835425,4500933.0137857,3594.28679949209,-5991.52096500407,-3185.23217026525,3.74467953728113,5.32357808704585,-5.80913117765936,6758661.8208379,1.47834744799087,-0.433346395200712,-0.13478242990358,0.665799214209278,3.09845370830081,0.914166629256824,-1.65416627898734,-6.532486126295E-4,-9.094658787203E-4,-2.198736461115E-4,390782.376719224,5.3737E-12,1086.52782952513,3.74467953728113,5.32357808704585,-5.80913117765936
6300.0,-4697206.62454278,2270121.34128332,4297256.4668541,-2679161.71884791,-4474358.7557659,4299513.96423816,3810.46842080986,-5658.40527850316,-3526.14764586306,3.45856507431363,5.77600974101332,-5.5503006392842,6758661.80009306,1.4827227172384,-0.431598082583602,-0.136211826278354,0.670986947718044,3.07293536536636,0.969230083622776,-1.63698160460735,-6.603496261064E-4,-9.043588397117E-4,-2.191582429105E-4,389495.380363622,5.6597E-12,1095.5808791194,3.45856507431363,5.77600974101332,-5.5503006392842
6360.0,-4994815.27360014,2028583.80848694,4076034.3312216,-2444487.2436196,-4803206.64481395,4078121.60163695,4008.99086338937,-5298.93286955218,-3850.75033789055,3.15626593970554,6.20179173490311,-5.26557872247627,6758661.78198888,1.48709798648878,-0.429977752144616,-0.137568690872,0.675897307469493,3.04648647634582,1.02422809578181,-1.62103791644223,-6.673609622207E-4,-8.992442867083E-4,-2.183771270071E-4,388167.928613473,5.9531E-12,1104.22844331899,3.15626593970554,6.20179173490311,-5.26557872247627
6420.0,-5271454.84414142,1780171.88074844,3835873.18912959,-2198454.64996014,-5109736.68064744,3837780.53416652,4188.92442717338,-4914.76336234623,-4157.52522932138,2.83917385678722,6.5989234643883,-4.95626753091771,6758661.76685145,1.49147325573631,-0.428495965705814,-0.138839107657931,0.680546675685277,3.01874488093453,1.07912967768679,-1.60662568200287,-6.742808544583E-4,-8.941254342763E-4,-2.175309019083E-4,386818.203984361,6.2516E-12,1112.43719031415,2.83917385678722,6.5989234643883,-4.95626753091771
6480.0,-5525896.19686847,1525844.48798261,3577885.30097293,-1942205.03041967,-5392519.75034401,3579603.8564278,4349.42508082733,-4507.67256305552,-4445.03895552506,2.50875165667619,6.96553437507784,-4.62378571448714,6758661.75495454,1.49584852498669,-0.427162275359743,-0.14000988057189,0.684952493966168,2.98918845437406,1.13390167727764,-1.59419850500921,-6.811076276883E-4,-8.890055133552E-4,-2.166202013884E-4,385464.842549531,6.5523E-12,1120.1784178045,2.50875165667619,6.96553437507784,-4.62378571448714
6540.0,-5757003.99215302,1266578.07788722,3303266.2667429,-1676927.4466127,-5650236.57415706,3304788.04417269,4489.73853200588,-4079.54437916981,-4711.9466125296,2.1665266780662,7.29989312242138,-4.26966222345368,6758661.74651469,1.50022379422564,-0.425985195549733,-0.141068616722671,0.689133155776954,2.95702180606952,1.18850659897835,-1.58448601748291,-6.878396977708E-4,-8.838877672504E-4,-2.156456881767E-4,384126.6192171,6.8522E-12,1127.42635320043,2.1665266780662,7.29989312242138,-4.26966222345368
6600.0,-5963741.90169397,1003362.95676041,3013289.52789187,-1403853.43288355,-5881683.93578676,3014607.45212561,4609.20389104882,-3632.36220692928,-4956.99817358125,1.81408381976325,7.60041613387349,-3.8955295015648,6758661.7416871,1.50459906347603,-0.424972176484979,-0.142003801462169,0.6931078939175,2.92095291713946,1.24289845077063,-1.57871686580825,-6.944755709767E-4,-8.787754476741E-4,-2.146080526201E-4,382822.128304028,7.1476E-12,1134.15708322178,1.81408381976325,7.60041613387349,-3.8955295015648
6660.0,-6145177.40084276,737199.60068113,2709300.49696358,-1124251.2928507,-6085780.3808659,2710408.43938904,4707.25690813977,-3168.19982419538,-5179.04448109714,1.45305827535409,7.86567552400963,-3.50311614399921,6758661.74056228,1.50897433272355,-0.424129579056807,-0.142804865147748,0.69689666394232,2.87871141906013,1.29701392337165,-1.57910008546939,-7.010138432273E-4,-8.736718108417E-4,-2.135080113236E-4,381569.465210553,7.4349E-12,1140.34792611154,1.45305827535409,7.86567552400963,-3.50311614399921
6720.0,-6300486.11743814,469094.951691226,2392710.3413923,-839420.214975822,-6261571.35518048,2393603.14885567,4783.43276579798,-2689.21182900966,-5377.04278276839,1.08512798180062,8.09440631551709,-3.09423904963536,6758661.74316383,1.51334960196536,-0.423462651520716,-0.143462241541381,0.700520024513543,2.82588015433491,1.3507510602185,-1.58999322071648,-7.074531991576E-4,-8.685801136319E-4,-2.123463057746E-4,380385.915107148,7.7097E-12,1145.97707765779,1.08512798180062,8.09440631551709,-3.09423904963536
6780.0,-6428955.71546175,200058.711292204,2064989.44969286,-550684.234332258,-6408233.75664275,2065662.96886915,4837.36841055066,-2197.62366683498,-5550.06178244278,0.712005816056687,8.28551292162264,-2.67079510052168,6758661.74944782,1.51772487121575,-0.422975508296442,-0.143967417895052,0.703999015681501,2.75256597654572,1.40390806482478,-1.62123122931301,-7.137924110093E-4,-8.635036098208E-4,-2.111237009535E-4,379287.654537409,7.9681E-12,1151.02338506,0.712005816056687,8.28551292162264,-2.67079510052168
6840.0,-6529989.2934662,-68900.3556405738,1727660.60996341,-259386.068654309,-6525079.87769215,1728111.70707647,4868.80440974414,-1695.72129205089,-5697.28617848919,0.335431575971776,8.43807484856742,-2.23475240479074,6758661.75930283,1.52210014046327,-0.422671111312236,-0.144312976868767,0.707355036083425,2.63141145117781,1.45595815579167,-1.70011450881571,-7.200303373602E-4,-8.584455463935E-4,-2.098409839375E-4,378289.471705953,8.2057E-12,1155.46607450659,0.335431575971776,8.43807484856742,-2.23475240479074
