time,gePosition_m_X,gePosition_m_Y,gePosition_m_Z,eiPosition_m_X,eiPosition_m_Y,eiPosition_m_Z,eiVelocity_m_s_X,eiVelocity_m_s_Y,eiVelocity_m_s_Z,eiAccel_m_s2_X,eiAccel_m_s2_Y,eiAccel_m_s2_Z,semiMajorAxis_m,gast_rad,eulerAngle_rad_Roll,eulerAngle_rad_Pitch,eulerAngle_rad_Yaw,eulerAngleWrtEi_rad_Roll,eulerAngleWrtEi_rad_Pitch,eulerAngleWrtEi_rad_Yaw,bodyAngularRateWrtEi_rad_s_Roll,bodyAngularRateWrtEi_rad_s_Pitch,bodyAngularRateWrtEi_rad_s_Yaw,altitudeMsl_m,airDensity_kg_m3,ambientTemperature_dgK,eiGravitation_m_s2_X,eiGravitation_m_s2_Y,eiGravitation_m_s2_Z
0.0,-1428622.31112709,4163200.4655738,5136049.67204027,-4292653.41,955168.47,5139356.57,109.649663,-7527.72649,1484.521489,5.51387392521288,-1.22700107706205,-6.62056502293234,6758662.11722884,1.02331944621101,-0.0,-0.202458193231342,-0.0,-2.4715939053549,-0.0371889644761344,-1.42899313488854,0.0,-0.0011344542745508,0.0,398252.763838142,3.1122E-12,976.192653674721,5.51387392521288,-1.22700107706205,-6.62056502293234
60.0,-1789722.68675886,3920281.53034496,5213135.28777756,-4276158.38783625,501645.155198372,5216446.65282206,439.972341644021,-7583.8913234469,1084.15482876055,5.49266890376355,-0.644443725103829,-6.71986862414572,6758329.84220072,1.02769471546425,-5.6066379157E-6,-0.202457034233811,-1.934642028805E-4,-2.47205929639209,0.0161204236657014,-1.38666117967647,-7.049068604E-7,-0.0011344779878485,-3.3028523725E-6,398351.928746169,3.2014E-12,983.370211082234,5.49266890376355,-0.644443725103829,-6.71986862414572
120.0,-2144775.62607691,3662449.60186777,5266053.96289231,-4239897.32136301,45802.7360391124,5269354.48856867,768.265717944229,-7605.00020365875,678.755874243956,5.44625681658363,-0.0589100550830775,-6.78824568052791,6758100.17056153,1.0320699847175,-3.81331724619E-5,-0.20245313258257,-5.854799318823E-4,-2.47030794868962,0.069280295155486,-1.34410218243724,-1.5682193696E-6,-0.0011344959082197,-6.6150804443E-6,398347.95105685,3.308E-12,991.28000493643,5.44625681658363,-0.0589100550830775,-6.78824568052791
180.0,-2492271.94053252,3390831.54878126,5294559.58270427,-4184037.23054663,-410251.66080439,5297834.01219674,1093.02318227306,-7590.95396271453,270.190124308624,5.37484943553537,0.526951955883289,-6.82538836415832,6757977.34070854,1.03644525395931,-1.211363788128E-4,-0.202445868896041,-0.0011707238963167,-2.46631584574527,0.122194572973341,-1.30107628427383,-2.5897433372E-6,-0.0011345075693188,-9.9359390526E-6,398237.786832762,3.4323E-12,999.871348351351,5.37484943553537,0.526951955883289,-6.82538836415832
240.0,-2830726.64941237,3106604.14762577,5298518.36587487,-4108835.08624698,-864409.726868456,5301751.56201923,1412.75405323278,-7541.81238345509,-139.662487487023,5.27876573911092,1.11049353646879,-6.83112345532949,6757963.66278491,1.04082052320969,-2.780775088101E-4,-0.202434667472642,-0.0019422744254564,-2.46003131186148,0.174763491620489,-1.25733917145186,-3.7692476845E-6,-0.0011345124437284,-1.32646764019E-5,398020.264743599,3.5742E-12,1009.05635638644,5.27876573911092,1.11049353646879,-6.83112345532949
300.0,-3158685.24397915,2810989.04058964,5277909.488365,-4014636.66226186,-1314571.50458651,5281086.50313287,1725.98997415025,-7457.79395787299,-548.91568681509,5.1584306891924,1.68907475536736,-6.80541288774509,6758059.47617188,1.04519579246293,-5.322084353833E-4,-0.202419019882399,-0.002891646407363,-2.45137463957029,0.226881529199867,-1.21263857867943,-5.1064639077E-6,-0.0011345099435635,-1.66005334892E-5,397696.121998936,3.7333E-12,1018.7149431892,5.1584306891924,1.68907475536736,-6.80541288774509
360.0,-3474729.87380746,2505247.56018704,5232825.22120221,-3901875.00587943,-1758654.88815773,5235931.36435681,2031.29123137421,-7339.27506827618,-955.684978814221,5.01437384667796,2.26007413772824,-6.74835408108678,6758263.14071445,1.04957106170188,-9.064585505197E-4,-0.202398505852167,-0.0040088336705571,-2.44023743015857,0.278435208532751,-1.16671093064184,-6.6010854758E-6,-0.001134499421153,-1.9942743537E-5,397268.00653988,3.9084E-12,1028.70624380129,5.01437384667796,2.26007413772824,-6.74835408108678
420.0,-3777485.43469772,2190675.43794798,5163470.58085859,-3771068.53192576,-2194605.05796028,5166491.48748631,2327.2529844038,-7186.78859054153,-1358.09578188967,4.84722781392842,2.82089832186378,-6.66018005902274,6758571.0618775,1.05394633095227,-0.0014233229026229,-0.20237281067542,-0.0052823585885916,-2.42648177762254,0.329300715754733,-1.11927819435689,-8.252767164E-6,-0.0011344801697988,-2.32905314375E-5,396740.445353623,4.0983E-12,1038.88330226107,4.84722781392842,2.82089832186378,-6.66018005902274
480.0,-4065625.53727947,1868597.41330808,5070162.491816,-3622818.74592213,-2620403.81372883,5073084.1884409,2612.51139681392,-7001.02191538896,-1754.2915617759,4.65772648079334,3.36899181033335,-6.54125933595318,6758977.74956435,1.05832160020265,-0.0021047520717664,-0.2023417384604,-0.0066993286498331,-2.40993949275385,0.379341291876588,-1.07004508713299,-1.00611243258E-5,-0.0011344514246144,-2.66431132077E-5,396119.77930251,4.3013E-12,1049.1067749754,4.65772648079334,3.36899181033335,-6.54125933595318
540.0,-4337878.33367804,1540361.7603276,4953328.46173251,-3457807.60267597,-3034078.77137831,4956137.43072466,2885.74965523954,-6782.81438057704,-2142.44195112657,4.44670304090289,3.90184686167576,-6.39209554155531,6759475.90986738,1.06269686945303,-0.0029720442925555,-0.202305220629578,-0.0082454997010639,-2.39041166284383,0.428404365850198,-1.01869688984379,-1.20257321061E-5,-0.0011344123634425,-2.99996954594E-5,395414.065388451,4.5159E-12,1059.25438821913,4.44670304090289,3.90184686167576,-6.39209554155531
600.0,-4593032.18012245,1207334.74853817,4813504.77057013,-3276794.50745974,-3433712.38785328,4816188.01256286,3145.70386141804,-6533.15410447034,-2520.75083764055,4.21508773638736,4.41701355762569,-6.21332673908226,6760056.56855298,1.06707213870913,-0.0040457403436248,-0.202263319197218,-0.0099053455446796,-2.36766898474829,0.476318421246715,-0.964898263413453,-1.41461245971E-5,-0.0011343621078543,-3.33594748843E-5,394632.947899386,4.7404E-12,1069.22506173048,4.21508773638736,4.41701355762569,-6.21332673908226
660.0,-4829941.11194204,870895.055136782,4651334.17615043,-3080612.96791097,-3817450.77775494,4653879.27018651,3391.16877956936,-6253.17420976402,-2887.46440073662,3.96390528257331,4.91211006597728,-6.00572438193173,6760709.22461563,1.0714474079538,-0.0053455217279419,-0.202216224477906,-0.0116621335456093,-2.34145350562307,0.522889629251059,-0.908293668414527,-1.64217939409E-5,-0.0011342997242303,-3.67216377576E-5,393787.50040533,4.9732E-12,1078.93855359603,3.96390528257331,4.91211006597728,-6.00572438193173
720.0,-5047530.10665751,532428.146681342,4467563.13990737,-2870166.90594074,-4183512.2847984,4469958.30103983,3621.00341834383,-5944.14842545141,-3240.87907317118,3.69427191983733,5.38483310182689,-5.7701918437448,6761422.03176181,1.07582267720419,-0.0068901126686861,-0.202164247014955,-0.0134980058856377,-2.31148266273773,0.567898347227422,-0.84851024962313,-1.88521893815E-5,-0.0011342242249244,-4.00853594607E-5,392890.041078867,5.2125E-12,1088.33239027192,3.69427191983733,5.38483310182689,-5.7701918437448
780.0,-5244800.1104954,193320.647610558,4263038.57814406,-2646426.64028022,-4530195.770445,4265272.71222452,3834.13642332918,-5607.48605553602,-3579.3493998955,3.4073920379293,5.83296857031084,-5.50776245067265,6762182.00521295,1.08019794645171,-0.0086971864397615,-0.202107803660492,-0.0153940660892448,-2.27745682365638,0.61109568578895,-0.785164361490176,-2.14367162689E-5,-0.001134134569512,-4.34498040266E-5,391953.924305582,5.4564E-12,1097.35778363267,3.4073920379293,5.83296857031084,-5.50776245067265
840.0,-5420832.80253768,-145045.284462577,4038704.14589147,-2410424.55183391,-4855888.58140693,4040766.90128647,4029.57125283823,-5244.72630463044,-3901.29576204424,3.10455431891173,6.25440235282477,-5.21959694086304,6762975.25074467,1.08457321569067,-0.0107832765374409,-0.202047397886413,-0.0173304704363266,-2.23907185201206,0.652200499964049,-0.71787323806903,-2.41747350201E-5,-0.001134029666123,-4.68141237082E-5,390993.312012427,5.7029E-12,1105.97568356041,3.10455431891173,6.25440235282477,-5.21959694086304
900.0,-5574795.07066639,-481297.557240133,3795596.0625285,-2163250.44574015,-5159074.15721222,3797477.87851404,4206.39110656256,-4857.53195352031,-4205.21192942496,2.78712734851352,6.64713117682,-4.90698027597677,6763787.21242144,1.08894848494105,-0.0131636931794864,-0.201983594553745,-0.0192865238718111,-2.19603846560858,0.6908973697244,-0.646273555555516,-2.70655600399E-5,-0.001133908372861,-5.01774585723E-5,390022.928569836,5.9499E-12,1114.15359376954,2.78712734851352,6.64713117682,-4.90698027597677
960.0,-5705943.1729844,-814079.695705662,3534838.49065249,-1906046.62595118,-5438339.23872269,3536530.64224744,4363.76357384707,-4447.68238202247,-4489.67240044895,2.45655465220257,7.00927348745348,-4.57131773287782,6764602.93504365,1.09332375419143,-0.0158524455900506,-0.201916989514769,-0.0212407800200222,-2.14811012464414,0.726836396504885,-0.570048609285883,-3.01084586058E-5,-0.0011337694993105,-5.3538936122E-5,389057.80350223,6.1947E-12,1121.86314916724,2.45655465220257,7.00927348745348,-4.57131773287782
1020.0,-5813626.55853327,-1142056.32490042,3257638.48227736,-1640002.70021318,-5692380.63849845,3259133.1212892,4500.94496598238,-4017.0659420042,-4753.33948432418,2.11434912156572,7.33908021850057,-4.21413021065158,6765407.33691977,1.09769902344753,-0.0188621704927398,-0.201848174563893,-0.0231711449108908,-2.09512058408851,0.759635920356194,-0.488965225486745,-3.33026497209E-5,-0.0011336118081304,-5.68976709478E-5,388113.006563505,6.4348E-12,1129.07857165779,2.11434912156572,7.33908021850057,-4.21413021065158
1080.0,-5897291.32144095,-1463918.56199901,2965280.5092561,-1366350.13551816,-5920011.53426947,2966570.70132637,4617.28429519279,-3567.67169016532,-4994.97007674261,1.76208680847583,7.6349453409477,-3.83704869877911,6766185.48821349,1.10207429269791,-0.0222040671908771,-0.201777698387314,-0.0250549840249255,-2.03703067030618,0.788889470332977,-0.402919955980441,-3.66473029402E-5,-0.0011334340167387,-6.02527644107E-5,387203.379982531,6.6672E-12,1135.77567700242,1.76208680847583,7.6349453409477,-3.83704869877911
1140.0,-5956483.26346351,-1778389.29361466,2659120.59783844,-1086356.58637128,-6120167.24758146,2660200.35529126,4712.22686206123,-3101.58049798446,-5213.42207745176,1.40140007872369,7.8954160514751,-3.44180786646201,6766922.88982367,1.10644956193401,-0.0258878395639163,-0.201706024284633,-0.0268692322627831,-1.97398095880797,0.814178242766206,-0.311991222376339,-4.01415371736E-5,-0.0011332347990845,-6.36033043587E-5,386343.272850891,6.8889E-12,1141.93131095723,1.40140007872369,7.8954160514751,-3.44180786646201
1200.0,-5990850.54103073,-2084228.31456343,2340580.09043101,-801320.020518079,-6291910.47098182,2341444.40074591,4785.31741310753,-2620.95556489291,-5407.66039620587,1.03397013288871,8.1192024505035,-3.03023875043201,6767605.74753729,1.11082483119011,-0.0299216452533781,-0.201633485545213,-0.0285905064420908,-1.90634289384416,0.835089944885254,-0.21648994137914,-4.3784419472E-5,-0.0011330127875123,-6.69483648785E-5,385546.282695451,7.0968E-12,1147.5230404573,1.03397013288871,8.1192024505035,-3.03023875043201
1260.0,-6000145.87408795,-2380237.30469545,2011139.06086518,-512562.669049091,-6434435.908953,2011783.91061504,4836.20283122213,-2128.0323700266,-5576.7624928205,0.661518919686883,8.30518655140208,-2.60426053860562,6768221.23608241,1.11520010044049,-0.0343120522517979,-0.201560239455722,-0.0301952199176245,-1.83475644232819,0.851243752446994,-0.116996715663056,-4.75749638001E-5,-0.0011327665747159,-7.02870060841E-5,384825.009246945,7.2877E-12,1152.52895638363,0.661518919686883,8.30518655140208,-2.60426053860562
1320.0,-5984228.29696935,-2665264.61728616,1672329.41272416,-221424.829980552,-6547074.30020832,1672751.80684057,4864.63432371505,-1625.10810752591,-5719.9233975501,0.285800485239747,8.45243045950636,-2.16587146901777,6768757.74770551,1.11957536967945,-0.0390640030459867,-0.201486220990679,-0.0316596989104031,-1.76013975298198,0.862319404231171,-0.0143710540082631,-5.1512129803E-5,-0.0011324947157839,-7.36182739451E-5,384190.825271596,7.4586E-12,1156.92741522735,0.285800485239747,8.45243045950636,-2.16587146901777
1380.0,-5943064.4330509,-2938209.8560257,1325727.69345719,70741.4435644665,-6629295.79195338,1325925.66970853,4870.46907589572,-1114.53065998315,-5836.46015986973,-0.0914081800585355,8.56018356225918,-1.71713888680495,6769205.1200214,1.12395063893269,-0.0441807864028897,-0.201411097292921,-0.032960300115442,-1.6836583329902,0.868086472339898,0.0902798735298352,-5.55948215695E-5,-0.0011321957303366,-7.69412001555E-5,383653.669074683,7.6066E-12,1160.69725766526,-0.0914081800585355,8.56018356225918,-1.71713888680495
1440.0,-5876729.27796768,-3198028.216683,972947.660031167,362578.73764715,-6680712.64027394,972920.298623477,4853.67134233051,-598.687173932261,-5925.81567702033,-0.468316717906512,8.6278885803284,-1.26018852570433,6769554.83814749,1.12832590818593,-0.0496640168249751,-0.20133422408422,-0.0340735291370044,-1.60664972749718,0.868428418293824,0.195676966068391,-5.98218864011E-5,-0.0011318681047543,-8.02548020443E-5,383221.86291246,7.729E-12,1163.8188200409,-0.468316717906512,8.6278885803284,-1.26018852570433
1500.0,-5785406.48016599,-3443734.5689806,615632.634653369,652730.719829846,-6701081.21490679,615380.062890088,4814.31295316306,-79.9923098804184,-5987.56185836242,-0.843131306557657,8.65518634397912,-0.797193103610385,6769800.20653358,1.13270117743631,-0.0555136216438546,-0.201254605156602,-0.0349761592736516,-1.53051299583076,0.863356113269028,0.300480119652833,-6.41921135897E-5,-0.0011315102944968,-8.35580825316E-5,382901.961065892,7.8238E-12,1166.27474151206,-0.843131306557657,8.65518634397912,-0.797193103610385
1560.0,-5669388.11009893,-3674407.25771106,255447.691560835,939848.593895431,-6690303.29123379,254971.083524462,4752.5732190143,439.123753049732,-6021.40208760923,-1.21406478457336,8.64191917901116,-0.33036034316325,6769936.48643844,1.13707644668384,-0.0617278356682484,-0.20117085608145,-0.0356453501438547,-1.45658485105687,0.853007508581553,0.403412490991037,-6.87042332112E-5,-0.0011311207265133,-8.68500301296E-5,382698.630745729,7.8891E-12,1168.05056121082,-1.21406478457336,8.64191917901116,-0.33036034316325
1620.0,-5529073.91375844,-3889191.6021909,-105928.282064532,1222597.53055952,-6648426.61733642,-106626.710817782,4668.73822484449,956.227471585969,-6027.17295224869,-1.5793468743878,8.58813281165077,0.138079452867038,6769960.99567706,1.14145171592279,-0.0683032032569348,-0.201081173235792,-0.0360587656069491,-1.386029478339,0.837633525759827,0.503371086758166,-7.33569149417E-5,-0.0011306978017434,-9.01296189915E-5,382614.568326624,7.9239E-12,1169.1351837237,-1.5793468743878,8.58813281165077,0.138079452867038
1680.0,-5364970.05027789,-4087303.07514655,-466810.606398507,1499663.03740867,-6575644.74927229,-467727.609111692,4563.1995105594,1468.89416102247,-6004.84521772549,-1.93723437912557,8.49407673106237,0.605886126417707,6769873.16805031,1.14582698517889,-0.0752345876503818,-0.200983309183716,-0.036194690394875,-1.31976376982,0.817573594069086,0.599501945691421,-7.81487669013E-5,-0.0011302398977062,-9.33958090084E-5,382650.452665903,7.9276E-12,1169.52124975627,-1.93723437912557,8.49407673106237,0.605886126417707
1740.0,-5177687.31658052,-4268030.14548991,-825516.864760656,1769757.23139511,-6472296.15327683,-826648.178668801,4436.45214384899,1974.72019260699,-5954.52403300241,-2.28602122307302,8.36020298053444,1.07082253335712,6769674.57075354,1.15020225442927,-0.0825151873682872,-0.200874555365806,-0.0360321448288812,-1.25842708545743,0.793226210868653,0.691230808916919,-8.30783345329E-5,-0.001129745371178,-9.66475459579E-5,382804.936469719,7.9003E-12,1169.20543579895,-2.28602122307302,8.36020298053444,1.07082253335712
1800.0,-4967938.86781145,-4430736.76953057,-1180374.94863168,2031624.9777807,-6338862.57924053,-1181715.314998,4289.09219850674,2471.33507130384,-5876.44836367323,-2.62404820746609,8.18716338258692,1.53066739538801,6769368.87902155,1.15457752367966,-0.0901365594638999,-0.200751732942281,-0.0355509969541101,-1.20239137481287,0.765019903537339,0.778253448368709,-8.81440995228E-5,-0.0011292125609568,-9.98837617027E-5,383074.675850443,7.8427E-12,1168.18869987753,-2.62404820746609,8.18716338258692,1.53066739538801
1860.0,-4736537.44414292,-4574864.52092267,-1529731.04571155,2284049.86044626,-6175966.7154393,-1531274.23460332,4121.81365903097,2956.41330099106,-5770.98965854385,-2.94971235887949,7.97580523781785,1.98322797241134,6768961.8082655,1.15895279293004,-0.0980886494209881,-0.200611192507486,-0.0347320713855947,-1.15179910436384,0.733388499076516,0.860498213614106,-9.33444787681E-5,-0.0011286397907108,-1.031033744428E-4,383454.397396479,7.7562E-12,1166.47648618174,-2.94971235887949,7.97580523781785,1.98322797241134
1920.0,-4484392.11988162,-4699934.35028824,-1871957.52547206,2525859.94994597,-5984369.13998018,-1873696.36514537,3935.40477939795,3427.68594755188,-5638.64976521004,-3.26147575731801,7.72716557074682,2.42635239810435,6768461.00496958,1.16332806216899,-0.106359827485148,-0.20044882324655,-0.0335572541237289,-1.10661447031368,0.698752609535358,0.93807532203117,-9.86778233993E-5,-0.00112802537191,-1.063052890215E-4,383937.001275431,7.6427E-12,1164.07889846602,-3.26147575731801,7.72716557074682,2.42635239810435
1980.0,-4212504.59392662,-4805547.96921107,-2205460.6778653,2755933.33755559,-5764964.58964594,-2207387.08860265,3730.74393027976,3882.95181565766,-5480.05811931141,-3.55787374474088,7.44246402675059,2.85794153176492,6767875.89860204,1.16770333142223,-0.114936931236201,-0.200260071941897,-0.0320095925687198,-1.06667603996873,0.661507524145863,1.01122475421716,-1.041424178645E-4,-0.0011273676068379,-1.094883972854E-4,384513.698135411,7.5044E-12,1161.01085011259,-3.55787374474088,7.44246402675059,2.85794153176492
2040.0,-3921965.04276459,-4891388.85724615,-2528688.26258502,2973203.40578846,-5518777.57167025,-2530793.29480536,3508.79497444447,4320.0881621143,-5295.96824052564,-3.837522431607,7.12309455104929,3.27596019466803,6767217.51772452,1.17207860067547,-0.123805314232776,-0.200039972060221,-0.030073389943502,-1.03174341956706,0.622016628957735,1.08027016167671,-1.097364790806E-4,-0.0011266647916807,-1.126515785006E-4,385174.176879193,7.3443E-12,1157.29219733133,-3.837522431607,7.12309455104929,3.27596019466803
2100.0,-3613947.56187638,-4957222.89168405,-2840136.82848589,3176663.80837477,-5246957.34835343,-2842410.70492504,3270.60221445134,4737.06087718096,-5087.2535757092,-4.09912543835523,6.77061600241175,3.67844767857562,6766498.27432596,1.17645386991157,-0.132948900590004,-0.199783182963513,-0.0277342933259056,-1.00153466918789,0.580609036582268,1.14558207098831,-1.154581556603E-4,-0.0011259152196897,-1.157936998247E-4,385906.7997798,7.1652E-12,1152.94786075323,-4.09912543835523,6.77061600241175,3.67844767857562
2160.0,-3289705.22214494,-5002898.60441595,-3138358.76537719,3365373.13544743,-4950772.32825851,-3140790.92711583,3017.28495991729,5131.93407493185,-4854.90273566516,-4.34147982964247,6.38674186989535,4.06352743673089,6765731.72113017,1.1808291391591,-0.142350245385751,-0.199484039092821,-0.0249793744957039,-0.975754049617838,0.537580105146178,1.20755080414478,-1.213055272199E-4,-0.0011251171844158,-1.189136168361E-4,386698.82089641,6.9704E-12,1148.00793898533,-4.34147982964247,6.38674186989535,4.06352743673089
2220.0,-2950564.76936096,-5028347.07287347,-3421969.05334079,3538459.24257737,-4631603.90095413,-3424548.20943968,2750.03176351641,5502.87904413434,-4600.01417666076,-4.56348122068093,5.97332926991813,4.42941589256912,6764932.28721281,1.18520440840948,-0.15199060082582,-0.199136608775705,-0.0217972028221852,-0.9541112435909,0.493193742486036,1.26656797673102,-1.272766037752E-4,-0.0011242689830089,-1.220101741194E-4,387536.623347327,6.7633E-12,1142.50781458331,-4.56348122068093,5.97332926991813,4.42941589256912
2280.0,-2597920.99825534,-5033581.45305954,-3689651.6778896,3695123.22527549,-4290939.75486109,-3692365.85837548,2470.09437547553,5848.18252185144,-4323.79038092651,-4.76412805615402,5.5323674030394,4.77443032730503,6764114.99769335,1.18957967766558,-0.161849988131771,-0.198734762110519,-0.0181779094549131,-0.936333786126099,0.447685674123789,1.32301484245315,-1.333693252322E-4,-0.0011233689195811,-1.250822059088E-4,388405.970707265,6.5471E-12,1136.48824695791,-4.76412805615402,5.5323674030394,4.77443032730503
2340.0,-2233230.8309904,-5018696.16666484,-3940165.68258866,3834643.02355073,-3930366.71970549,-3943002.29452089,2178.78146569667,6166.25426263141,-4027.53159192424,-4.94252508199445,5.06596564512716,5.09699583329491,6763295.18353183,1.1939549469131,-0.171907275142668,-0.198272247187228,-0.0141132421355706,-0.922174460410823,0.401267116432826,1.37725572945899,-1.395815609793E-4,-0.0011224153086262,-1.281285367886E-4,389292.267617452,6.3252E-12,1129.99543597299,-4.94252508199445,5.06596564512716,5.09699583329491
2400.0,-1858007.13212872,-4983865.75492415,-4172350.83411455,3956376.64401479,-3551563.17640098,-4175296.72045116,1877.45216087955,6455.63388632759,-3712.62916021615,-5.09788604791066,4.57634143658783,5.39565134443613,6762488.18755681,1.19833021615206,-0.182140259641163,-0.197742773719064,-0.009596610022562,-0.911415169532024,0.354128505820047,1.429635057967,-1.459111095859E-4,-0.0011214064784925,-1.311479824508E-4,390180.824629784,6.1006E-12,1123.08102229616,-5.09788604791066,4.57634143658783,5.39565134443613
2460.0,-1473812.29097664,-4929343.41412296,-4385132.87804334,4059764.98978847,-3156291.07791486,-4388174.3790158,1567.50944128719,6714.99699694178,-3380.55855441887,-5.22953569322703,4.06580811682527,5.6690547767852,6761709.07278526,1.2027054854053,-0.192525758421826,-0.197140102986271,-0.0046231180127286,-0.903868466783819,0.306443086199658,1.48047675322365,-1.523556986154E-4,-0.0011203407749018,-1.34139350509E-4,391057.122340963,5.8762E-12,1115.80196404302,-5.22953569322703,4.06580811682527,5.6690547767852
2520.0,-1082251.60200514,-4855459.22856136,-4577528.36685198,4144334.29104119,-2746387.62487603,-4580651.38355091,1250.39343828944,6943.1605731055,-3032.87208916061,-5.33691107981789,3.53676283013712,5.91598733114362,6760972.33887515,1.20708075465283,-0.203039702112956,-0.196458142835631,8.10409844756E-4,-0.899377613586829,0.258370258977042,1.53008517705292,-1.589129845571E-4,-0.0011192165645095,-1.371014413692E-4,391907.070001181,5.6549E-12,1108.22019432235,-5.33691107981789,3.53676283013712,5.91598733114362
2580.0,-684966.474677677,-4762618.11726412,-4748649.04462988,4209698.13134405,-2323756.63943287,-4751839.1044983,927.57466975023,7139.08763767304,-2671.19141839657,-5.41956234332238,2.99167460508745,6.13535702388348,6760291.65219812,1.21145602389464,-0.213657235740065,-0.195691046341765,0.0067054181198024,-0.897815772156278,0.210058664193582,1.57874695683733,-1.655805528837E-4,-0.0011180322384994,-1.400330491557E-4,392717.253994704,5.4389E-12,1100.40192652778,-5.41956234332238,2.99167460508745,6.13535702388348
2640.0,-283627.501192038,-4651297.51197048,-4897705.77576992,4255559.06710941,-1890359.68025239,-4900948.09969705,600.54724592926,7301.89121924801,-2297.19983813768,-5.47715293730732,2.43307268337315,6.32620152231979,6759679.59454736,1.21583129314788,-0.224352824979042,-0.194833312620838,0.0130616190935138,-0.899084737115069,0.161648999534633,1.62673328487548,-1.723559182383E-4,-0.001116786216206,-1.429329626908E-4,393475.171873059,5.2303E-12,1092.41644896709,-5.47715293730732,2.43307268337315,6.32620152231979
2700.0,120072.589207829,-4522044.78353975,-5024012.00740974,4281709.83921568,-1448206.94066223,-5027291.57811607,270.822074081323,7430.83762223001,-1912.63443788496,-5.50945944468115,1.86353514769509,6.48769036629265,6759147.43493622,1.22020656239826,-0.235100367988507,-0.193879888197947,0.019877003152693,-0.903113459590058,0.113276604314671,1.67430239955725,-1.792365247581E-4,-0.0011154769487581,-1.457999665286E-4,394169.447966457,5.0311E-12,1084.33426604244,-5.50945944468115,1.86353514769509,6.48769036629265
2760.0,524426.061148086,-4375474.43395497,-5126986.75760168,4288034.17747504,-999347.970867645,-5130288.3890047,-60.0799144213634,7525.34902416115,-1519.27813511743,-5.51637102673975,1.28567787247327,6.61912665836596,6758704.92831352,1.22458183164864,-0.245873312635409,-0.192826267267905,0.0271478603063903,-0.90985650771881,0.0650738445527194,1.72170205291211,-1.862197465376E-4,-0.0011141029227348,-1.486328420401E-4,394790.02699176,4.8426E-12,1076.22453678332,-5.51637102673975,1.28567787247327,6.61912665836596
2820.0,927717.36349855,-4212265.07099465,-5206157.12310289,4274507.1999087,-545862.264021191,-5209465.53035334,-390.634494643854,7585.00541986024,-1118.95162232335,-5.49788857318225,0.702143797589801,6.71994830147651,6758360.14435264,1.22895710090188,-0.256644778836285,-0.191668589157707,0.034868812478472,-0.919292527544434,0.0171723369404682,1.7691718269986,-1.933028882366E-4,-0.0011126626638276,-1.514303685485E-4,395328.342507539,4.666E-12,1068.15195878654,-5.49788857318225,0.702143797589801,6.71994830147651
2880.0,1328230.35324072,-4033156.1819564,-5261160.30230793,4241195.40987308,-89849.7447656667,-5264460.17218679,-719.320820044212,7609.54593120681,-713.505251539361,-5.45412360684382,0.115592504703322,6.78972885546905,6758119.3287839,1.23333237013798,-0.267387685631587,-0.190403731298641,0.0430328560649855,-0.931422708190663,-0.0302949536369427,1.81694519274257,-2.004831858369E-4,-0.0011111547404997,-1.541913245128E-4,395777.457528734,4.5019E-12,1060.17352230119,-5.45412360684382,0.115592504703322,6.78972885546905
2940.0,1724255.52752655,-3838944.72251528,-5291745.13022,4188256.29496758,366578.802213077,-5295021.19158868,-1044.6280224421,7598.86949968374,-304.810877378898,-5.38529698540156,-0.471309941176643,6.82817807337045,6757986.79905623,1.23770763938837,-0.278074882495215,-0.189029396047622,0.0516314140861473,-0.946269207215159,-0.0771917150539201,1.86525121555202,-2.077578075508E-4,-0.0011095777676338,-1.569144887575E-4,396132.175098211,4.3507E-12,1052.33580715391,-5.38529698540156,-0.471309941176643,6.82817807337045
3000.0,2114097.24073059,-3630481.53570842,-5297773.12351411,4115937.53238874,821311.32703814,-5301010.21751189,-1365.06172877056,7553.03497615015,105.246323739317,-5.29173742960497,-1.05590093471166,6.83514216523303,6757964.87545334,1.24208290863875,-0.288679284259796,-0.187544189760362,0.0606543971149274,-0.963873450325502,-0.123376369200803,1.9143158069156,-2.151238548851E-4,-0.0011079304101601,-1.595986417462E-4,396389.1171139,4.2125E-12,1044.67354480121,-5.29173742960497,-1.05590093471166,6.83514216523303
3060.0,2496080.88125356,-3408667.61602149,-5279219.03472925,4024575.80602421,1272244.09708609,-5282402.18441525,-1679.15048475861,7472.26061906211,514.776042887713,-5.17387989435148,-1.63553111566524,6.81060382270147,6758053.84816062,1.2464581778777,-0.2991740089147,-0.185947692613042,0.0700902720326762,-0.984294180221969,-0.168700228488507,1.96436240362256,-2.225783638623E-4,-0.0011062113866556,-1.622425668963E-4,396546.770223715,4.087E-12,1037.20989967304,-5.17387989435148,-1.63553111566524,6.81060382270147
3120.0,2868559.98506331,-3174450.23256459,-5236170.9154927,3914595.24114992,1717291.23177803,-5239285.39463276,-1985.45207627579,7356.92300876791,921.891022701884,-5.03226378581274,-2.20757405787662,6.75468202192428,6758251.98019714,1.25083344713094,-0.309532517413319,-0.184240517792167,0.079926137552551,-1.00760509005141,-0.213005739607106,2.01561192918394,-2.301183064016E-4,-0.0011044194729047,-1.648450519328E-4,396605.498122254,3.9736E-12,1029.95840363377,-5.03226378581274,-2.20757405787662,6.75468202192428
3180.0,3229923.26249823,-2928818.9244911,-5168829.68948205,3786505.46315129,2154394.15481884,-5171861.09018439,-2282.55973888474,7207.55538184978,1324.71522306564,-4.86753101539961,-2.76943592175322,6.66763160679124,6758555.54559416,1.25520871638133,-0.319728754513022,-0.182424358822157,0.0901478053674103,-1.03389183779296,-0.256124848444385,2.06828185893932,-2.377405918609E-4,-0.0011025535054127,-1.674048902765E-4,396567.520110817,3.8717E-12,1022.92596181331,-4.86753101539961,-2.76943592175322,6.66763160679124
3240.0,3578601.51347735,-2672801.3823918,-5077508.23662446,3640899.28728063,2581530.92911925,-5080442.53553244,-2569.1082452519,7024.84538602444,1721.3919549092,-4.68042387013225,-3.31856512494035,6.54984263941997,6758958.90171478,1.25958398563171,-0.329737289570388,-0.180502023973972,0.100739885724315,-1.06324820159631,-0.297877547728405,2.12258417626971,-2.454420687406E-4,-0.0011006123848618,-1.699208824659E-4,396436.856311669,3.7806E-12,1016.11610580391,-4.68042387013225,-3.31856512494035,6.54984263941997
3300.0,3913074.40756527,-2407459.22793416,-4962629.9908755,3478450.04712625,2996725.43957239,-4965453.61363005,-2843.77985854195,6809.63225308967,2110.09196741234,-4.47178266935422,-3.85246207679602,6.40183949093575,6759454.59417448,1.26395925488209,-0.339533456130003,-0.178477456892178,0.111685876205898,-1.09577110916839,-0.338070702950991,2.17872198034933,-2.532195265497E-4,-0.0010985950794999,-1.723918376071E-4,396219.24045744,3.6995E-12,1009.53177811097,-4.47178266935422,-3.85246207679602,6.40183949093575
3360.0,4231877.10366717,-2133883.70462426,-4824727.05485691,3299908.57024061,3398056.38863098,-4827426.93854691,-3105.3101378773,6562.90338501788,2489.0214719117,-4.24254317001475,-4.36868901008527,6.22427963338896,6760033.49242523,1.26833452412105,-0.349093489080232,-0.176355742788235,0.122968252510402,-1.13155426823307,-0.376497292120381,2.23688449842523,-2.61069697833E-4,-0.0010965006284529,-1.74816574849E-4,395922.001702093,3.6275E-12,1003.17725249907,-4.24254317001475,-4.36868901008527,6.22427963338896
3420.0,4533606.68384264,-1853191.292596,-4664437.83571146,3106099.81028145,3783666.06928508,-4667001.48903589,-3352.49357949775,6285.79034672606,2856.4300831471,-3.99373367716186,-4.86487992849459,6.01795208354415,6760684.95370432,1.27270979337429,-0.358394658107259,-0.174143099770422,0.134568560068054,-1.1706801573112,-0.412936238783289,2.29724028579029,-2.6898926036E-4,-0.0010943281449505,-1.771939248806E-4,395553.917416775,3.564E-12,997.059125668055,-3.99373367716186,-4.86487992849459,6.01795208354415
3480.0,4816928.3755595,-1566519.25947333,-4482504.20778748,2897919.14608217,4151768.87962904,-4484919.76866006,-3584.18907454427,5979.56425843078,3210.61865528216,-3.72647181299005,-5.33875067176164,5.78377544156361,6761397.01271386,1.27708506262181,-0.367415396160689,-0.171846855111034,0.146467505410255,-1.21321022992028,-0.447153060578386,2.35992848813756,-2.769748394712E-4,-0.0010920768194547,-1.795227314458E-4,395125.039437433,3.508E-12,991.186531357781,-3.72647181299005,-5.33875067176164,5.78377544156361
3540.0,5080581.53506837,-1275021.16159975,-4279768.20922497,2676328.35929723,4500659.54278805,-4282024.49955974,-3799.32516155118,5645.63058092983,3549.9469865499,-3.44196089685165,-5.78810908203163,5.5227954625385,6762156.5940841,1.28146033186077,-0.376135421651044,-0.169475406484837,0.158645046317117,-1.25917336741955,-0.478901588280454,2.42504822073829,-2.850230105826E-4,-0.0010897459226833,-1.818018528707E-4,394646.496713652,3.4591E-12,985.570810763511,-3.44196089685165,-5.78810908203163,5.5227954625385
3600.0,5323385.36514829,-979862.308415113,-4057168.28119621,2442351.30366842,4828720.99561588,-4059254.85862119,-3996.90504890704,5285.52328870102,3872.84136256898,-3.14148589010135,-6.21086523611103,5.23618209655907,6762949.74436981,1.28583560110829,-0.384535853131546,-0.167038168445055,0.171080479905169,-1.30855290907007,-0.507927018892328,2.49264640995055,-2.931303018425E-4,-0.0010873348085156,-1.840301636014E-4,394130.277760642,3.4163E-12,980.224864418889,-3.14148589010135,-6.21086523611103,5.23618209655907
3660.0,5544244.33943822,-682215.204104468,-3815735.06046577,2197069.28052315,5134431.9093442,-3817642.26672186,-4176.0113798805,4900.89842840187,4177.8019045226,-2.82640886347208,-6.60504168920183,4.92522593366957,6763761.88004286,1.29021087036154,-0.392599315272632,-0.16454550462984,0.183752527974592,-1.36127299856516,-0.533970532359776,2.56270485113741,-3.012931969382E-4,-0.001084842916774,-1.862065557461E-4,393588.996731229,3.3791E-12,975.162360878787,-2.82640886347208,-6.60504168920183,4.92522593366957
3720.0,5742153.30535332,-383254.981793248,-3556586.73807494,1941616.13683335,5416373.80532777,-3558305.74386849,-4335.81071044165,4493.52706418171,4463.40968466675,-2.49816395081672,-6.96878365708712,4.59133399367777,6764578.04766505,1.29458613960906,-0.400310035016041,-0.162008646409808,0.196639419109313,-1.4171854847293,-0.556775604847436,2.63512773360117,-3.095081380485E-4,-0.0010822697758699,-1.883299406167E-4,393035.647289022,3.3467E-12,970.396919709439,-2.49816395081672,-6.96878365708712,4.59133399367777
3780.0,5916202.23784271,-84154.8456970285,-3280923.99931058,1677173.10400962,5673237.72925711,-3282446.84540082,-4475.55766817865,4065.28761613117,4728.33356821556,-2.15825176137676,-7.30036904622456,4.23602480737798,6765383.19216328,1.29896140886516,-0.407653926893882,-0.159439598891864,0.209718967206506,-1.47605911533258,-0.576095977112738,2.7097313826803,-3.177715289359E-4,-0.0010796150053051,-1.903992502672E-4,392483.348768169,3.3185E-12,965.941337932536,-2.15825176137676,-7.30036904622456,4.23602480737798
3840.0,6065580.61647167,213918.46329856,-2990024.56266469,1404963.39755189,5903830.44776177,-2991344.1969816,-4594.59875924043,3618.15760411107,4971.33673771533,-1.8082332330924,-7.59821822542252,3.86092274523263,6766162.42888899,1.30333667810126,-0.4146186666142,-0.156851035383577,0.222968646297793,-1.53757311821262,-0.591704984430248,2.78623832289174,-3.260797381731E-4,-0.0010768783180206,-1.924134390227E-4,391945.089336084,3.2939E-12,961.806894179692,-1.8082332330924,-7.59821822542252,3.86092274523263
3900.0,6189581.39887042,509809.160090424,-2685237.33819535,1126246.59968624,6107080.13226279,-2686347.64879931,-4692.37578954288,3154.20481599768,5191.28285373555,-1.44972292161813,-7.86090341935589,3.4677515617916,6766901.31493823,1.30771194735164,-0.421193752145168,-0.15425618159273,0.236365661705577,-1.60131728046595,-0.603405651318077,2.86427778124913,-3.34429102498E-4,-0.0010740595225836,-1.943714849939E-4,391433.471024619,3.2722E-12,958.002742573448,-1.44972292161813,-7.86090341935589,3.4677515617916
3960.0,6287604.56473444,802376.85056201,-2367976.2285168,842312.849144976,6282041.49629617,-2368872.07222891,-4768.42886655889,2675.57792689526,5387.14180423249,-1.08438173336176,-8.08715759376094,3.05832713888447,6767586.11504705,1.31208721660202,-0.427370551672747,-0.151668690986711,0.249887017747755,-1.66680013968743,-0.611040659369155,2.94339425195052,-3.428159302884E-4,-0.001071158525205,-1.962723915743E-4,390960.4615487,3.2528E-12,954.535395546119,-1.08438173336176,-8.08715759376094,3.05832713888447
4020.0,6359160.2059065,1090500.88915754,-2039713.5985236,554476.864244118,6427900.35436212,-2040390.82507485,-4822.39894895069,2184.49660390055,5557.9949944215,-0.713909125642334,-8.27588269531963,2.63454942755047,6768204.05727948,1.31646248583812,-0.43314233795812,-0.14910251286388,0.263509582355853,-1.73346583075065,-0.614501095295652,3.02306467213983,-3.512365051512E-4,-0.0010681753315789,-1.981151889127E-4,390537.157785261,3.2349E-12,951.408288270589,-0.713909125642334,-8.27588269531963,2.63454942755047
4080.0,6403871.14004501,1373084.64119451,-1701973.44283221,264071.827326095,6543977.57267846,-1702428.91440019,-4854.02991314991,1683.24113932601,5703.04012954385,-0.340034812516499,-8.42615710654512,2.19839360733295,6768743.57370356,1.3208377550885,-0.438504308778941,-0.146571754792951,0.277210149100027,-1.8007186307128,-0.613732865967489,3.10272325666481,-3.596870896147E-4,-0.0010651100485381,-1.998989353585E-4,390173.565630881,3.2182E-12,948.621414498218,-0.340034812516499,-8.42615710654512,2.19839360733295
4140.0,6421475.02732456,1649059.63188776,-1356324.2827323,-27556.8395895023,6629732.38504208,-1356555.88875659,-4863.17010877213,1174.14166363764,5821.59544462303,0.0354899695810447,-8.53724217784998,1.75190050138656,6769194.52132378,1.32521302433889,-0.443453593300292,-0.144090541155707,0.290965497214876,-1.86795267644783,-0.608739879071771,-3.10139383616382,-3.681639289185E-4,-0.0010619628855173,-2.016227188739E-4,389878.400692759,3.2019E-12,946.171022548972,0.0354899695810447,-8.53724217784998,1.75190050138656
4200.0,6411825.97277663,1917389.56143946,-1004371.82711243,-319057.776524263,6684765.0503221,-1004378.49430316,-4849.77337846037,659.566997455029,5913.10333821976,0.410901567089094,-8.60858770571565,1.29716630615213,6769548.37871531,1.32958829359213,-0.447989244384391,-0.141672869582156,0.304752450288422,-1.93458317458775,-0.599583514426425,-3.0234758412349,-3.76663254888E-4,-0.00105873415582,-2.032856584079E-4,389658.91389476,3.1856E-12,944.049359711794,0.410901567089094,-8.60858770571565,1.29716630615213
4260.0,6374895.59942548,2177074.16892907,-647751.434284891,-609080.03187449,6708818.83189958,-647533.131763931,-4813.89952233775,141.913209499302,5977.13337132543,0.784433302110426,-8.63983623760569,0.836331714371734,6769798.41410277,1.33396356284251,-0.452112217010928,-0.139332467095399,0.318547934311816,-2.0000750789545,-0.586378458327763,-2.94722035489173,-3.851812898865E-4,-0.0010554242776814,-2.048869052287E-4,389520.745605259,3.1687E-12,942.244452503792,0.784433302110426,-8.63983623760569,0.836331714371734
4320.0,6310773.58111231,2427152.9259568,-288120.413811635,-896279.41957465,6701781.28358662,-287678.153351449,-4755.71419263118,-376.408045938656,6013.38459783364,1.15432505706999,-8.63082610088476,0.371570529109847,6769939.82104242,1.33833883208147,-0.455825333140406,-0.137082647785561,0.332329035787421,-2.06396580142451,-0.569285501435191,-2.8730692224139,-3.93714250833E-4,-0.0010520337751235,-2.064256442092E-4,389467.811322693,3.1509E-12,940.739908354012,1.15432505706999,-8.63082610088476,0.371570529109847
4380.0,6219667.62750627,2666708.54245613,72849.7907398968,-1179324.85261768,6663684.83114577,73513.9593881866,-4675.48821007921,-892.981332886574,6021.68719940937,1.51883294562883,-8.58159307417982,-0.0949221166529244,6769969.81840997,1.34271410133185,-0.459133233508976,-0.134936173808623,0.346073060559293,-2.12587983632709,-0.548502277025904,-2.80137906993985,-4.022583532748E-4,-0.0010485632785985,-2.079010950609E-4,389502.221305013,3.1318E-12,939.51754590357,1.51883294562883,-8.58159307417982,-0.0949221166529244
4440.0,6101902.91732882,2894870.26883149,433481.495767136,-1456904.61815067,6594706.64340923,434364.494438103,-4573.59630030019,-1405.39929565549,6002.00340488681,1.87623895725512,-8.49237064476884,-0.560941806222965,6769887.71205362,1.34708937058509,-0.462042316993183,-0.132905121456708,0.359757593964034,-2.18553477449538,-0.524253066006128,-2.73241515966214,-4.108098155042E-4,-0.0010450135254164,-2.093125135129E-4,389624.235813297,3.1113E-12,938.571333082589,1.87623895725512,-8.49237064476884,-0.560941806222965
4500.0,5957920.98062747,3110816.9777855,792098.705031371,-1727732.55946043,6495167.79208005,793196.441556683,-4450.51525517741,-1911.27449305075,5954.42768237852,2.22486045929863,-8.36358882386446,-1.02428701211277,6769694.91623854,1.35146463983547,-0.464560668324931,-0.131000753972525,0.373360562804998,-2.24273959555512,-0.496778720423051,-2.66635298528982,-4.193648627078E-4,-0.0010413853599538,-2.10659192431E-4,389832.256881072,3.0896E-12,937.896645470408,2.22486045929863,-8.36358882386446,-1.02428701211277
4560.0,5788278.03431995,3313780.0127393,1147035.02673328,-1990554.13067623,6365531.70447975,1148342.414128,-4306.82153129965,-2408.25111821474,5879.18620083167,2.56305944062879,-8.19587152202264,-1.48277125040515,6769394.93386241,1.35583990908586,-0.466697975068476,-0.129233402682724,0.386860299532992,-2.29738704732037,-0.466327522798029,-2.60328579765548,-4.279197311363E-4,-0.0010376797336432,-2.119404628737E-4,390122.85673894,3.0667E-12,937.484167506468,2.56305944062879,-8.19587152202264,-1.48277125040515
4620.0,5593642.77949546,3503045.79065883,1496641.53657965,-2244152.29094631,6206401.91868053,1498152.51690504,-4143.18830434815,-2894.01651855612,5776.63556655141,2.88925138504941,-7.99003251811787,-1.93423506983478,6768993.29533881,1.36021517832195,-0.468465434890235,-0.127612357904523,0.400235608876799,-2.34944226704283,-0.433147494266575,-2.54323590479882,-4.36470672282E-4,-0.00103389770474,-2.131556950806E-4,390490.842241053,3.0427E-12,937.319975523068,2.88925138504941,-7.99003251811787,-1.93423506983478
4680.0,5374793.67333909,3677958.14834754,1839294.54374902,-2487353.20617492,6018519.15551471,1841002.11652805,-3960.38200480439,-3366.31243315366,5647.2608489346,3.20191367076185,-7.74707008602709,-2.37655773238654,6768497.45700034,1.36459044757234,-0.469875654256444,-0.126145770938495,0.413465837013248,-2.39892967226703,-0.397480370405199,-2.48616771818005,-4.450139570541E-4,-0.0010300404378678,-2.14304299391E-4,390929.353880763,3.018E-12,937.385109953298,3.20191367076185,-7.74707008602709,-2.37655773238654
4740.0,5132615.69107363,3837920.4253437,2173403.21777083,-2719031.72810965,5802757.72677742,2175299.47280832,-3759.25836624354,-3822.94586974866,5491.67291801837,3.49959340387962,-7.46816037196766,-2.80766845072231,6767916.66083401,1.36896571681986,-0.470942539780569,-0.124840568300229,0.426530943204871,-2.44591973726317,-0.359557230402493,-2.43200092878974,-4.535458799367E-4,-0.0010261092033424,-2.153857270881E-4,391429.997266312,2.9927E-12,937.653069270378,3.49959340387962,-7.46816037196766,-2.80766845072231
4800.0,4868096.59851142,3982397.27572969,2497417.03592278,-2938116.62260129,5560121.30342827,2499493.19035922,-3540.75802256317,-4261.7995498022,5310.60512415459,3.7809146089548,-7.15464964098184,-3.22555706097841,6767261.75829238,1.37334098605596,-0.471681183509781,-0.123702379166904,0.439411573669965,-2.49051675949632,-0.319595611533165,-2.38062270878755,-4.620627631191E-4,-0.0010221053762748,-2.16399471167E-4,391983.004273893,2.9668E-12,938.088104023638,3.7809146089548,-7.15464964098184,-3.22555706097841
4860.0,4582322.75733482,4110916.20604387,2809833.01277668,-3143595.52116849,5291738.07166308,2812079.4521836,-3305.90169460434,-4680.84185786046,5104.90935690582,4.04458471702753,-6.80804553212405,-3.62828402689354,6766545.0017969,1.37771625531206,-0.472107743485592,-0.122735476824867,0.45208913729124,-2.53284824132369,-0.277797861709832,-2.3318983139551,-4.705609605853E-4,-0.0010180304354564,-2.173450670234E-4,392577.420521609,2.9417E-12,938.734233962969,4.04458471702753,-6.80804553212405,-3.62828402689354
4920.0,4276474.48785041,4223068.83813524,3109202.67592236,-3334519.57252205,4998855.30829,3111608.99922778,-3055.78500961785,-5078.13624034113,4875.5515258901,4.28940031106289,-6.43000747747218,-4.01398969206079,6765779.80832872,1.38209152455673,-0.472239320936104,-0.121942734703989,0.464545882620831,-2.5730561334582,-0.234350460989793,-2.28567984134034,-4.790368621507E-4,-0.0010138859620282,-2.1822209306E-4,393201.315323927,2.9188E-12,939.657280549955,4.28940031106289,-6.43000747747218,-4.01398969206079
4980.0,3951821.01802662,4318511.89579847,3394138.75459697,-3510007.77337134,4682833.40985241,3396693.82261189,-2791.57299883055,-5451.85000847337,4623.60651060649,4.51425210888507,-6.02233644940692,-4.38090272036794,6764980.50016381,1.38646679380997,-0.47209383545499,-0.121325597377817,0.476764975506557,-2.61128992653512,-0.189424058210101,-2.24181315718525,-4.874868974338E-4,-0.0010096736379383,-2.190301712106E-4,393842.009903395,2.8995E-12,940.908651571234,4.51425210888507,-6.02233644940692,-4.38090272036794
5040.0,3609715.04619161,4396967.91969068,3663321.55086017,-3669250.96057429,4345139.41235798,3666013.53816179,-2514.49431895313,-5800.26251010463,4350.25262913394,4.71812918388907,-5.58696420327862,-4.72734768927619,6764162.02832667,1.39084206306035,-0.471689899494711,-0.120884066698809,0.488730576551078,-2.6477014229986,-0.143174003973814,-2.20014316496754,-4.959075397506E-4,-0.0010053952441914,-2.197689673775E-4,394486.319356367,2.885E-12,942.534424462194,4.71812918388907,-5.58696420327862,-4.72734768927619
5100.0,3251586.94887078,4458225.71341232,3915504.96599559,-3811515.44943031,3987340.04029136,3918321.41590976,-2225.83524287185,-6121.7726450271,4056.76567697565,4.90012244293263,-5.1259421785697,-5.05175182528254,6763339.68469773,1.3952173322993,-0.471046693448746,-0.120616703029436,0.500427917525658,-2.68244094845878,-0.0957412033506029,-2.16051765721548,-5.042953099211E-4,-0.0010010526588963,-2.20438191783E-4,395120.803693767,2.8765E-12,944.578503293518,4.90012244293263,-5.1259421785697,-5.05175182528254
5160.0,2878938.66416994,4502140.52735648,4149522.15789868,-3936146.30558491,3611094.32482038,4152450.04031244,-1926.93346307601,-6414.90570798248,3744.51258724238,5.05942739797171,-4.64143021128763,-5.35265089450642,6762528.80890099,1.39959260154969,-0.470183842520417,-0.120520641326467,0.511843375795373,-2.71565474332814,-0.0472531529819268,-2.12279001405696,-5.126467799753E-4,-9.966478551164E-4,-2.210375992329E-4,395732.023203354,2.8753E-12,947.084516023897,5.05942739797171,-4.64143021128763,-5.35265089450642
5220.0,2493337.28145352,4528633.98787564,4364290.80824347,-4042570.24055262,3218145.83179009,4367316.5799696,-1619.17174873189,-6678.3195522125,3414.94476193815,5.19534628240448,-4.13568519427697,-5.62869428269596,6761744.49611904,1.40396787080293,-0.469121296476475,-0.1205916216409,0.52296454577465,-2.74748328988333,0.0021749363440275,-2.08682099835562,-5.209585767486E-4,-9.9218289853E-4,-2.215669892917E-4,396306.793399137,2.8826E-12,950.097125878993,5.19534628240448,-4.13568519427697,-5.62869428269596
5280.0,2096408.36912469,4537693.77959175,4558817.98113221,-4130298.12322096,2810314.54029266,4561927.64853993,-1303.9714939069,-6910.81007402257,3069.59112149188,5.30728957409763,-3.61104980140441,-5.87864931706444,6761001.31183906,1.40834314003902,-0.467879213264123,-0.120824033413705,0.533780306420496,-2.77806036084058,0.0524390007360571,-2.05247986794343,-5.292273853556E-4,-9.876599449085E-4,-2.220262063692E-4,396832.434930004,2.8995E-12,953.662764713575,5.30728957409763,-3.61104980140441,-5.87864931706444
5340.0,1689829.07094869,4529373.09039636,4732204.55765483,-4198927.10183157,2389488.41237846,4735383.74127509,-982.786190494467,-7111.31602507121,2710.05091608986,5.39477699425612,-3.06994136738551,-6.10140489644785,6760313.01923351,1.41271840928941,-0.466477847334245,-0.121210972780591,0.544280883785178,-2.8075126125741,0.103445013684282,-2.01964499052453,-5.374499525328E-4,-9.830812374186E-4,-2.224151397176E-4,397297.014001365,2.9274E-12,957.829499671318,5.39477699425612,-3.06994136738551,-6.10140489644785
5400.0,1275320.99993576,4503789.82933168,4883649.23327147,-4248142.33282078,1957614.69392136,4886883.23408088,-657.094855124683,-7278.92316382385,2337.98633806558,5.45743805445765,-2.51484098877568,-6.29597450577012,6759692.32444507,1.41709367853979,-0.46493744336514,-0.121744311950388,0.554457907688521,-2.83595958311209,0.155107934395969,-1.98820411263404,-5.456230898394E-4,-9.784491037585E-4,-2.227337233414E-4,397689.569112397,2.9676E-12,962.645541187315,5.45743805445765,-2.51484098877568,-6.29597450577012
5460.0,854642.960359733,4461125.62670431,5012452.06714445,-4277718.31452898,1516690.98586315,5015725.93422886,-328.395435012787,-7412.86776073409,1955.11496988045,5.495012223338,-1.94828288480505,-6.4614986954415,6759150.64449459,1.42146894779017,-0.463278135924729,-0.122414779593163,0.56430446163007,-2.86351398894536,0.207350729817511,-1.95805440394016,-5.537436767091E-4,-9.737659531371E-4,-2.229819358187E-4,398000.320215305,3.0215E-12,968.155809468472,5.495012223338,-1.94828288480505,-6.4614986954415
5520.0,429583.525111216,4401624.62711828,5118017.57447178,-4287519.82515837,1068756.124134,5121316.17376852,1.8017864726159,-7512.5394732497,1563.20209737446,5.50734877982972,-1.37284403073219,-6.5972471061097,6758697.90189287,1.4258442170377,-0.461519855449411,-0.12321205106785,0.57381512514001,-2.89028224440298,0.260103477391592,-1.92910237366792,-5.618086633422E-4,-9.690342731042E-4,-2.231598000364E-4,398220.856752983,3.0904E-12,974.396128921872,5.50734877982972,-1.37284403073219,-6.5972471061097
5580.0,1953.49621079265,4325592.08517441,5199857.35451142,-4277502.46549,615880.905572733,5203165.43832842,331.980767531965,-7577.48360677087,1164.05291326118,5.4944064119733,-0.791134052546682,-6.70262011440702,6758342.34933751,1.43021948627666,-0.459682240759828,-0.124124847235542,0.582986007861798,-2.91636515302852,0.31330254966827,-1.90126373746878,-5.698150734328E-4,-9.64256626243E-4,-2.232673828397E-4,398344.301420102,3.1755E-12,981.385185436693,5.4944064119733,-0.791134052546682,-6.70262011440702
5640.0,-426421.72484491,4233392.7735403,5257592.24835164,-4247712.80778946,160158.696235205,5260894.52536086,660.626255194062,-7607.40277638319,759.504631550041,5.45625260974555,-0.205785351300138,-6.77715016651478,6758090.42713934,1.4345947555299,-0.457784558182227,-0.125141040544215,0.591814774765334,-2.94185874289988,0.366889878035981,-1.87446330070474,-5.777600067216E-4,-9.594356467358E-4,-2.233047945986E-4,398365.446909579,3.2777E-12,989.115417635054,5.45625260974555,-0.205785351300138,-6.77715016651478
5700.0,-853709.831489432,4125449.21257677,5290954.02160997,-4198288.15307652,-296304.042342151,5294235.22701361,986.230290896459,-7602.15798177052,351.418529919003,5.39306288779357,0.380556591030815,-6.82050285419642,6757946.65528374,1.43897002478028,-0.455845627203303,-0.126247767033218,0.600300662004091,-2.9668552385277,0.420812290445597,-1.8486349178949,-5.856406413696E-4,-9.545740368111E-4,-2.232721886923E-4,398280.863350712,3.3976E-12,997.545235162505,5.39306288779357,0.380556591030815,-6.82050285419642
5760.0,-1278079.34476625,4002239.73018367,5299786.56817407,-4129455.89954999,-751397.274006748,5303031.53374219,1307.29866491577,-7561.76910445418,-58.3280657879249,5.30511986020666,0.965242783842796,-6.83247777328023,6757913.56130263,1.44334529401923,-0.453883752460653,-0.127431542890745,0.608444483049225,-2.99144418262854,0.475020916588588,-1.82372158835082,-5.934542361465E-4,-9.496745630863E-4,-2.231697609147E-4,398088.974607606,3.5352E-12,1006.59562875032,5.30511986020666,0.965242783842796,-6.83247777328023
5820.0,-1697707.35962962,3864296.36010313,5284046.63188573,-4041532.52549655,-1203016.92150204,5287240.35556575,1622.35731107951,-7486.41483270256,-467.8498426806,5.19281217527779,1.54563024457536,-6.81300918830535,6757991.64444538,1.44772056326676,-0.451916661763201,-0.128678384203296,0.616248624855996,-3.01571374405647,0.529470653190431,-1.79967575583137,-6.011981324285E-4,-9.447400528145E-4,-2.229977488031E-4,397790.102088511,3.6902E-12,1016.15351418315,5.19281217527779,1.54563024457536,-6.81300918830535
5880.0,-2110787.2797147,3712202.58609234,5243804.04377146,-3934922.19051999,-1649074.37834711,5246931.75857115,1929.95863324895,-7376.43201541402,-875.261596218113,5.05663330434598,2.1190915273791,-6.76216651010581,6758179.3759929,1.45209583251429,-0.449961449749027,-0.129973928561651,0.623717033939695,-3.0397522767874,0.584119681599591,-1.7764598975218,-6.088697560016E-4,-9.397733900485E-4,-2.227564308928E-4,397386.475211322,3.8616E-12,1026.0818852196,5.05663330434598,2.1190915273791,-6.76216651010581
5940.0,-2515536.51431248,3546590.93930348,5179241.47310137,-3810114.9594566,-2087505.96476113,5182288.71494959,2228.68775431513,-7232.3144422997,-1278.68634843871,4.89718016592603,2.68302432796449,-6.68015457636124,6758473.2349846,1.45647110176467,-0.448034526723551,-0.131303557230962,0.630855192358018,-3.06365023402958,0.638929029439031,-1.75404751877673,-6.164666186681E-4,-9.34777511733E-4,-2.224461259018E-4,396882.208180385,4.048E-12,1036.23411164081,4.89718016592603,2.68302432796449,-6.68015457636124
6000.0,-2910204.11214514,3368140.45542956,5090653.69127131,-3667684.65393922,-2516282.29303827,5093606.36556289,2517.16867697304,-7054.71104405573,-1676.2634765054,4.71515155497774,3.23486122095443,-6.5673137093776,6758867.77811194,1.46084637101505,-0.446151572180015,-0.132652516651435,0.637670083712494,-3.08750259917548,0.693862167488023,-1.73242472199575,-6.239863196511E-4,-9.297554037361E-4,-2.220671918471E-4,396283.24324911,4.2481E-12,1046.46819123653,4.71515155497774,3.23486122095443,-6.5673137093776
6060.0,-3293078.30495263,3177573.99815222,4978446.34830958,-3508286.33727621,-2933417.50730516,4981290.79484388,2794.07034343741,-6844.42350316842,-2066.15683707073,4.51134633776472,3.77207957439155,-6.42411951122745,6759355.74208945,1.46522164025686,-0.44432749248654,-0.134006038108745,0.64417014939172,-3.11141208469299,0.748884631864832,-1.71159260340148,-6.314265467982E-4,-9.247100968323E-4,-2.216200250977E-4,395597.261172665,4.4602E-12,1056.65733101572,4.51134633776472,3.77207957439155,-6.42411951122745
6120.0,-3662493.93339307,2975655.45527288,4843134.26275716,-3332653.43915793,-3336978.36195964,4845857.31878381,3058.11257866436,-6602.40326374678,-2446.56286920055,4.28666136560584,4.29221167126882,-6.25118234440207,6759928.17642884,1.46959690949868,-0.442576382229097,-0.135349454497401,0.650365235383083,-3.13549349447838,0.80396365951993,-1.69157087321005,-6.387850775807E-4,-9.196446626489E-4,-2.211050593674E-4,394833.560088547,4.6826E-12,1066.69526526605,4.28666136560584,4.29221167126882,-6.25118234440207
6180.0,-4016839.72704924,2763186.81365468,4685339.22680564,-3141594.5277169,-3725093.10234957,4687928.28789506,3308.07189868732,-6329.74792748864,-2815.71865518916,4.04208905610093,4.79285505079832,-6.04924643667571,6760574.60421483,1.47397217874906,-0.440911488726009,-0.136668313193914,0.656266530076128,3.12330541995601,0.859067821231963,-1.67240333493546,-6.460597798898E-4,-9.145622095856E-4,-2.205227646516E-4,394002.904599223,4.9137E-12,1076.49680539752,4.04208905610093,4.79285505079832,-6.04924643667571
6240.0,-4354565.40902396,2541005.11949839,4505787.32992954,-2935989.73766509,-4095960.11046476,4508230.40839146,3542.7871625115,-6027.69702268146,-3171.9099147055,3.7787145881953,5.27168306335646,-5.81918854220931,6761283.20819554,1.47834744799087,-0.439345179274751,-0.137948484157654,0.661886493569847,3.09845370830081,0.914166629256824,-1.65416627898734,-6.532486126295E-4,-9.094658787203E-4,-2.198736461115E-4,393117.347359656,5.1519E-12,1085.99526883698,3.7787145881953,5.27168306335646,-5.81918854220931
6300.0,-4674188.59456361,2309979.33117985,4305305.80584911,-2716786.86462227,-4447856.27765207,4307591.58642874,3761.16504278837,-5697.62713409032,-3513.47890350374,3.4977126577114,5.72645561334019,-5.5620160871491,6762041.03925214,1.4827227172384,-0.437888910753256,-0.139176262484004,0.667238779076596,3.07293536536636,0.969230083622776,-1.63698160460735,-6.603496261064E-4,-9.043588397117E-4,-2.191582429105E-4,392190.025991214,5.3952E-12,1095.13855113854,3.4977126577114,5.72645561334019,-5.5620160871491
6360.0,-4974301.45302519,2071007.07118328,4084819.40951305,-2484997.13733081,-4779145.06569313,4086937.30210201,3962.18528735862,-5341.04638373068,-3838.83218358819,3.20034374265657,6.15503004420144,-5.2788647271584,6762834.24408243,1.48709798648878,-0.436553201272777,-0.140338464744633,0.672338147087609,3.04648647634582,1.02422809578181,-1.62103791644223,-6.673609622207E-4,-8.992442867083E-4,-2.183771270071E-4,391234.938636544,5.6416E-12,1103.88512852226,3.20034374265657,6.15503004420144,-5.2788647271584
6420.0,-5253577.10075745,1825011.28568822,3845346.33290645,-2241690.6812154,-5088284.21707801,3847286.52201475,4144.90574084778,-4959.58825586048,-4146.44822741681,2.88794983258667,6.55537210028019,-4.9709952464317,6763648.3087188,1.49147325573631,-0.435347603663447,-0.141422518562,0.677200373028364,3.01874488093453,1.07912967768679,-1.60662568200287,-6.742808544583E-4,-8.941254342763E-4,-2.175309019083E-4,390266.701931015,5.889E-12,1112.20067863699,2.88794983258667,6.55537210028019,-4.9709952464317
6480.0,-5510775.69261091,1572936.82023782,3587993.67085655,-1987991.68867382,-5373833.07503783,3589747.16160221,4308.46709295947,-4555.00476401707,-4434.88481463633,2.56194958342749,6.92556688127685,-4.63978973271576,6764468.31429144,1.49584852498669,-0.434280680664484,-0.142416544977829,0.681842149185819,2.98918845437406,1.13390167727764,-1.59419850500921,-6.811076276883E-4,-8.890055133552E-4,-2.166202013884E-4,389300.295581035,6.135E-12,1120.05554390127,2.56194958342749,6.92556688127685,-4.63978973271576
6540.0,-5744750.17937121,1315746.92069909,3313952.45061174,-1725073.31355005,-5634459.47393037,3315511.11099692,4452.09731805866,-4129.15896350523,-4702.78617613215,2.22383286826727,7.26382968779569,-4.2867469706135,6765279.20124084,1.50022379422564,-0.433359981783911,-0.143309433286972,0.686280981733902,2.95702180606952,1.18850659897835,-1.58448601748291,-6.878396977708E-4,-8.838877672504E-4,-2.156456881767E-4,388350.79809384,6.3769E-12,1127.42299306562,2.22383286826727,7.26382968779569,-4.2867469706135
6600.0,-5954451.69816012,1054419.67063669,3024492.24177812,-1454152.3094126,-5868946.16097005,3025848.84103428,4575.11576918768,-3684.01681931277,-4948.88983701178,1.87515470555538,7.56851664084215,-3.91347700584798,6766066.03798028,1.50459906347603,-0.432592021884833,-0.144090908116687,0.690535083717799,2.92095291713946,1.24289845077063,-1.57871686580825,-6.944755709767E-4,-8.787754476741E-4,-2.146080526201E-4,387433.118485344,6.6118E-12,1134.27812167788,1.87515470555538,7.56851664084215,-3.91347700584798
6660.0,-6138934.56380794,789944.375243869,2720955.36617723,-1176483.43349837,-6076196.7111113,2722103.60897744,4676.93688891168,-3221.63844686718,-5172.03310767651,1.51752855867304,7.83813494495067,-3.52169484607149,6766814.28981595,1.50897433272355,-0.4319822616432,-0.144751588636613,0.694623264881136,2.87871141906013,1.29701392337165,-1.57910008546939,-7.010138432273E-4,-8.736718108417E-4,-2.135080113236E-4,386561.728988004,6.8367E-12,1140.59720812635,1.51752855867304,7.83813494495067,-3.52169484607149
6720.0,-6297360.82929783,523317.905603957,2404750.73029034,-893353.640441148,-6255240.89818021,2405685.28664424,4757.07349943979,-2744.16875119194,-5371.15917051676,1.15261901474523,8.07135265425489,-3.1132132790262,6767510.08375761,1.51334960196536,-0.431535090102484,-0.145283039884312,0.69856481923301,2.82588015433491,1.3507510602185,-1.58999322071648,-7.074531991576E-4,-8.685801136319E-4,-2.123463057746E-4,385750.403877214,7.0486E-12,1146.35735825977,1.15261901474523,8.07135265425489,-3.1132132790262
6780.0,-6429004.38527615,255541.015691687,2077347.30612533,-606076.092134248,-6405239.48714094,2078063.83679152,4815.13963538465,-2253.82749869161,-5545.32270912358,0.782133865551158,8.2670077937845,-2.68993480614237,6768140.46471105,1.51772487121575,-0.431253809621487,-0.145677816284559,0.702379411253269,2.75256597654572,1.40390806482478,-1.62123122931301,-7.137924110093E-4,-8.635036098208E-4,-2.111237009535E-4,385011.96952332,7.2442E-12,1151.53629576446,0.782133865551158,8.2670077937845,-2.68993480614237
6840.0,-6533254.56998796,-12385.35373822,1740267.28951935,-315984.012224491,-6525488.41470568,1740762.46679073,4850.85288436426,-1752.89886477361,-5693.6950273566,0.407815629112669,8.42411668507892,-2.25384270866394,6768693.63845477,1.52210014046327,-0.431140623569885,-0.145929497526324,0.706086961624694,2.63141145117781,1.45595815579167,-1.70011450881571,-7.200303373602E-4,-8.584455463935E-4,-2.098409839375E-4,384358.070648852,7.4205E-12,1156.11212486072,0.407815629112669,8.42411668507892,-2.25384270866394
