time,gePosition_m_X,gePosition_m_Y,gePosition_m_Z,eiPosition_m_X,eiPosition_m_Y,eiPosition_m_Z,eiVelocity_m_s_X,eiVelocity_m_s_Y,eiVelocity_m_s_Z,eiAccel_m_s2_X,eiAccel_m_s2_Y,eiAccel_m_s2_Z,semiMajorAxis_m,gast_rad,eulerAngle_rad_Roll,eulerAngle_rad_Pitch,eulerAngle_rad_Yaw,eulerAngleWrtEi_rad_Roll,eulerAngleWrtEi_rad_Pitch,eulerAngleWrtEi_rad_Yaw,bodyAngularRateWrtEi_rad_s_Roll,bodyAngularRateWrtEi_rad_s_Pitch,bodyAngularRateWrtEi_rad_s_Yaw,altitudeMsl_m,airDensity_kg_m3,ambientTemperature_dgK,eiGravitation_m_s2_X,eiGravitation_m_s2_Y,eiGravitation_m_s2_Z
0.0,-1428622.33421604,4163200.23408806,5136049.85325658,-4292653.40999999,955168.470000001,5139356.56999999,109.649662999999,-7527.72648999999,1484.521489,5.51387371235876,-1.22700119262805,-6.62056474851441,6758662.11722884,1.02331933954551,0.0,-0.202458193231342,-2.0E-16,-2.4715939053549,-0.0371889644761349,-1.42899313488854,0.0,-0.0011344542745508,0.0,398254.541169311,3.4018E-12,990.9677734375,5.51387371235876,-1.22700119262805,-6.62056474851441
60.0,-1789722.70526896,3920281.28994534,5213135.46294005,-4276158.38817933,501645.154952279,5216446.65330053,439.972330892332,-7583.89133224093,1084.1548444161,5.49266875931076,-0.644443899684263,-6.7198683790639,6758329.86142446,1.02769460895833,-5.6068232807E-6,-0.202457034204843,-1.934641768797E-4,-2.47205929657798,0.016120423674086,-1.38666117966429,-7.049133021E-7,-0.0011344779883362,-3.3028527039E-6,398353.760185343,3.2015E-12,984.49365234375,5.49266875931076,-0.644443899684263,-6.7198683790639
120.0,-2144775.64096502,3662449.35397975,5266054.13202765,-4239897.32256801,45802.7349243361,5269354.49040422,768.265700690225,-7605.00022421558,678.755903409442,5.44625674454093,-0.0589102691010154,-6.78824547697196,6758100.21223513,1.03206987837114,-3.81339641701E-5,-0.202453132473526,-5.854796811966E-4,-2.47030794948922,0.0692802951960854,-1.34410218239072,-1.5682337123E-6,-0.0011344959092939,-6.615081428E-6,398349.821340543,3.306E-12,992.433959960937,5.44625674454093,-0.0589102691010154,-6.78824547697196
180.0,-2492271.95272492,3390831.29461052,5294559.74572235,-4184037.23287323,-410251.663551794,5297834.01611983,1093.02316285447,-7590.95399675673,270.190164234031,5.37484943482296,0.526951724057649,-6.82538820996263,6757977.40687642,1.03644514778395,-1.211382745163E-4,-0.202445868668036,-0.0011707232315981,-2.46631584767114,0.122194573081485,-1.3010762841751,-2.589767053E-6,-0.0011345075710701,-9.9359410654E-6,398239.679867101,3.4292E-12,1001.06030273437,5.37484943482296,0.526951724057649,-6.82538820996263
240.0,-2830726.65985385,3106603.88812009,5298518.52254468,-4108835.08969957,-864409.73207654,5301751.56858411,1412.7540357722,-7541.81243139682,-139.662439878004,5.27876580369752,1.11049330847834,-6.83112335349939,6757963.75425847,1.04082041719676,-2.780810849035E-4,-0.202434667101744,-0.0019422731707318,-2.46003131551207,0.174763491844318,-1.2573391712887,-3.7692822606E-6,-0.0011345124462374,-1.32646798766E-5,398022.163902664,3.5712E-12,1010.28369140625,5.27876580369752,1.11049330847834,-6.83112335349939
300.0,-3158685.2534843,2810988.7765423,5277909.63830754,-4014636.66661107,-1314571.51307011,5281086.51270665,1725.98996227318,-7457.79401887971,-548.915634633748,5.15843080866838,1.68907455087437,-6.80541283648765,6758059.59255351,1.04519568660958,-5.322143494599E-4,-0.202419019362254,-0.0028916444028684,-2.45137464563143,0.226881529601776,-1.21263857844644,-5.1065108489E-6,-0.0011345099468991,-1.66005389141E-5,397698.010437898,3.7313E-12,1019.98223876953,5.15843080866838,1.68907455087437,-6.80541283648765
360.0,-3474729.88299751,2505247.29234226,5232825.36390053,-3901875.0106993,-1758654.90064823,5235931.37712586,2031.29122797305,-7339.27514043758,-955.684924931959,5.01437400720148,2.26007397266821,-6.74835407432055,6758263.28049335,1.04957095602238,-9.064675441062E-4,-0.202398505196292,-0.0040088307741367,-2.44023743940509,0.278435209191047,-1.16671093034142,-6.6011463063E-6,-0.0011344994253703,-1.99427514561E-5,397269.867517627,3.9088E-12,1030.01342773437,5.01437400720148,2.26007397266821,-6.74835407432055
420.0,-3777485.44409092,2190675.16692115,5163470.71568287,-3771068.53664324,-2194605.07504862,5166491.50347784,2327.25299146757,-7186.78867113741,-1358.0957287064,4.84722799944784,2.82089820711763,-6.66018008729381,6758571.22258776,1.0539462254352,-0.0014233358040955,-0.202372809919031,-0.0052823546755627,-2.42648179091992,0.329300716765542,-1.11927819399991,-8.25284343E-6,-0.0011344801749376,-2.32905424503E-5,396742.262558651,4.1023E-12,1040.22863769531,4.84722799944784,2.82089820711763,-6.66018008729381
480.0,-4065625.5471826,1868597.13976429,5070162.61806051,-3622818.74987444,-2620403.83582659,5073084.20755666,2612.51141533645,-7001.02200121909,-1754.29151105281,4.65772667442321,3.36899175094047,-6.5412593876438,6758977.92799297,1.05832149484801,-0.0021047697993237,-0.202341737661587,-0.006699323611197,-2.40993951105965,0.379341293356083,-1.07004508673896,-1.00612175976E-5,-0.001134451430697,-2.66431279689E-5,396121.537175711,4.3105E-12,1050.48669433593,4.65772667442321,3.36899175094047,-6.5412593876438
540.0,-4337878.34422985,1540361.48499635,4953328.57865994,-3457807.60517097,-3034078.7986996,4956137.45278227,2885.74968521157,-6782.81446832018,-2142.44190389676,4.4467032263196,3.90184685664974,-6.39209560424406,6759476.10229596,1.06269676426082,-0.0029720678571733,-0.202305219869715,-0.0082454934400485,-2.39041168720869,0.428404367937177,-1.01869688944024,-1.202584398E-5,-0.001134412370472,-2.99997146785E-5,395415.749435889,4.5318E-12,1060.66369628906,4.4467032263196,3.90184685664974,-6.39209560424406
600.0,-4593032.19132857,1207334.47222619,4813504.87745888,-3276794.50783428,-3433712.4204182,4816188.03734026,3145.7039019003,-6533.15419103629,-2520.75079420193,4.21508789911168,4.41701360036898,-6.21332680090311,6760056.77101622,1.06707203367362,-0.0040457708518325,-0.202263318580541,-0.0099053379716495,-2.36766901631591,0.476318424105564,-0.964898263034113,-1.41462566979E-5,-0.0011343621158125,-3.33594993257E-5,394634.544988448,4.7645E-12,1070.65759277343,4.21508789911168,4.41701360036898,-6.21332680090311
660.0,-4829941.12368871,870894.778857351,4651334.27233941,-3080612.96558273,-3817450.81541303,4653879.29746416,3391.16882883625,-6253.17429260424,-2887.46436072268,3.96390541102473,4.91211014522778,-6.00572443278637,6760709.43315772,1.07144730308643,-0.0053455603843721,-0.202216224130262,-0.0116621245714908,-2.3414535456287,0.522889633075078,-0.908293668095628,-1.64219479237E-5,-0.0011342997330758,-3.67216682397E-5,393788.999037095,5.0071E-12,1080.38696289062,3.96390541102473,4.91211014522778,-6.00572443278637
720.0,-5047530.11880345,532427.871505085,4467563.22483448,-2870166.90044969,-4183512.32726876,4469958.3306369,3621.0034740812,-5944.14850279987,-3240.8790356869,3.69427200607144,5.38483320301462,-5.7701918762431,6761422.24267419,1.07582257249925,-0.006890160778273,-0.202164247081731,-0.0134979954139752,-2.31148271250427,0.56789835224245,-0.848510249397178,-1.88523669335E-5,-0.0011342242345904,-4.0085396856E-5,392891.431630416,5.2577E-12,1089.78918457031,3.69427200607144,5.38483320301462,-5.7701918762431
780.0,-5244800.12289801,193320.374778036,4263038.65137467,-2646426.63131708,-4530195.81736824,4265272.74402525,3834.13648286546,-5607.48612656032,-3579.3493636992,3.40739207800644,5.8329686771639,-5.50776246071282,6762182.2152371,1.08019784191205,-0.0086972454095242,-0.20210780430382,-0.0153940540071573,-2.27745688458706,0.611095692257106,-0.785164361375987,-2.14369191117E-5,-0.001134134579904,-4.34498492607E-5,391955.199236006,5.5145E-12,1098.81494140625,3.40739207800644,5.8329686771639,-5.50776246071282
840.0,-5420832.81511734,-145045.553570883,4038704.20713492,-2410424.53925439,-4855888.63240331,4040766.93525492,4029.57131338622,-5244.72636948365,-3901.29572575217,3.10455431288491,6.2544024490423,-5.21959692780579,6762975.45722837,1.08457311132487,-0.0107833478777811,-0.202047399281742,-0.017330456604582,-2.23907192557852,0.652200508187307,-0.71787323805694,-2.41749649113E-5,-0.0011340296771168,-4.68141777596E-5,390994.466027537,5.7752E-12,1107.42553710937,3.10455431288491,6.2544024490423,-5.21959692780579
900.0,-5574795.08344871,-481297.821276883,3795596.11164199,-2163250.42956484,-5159074.21193978,3797477.91469641,4206.39116544977,-4857.53201329481,-4205.2118917141,2.78712730006429,6.64713124763085,-4.90698024241682,6763787.41341875,1.08894838073768,-0.0131637785049581,-0.201983596885954,-0.019286508114368,-2.19603855333312,0.690897380047464,-0.646273555586467,-2.7065818775E-5,-0.0011339083843006,-5.01775224717E-5,390023.95874102,6.0373E-12,1115.58813476562,2.78712730006429,6.64713124763085,-4.90698024241682
960.0,-5705943.18613587,-814079.953229398,3534838.52763315,-1906046.60635249,-5438339.29693012,3536530.68076296,4363.76362871497,-4447.68243861815,-4489.6723602352,2.45655456798824,7.00927352089877,-4.57131768406143,6764603.12935536,1.09332365015049,-0.0158525466195637,-0.201916992973941,-0.021240762113328,-2.14811022807532,0.72683640931669,-0.570048609223604,-3.01087480198E-5,-0.0011337695110054,-5.35390109515E-5,389058.709336703,6.2983E-12,1123.275390625,2.45655456798824,7.00927352089877,-4.57131768406143
1020.0,-5813626.57238085,-1142056.57451264,3257638.50724453,-1640002.67749161,-5692380.70006782,3259133.16231148,4500.94501494023,-4017.0659979308,-4753.33944089704,2.11434901036875,7.33908020631701,-4.2141301536283,6765407.52407349,1.0976989195633,-0.0188622890491855,-0.201848179340937,-0.023171124573286,-2.09512070477014,0.759635936089083,-0.488965225083085,-3.33029716901E-5,-0.0011336118198538,-5.68977578405E-5,388113.790023844,6.5551E-12,1130.46276855468,2.11434901036875,7.33908020631701,-4.2141301536283
1080.0,-5897291.33649956,-1463918.80228929,2965280.52242688,-1366350.11007102,-5920011.59924591,2966570.74505832,4617.28433691706,-3567.67174830607,-4994.97002984386,1.76208668026164,7.63494527897841,-3.83704864140397,6766185.66838891,1.10207418897612,-0.0222042052001774,-0.201777704669581,-0.0250549609064819,-2.03703080974181,0.788889489458547,-0.402919954835919,-3.66476593835E-5,-0.0011334340282243,-6.02528645498E-5,387204.045455322,6.8045E-12,1137.12683105468,1.76208668026164,7.63494527897841,-3.83704864140397
1140.0,-5956483.28044118,-1778389.52321476,2659120.59949999,-1086356.55865706,-6120167.31618809,2660200.40193712,4712.22689583845,-3101.58056134952,-5213.42202729306,1.40139994371637,7.89541593959286,-3.44180781637763,6766923.06373083,1.10644945838892,-0.0258879990535216,-0.201706032251639,-0.0268692059359038,-1.97398111842579,0.814178265786963,-0.311991219900802,-4.01419300543E-5,-0.0011332348100249,-6.36034189763E-5,386343.82706515,7.0429E-12,1143.24548339843,1.40139994371637,7.89541593959286,-3.44180781637763
1200.0,-5990850.56073288,-2084228.53243841,2340580.08091328,-801319.991019896,-6291910.54362038,2341444.45048402,4785.31743882488,-2620.95563639128,-5407.66034342784,1.03397000076429,8.11920229208795,-3.03023871415836,6767605.91626041,1.11082472780174,-0.0299218283502468,-0.201633495364573,-0.0285904763931443,-1.90634307497056,0.835089972321782,-0.216489936760809,-4.37848507987E-5,-0.0011330127975558,-6.6948495255E-5,385546.734593295,7.2669E-12,1148.79772949218,1.03397000076429,8.11920229208795,-3.03023871415836
1260.0,-6000145.89749246,-2380237.50981477,2011139.04051729,-512562.638240024,-6434435.98619196,2011783.96357458,4836.20284931508,-2128.03245228051,-5576.76243840331,0.661518798963461,8.30518635246386,-2.60426052084792,6768221.40090326,1.11519999721455,-0.0343122611799333,-0.20156025127937,-0.0301951855398953,-1.83475664618078,0.851243784821475,-0.116996707856743,-4.75754356284E-5,-0.0011327665834643,-7.02871535474E-5,384825.369809798,7.4729E-12,1153.76281738281,0.661518798963461,8.30518635246386,-2.60426052084792
1320.0,-5984228.32517156,-2665264.80876191,1672329.38189683,-221424.798293106,-6547074.3827616,1672751.86308471,4864.63433508564,-1625.10820274515,-5719.92334269112,0.285800382914664,8.45243022758912,-2.16587147227343,6768757.90992161,1.11957526662736,-0.0390642401235602,-0.201486234951378,-0.0316596594985617,-1.76013998069248,0.86231944204951,-0.0143710417531475,-5.15126442362E-5,-0.0011324947227896,-7.36184398693E-5,384191.107306387,7.6574E-12,1158.12072753906,0.285800382914664,8.45243022758912,-2.16587147227343
1380.0,-5943064.46714276,-2938210.03331374,1325727.65249277,70741.475763531,-6629295.88065347,1325925.72922548,4870.46908181711,-1114.53076990814,-5836.46010584774,-0.0914082586082709,8.56018330527305,-1.71713891131133,6769205.28077488,1.12395053604017,-0.0441810540390746,-0.201411113501053,-0.0329602548616805,-1.6836585856624,0.868086516076109,0.0902798916576643,-5.55953807602E-5,-0.0011321957351003,-7.69413859595E-5,383653.886965205,7.817E-12,1161.85144042968,-0.0914082586082709,8.56018330527305,-1.71713891131133
1440.0,-5876729.31910532,-3198028.37935042,972947.609261295,362578.77007622,-6680712.73604382,972920.361325559,4853.67134435296,-598.687299845271,-5925.81562506698,-0.468316768778618,8.62788830547037,-1.26018856972553,6769554.99827884,1.12832580545299,-0.0496643175165605,-0.201334242624779,-0.0340734771289491,-1.60665000629539,0.868428468380828,0.195676991573157,-5.98224925516E-5,-0.0011318681067218,-8.02550091913E-5,383222.03234193,7.9488E-12,1164.93640136718,-0.468316768778618,8.62788830547037,-1.26018856972553
1500.0,-5785406.52951744,-3443734.71677867,615632.574403329,652730.752306606,-6701081.31873427,615380.128619763,4814.31295303487,-79.9924526753362,-5987.56180955984,-0.843131326982981,8.65518605688141,-0.797193164019001,6769800.36647169,1.13270107486579,-0.0555139579717554,-0.201254626086332,-0.0349760994940846,-1.5305133020835,0.863356170099092,0.300480154021395,-6.4192768953E-5,-0.0011315102930566,-8.35583125273E-5,382902.098716704,8.0503E-12,1167.35961914062,-0.843131326982981,8.65518605688141,-0.797193164019001
1560.0,-5669388.16881532,-3674407.39059525,255447.622158577,939848.626346973,-6690303.40415132,254971.152065395,4752.57321862738,439.123592756136,-6021.40204282974,-1.21406477245133,8.64191888322502,-0.330360416235887,6769936.64613678,1.1370763442786,-0.0617282102940186,-0.201170879425968,-0.0356452814722336,-1.45658518635423,0.853007572517419,0.403412535601837,-6.87049400917E-5,-0.0011311207209936,-8.68502845211E-5,382698.753983061,8.1195E-12,1169.10754394531,-1.21406477245133,8.64191888322502,-0.330360416235887
1620.0,-5529073.9829826,-3889191.72029335,-105928.360277602,1222597.56303005,-6648426.74040843,-106626.639727609,4668.7382262093,956.227293323579,-6027.17291214581,-1.57934682778594,8.58813250852845,0.1380793705483,6769961.1546003,1.14145161369142,-0.0683036189193487,-0.201081198986605,-0.0360586868226067,-1.38602984460389,0.837633597154885,0.503371142816476,-7.33576756956E-5,-0.0011306977914094,-9.01298993658E-5,382614.694872245,8.1551E-12,1170.16918945312,-1.57934682778594,8.58813250852845,0.1380793705483
1680.0,-5364970.13101436,-4087303.17895474,-466810.693058139,1499663.07006662,-6575644.8835902,-467727.535767947,4563.19951580872,1468.89396434262,-6004.84518277917,-1.93723429583287,8.49407642004779,0.605886037079314,6769873.32521198,1.14582688310422,-0.0752350471622664,-0.200983337294978,-0.0361946001817699,-1.31976416934322,0.817573673293059,0.599502014201092,-7.8149583937E-5,-0.0011302398817569,-9.3396116991E-5,382650.600268458,8.1566E-12,1170.53796386718,-1.93723429583287,8.49407642004779,0.605886037079314
1740.0,-5177687.40988383,-4268030.23558602,-825516.959474878,1769757.26454118,-6472296.29996086,-826648.103393009,4436.45215526488,1974.71997698603,-5954.52400361401,-2.28602110028769,8.36020265981948,1.07082243728366,6769674.72480221,1.15020215251704,-0.0825156936135912,-0.200874585750704,-0.0360320417817001,-1.25842752089754,0.793226298334666,0.691230890687443,-8.30792103117E-5,-0.0011297453487437,-9.66478832112E-5,382805.12257769,8.1241E-12,1170.21057128906,-2.28602110028769,8.36020265981948,1.07082243728366
1800.0,-4967938.97467978,-4430736.84676277,-1180375.0509831,2031625.01185797,-6338862.73944591,-1181715.23813666,4289.09221856056,2471.33483609486,-5876.44834029884,-2.62404804167907,8.18716305004332,1.53066729041182,6769369.02836742,1.15457742192984,-0.0901371153951271,-0.200751765468938,-0.0355508795855141,-1.20239184917064,0.765019999727134,0.778253544047855,-8.81450365582E-5,-0.0011292125310958,-9.98841299245E-5,383074.917293392,8.0586E-12,1169.18786621093,-2.62404804167907,8.18716305004332,1.53066729041182
1860.0,-4736537.56554476,-4574864.58638771,-1529731.1552687,2284049.89605279,-6175966.89036362,-1531274.15653579,4121.81369042361,2956.41304543671,-5770.9896418489,-2.94971214598744,7.97580489207763,1.9832278537182,6768961.95123675,1.15895269134266,-0.0980892580570598,-0.200611226994313,-0.0347319381342419,-1.1517996209437,0.733388604562051,0.860498323733601,-9.33454796263E-5,-0.0011286397524067,-1.031037753645E-4,383454.710079965,7.9615E-12,1167.47436523437,-2.94971214598744,7.97580489207763,1.9832278537182
1920.0,-4484392.25681064,-4699934.40529502,-1871957.64181034,2525859.9878495,-5984369.330868,-1873696.28630115,3935.40482508625,3427.6856708628,-5638.64975622512,-3.26147549296771,7.7271652122836,2.42635225839306,6768461.13998585,1.16332796075546,-0.106360491909628,-0.200448859457043,-0.0335571033628748,-1.10661503268299,0.698752724996333,0.938075447054427,-9.86788906991E-5,-0.0011280253240686,-1.063057244064E-4,383937.399894588,7.8352E-12,1165.07983398437,-3.26147549296771,7.7271652122836,2.42635225839306
1980.0,-4212504.74722352,-4805548.01546149,-2205460.80059702,2755933.37870899,-5764964.79778672,-2207387.00948749,3730.74399347606,3882.95151715211,-5480.05811956786,-3.55787342487434,7.44246365881185,2.85794136175683,6767876.02434962,1.16770323016828,-0.114937654596005,-0.20026010957881,-0.0320094226150184,-1.06667665192202,0.661507650383837,1.01122489458179,-1.041435542763E-4,-0.0011273675482845,-1.094888689266E-4,384514.195911398,7.6824E-12,1162.01831054687,-3.55787342487434,7.44246365881185,2.85794136175683
2040.0,-3921965.21328965,-4891388.89665682,-2528688.39139664,2973203.45134419,-5518777.7983866,-2530793.21603444,3508.79505857883,4320.08784140566,-5295.9682521512,-3.83752205314668,7.12309418030387,3.27595998391891,6767217.63331911,1.17207849958109,-0.123806099737213,-0.200040010759294,-0.0300731990657001,-1.0317440850983,0.62201676690778,1.08027031782852,-1.097376873266E-4,-0.0011266647211565,-1.126520882196E-4,385174.785322923,7.5062E-12,1158.30834960937,-3.83752205314668,7.12309418030387,3.27595998391891
2100.0,-3613947.75050661,-4957222.92639075,-2840136.96317962,3176663.85969571,-5246957.59497695,-2842410.62726024,3270.60232309048,4737.060534393,-5087.25360146784,-4.09912499994733,6.77061563921114,3.67844741650608,6766498.37944828,1.1764537689939,-0.132949751510191,-0.199783222286725,-0.0277340797531322,-1.00153539247139,0.580609187323288,1.14558224340593,-1.154594385133E-4,-0.0011259151358498,-1.157942494691E-4,385907.5284861,7.3101E-12,1153.97351074218,-4.09912499994733,6.77061563921114,3.67844741650608
2160.0,-3289705.42951653,-5002898.63693421,-3138358.90591317,3365373.19411154,-4950772.59609253,-3140790.85150349,3017.28509663952,5131.93371091648,-4854.90277893137,-4.341479332363,6.38674152809093,4.06352711376332,6765731.81612242,1.18082903840671,-0.142351165054246,-0.199484078521384,-0.0249791364250621,-0.975754834996438,0.537580269910761,1.20755099335579,-1.213068875025E-4,-0.0011251170858252,-1.189142082775E-4,386699.67737176,7.0978E-12,1149.04284667968,-4.341479332363,6.38674152809093,4.06352711376332
2220.0,-2950564.99601055,-5028347.10592753,-3421969.19987586,3538459.31037365,-4631604.19122413,-3424548.13704474,2750.03193174783,5502.87866066481,-4600.01424132539,-4.56348066860793,5.97332896622959,4.4294155012438,6764932.37312721,1.18520430781953,-0.151991592636421,-0.199136647702954,-0.0217969384253577,-0.954112095569681,0.49319392267058,1.26656818332098,-1.272780443589E-4,-0.0011242688681405,-1.220108092515E-4,387537.612874033,6.8731E-12,1143.55053710937,-4.56348066860793,5.97332896622959,4.4294155012438
2280.0,-2597921.24451777,-5033581.48958531,-3689651.83080856,3695123.30418916,-4290940.06865479,-3692365.79060804,2470.09457829799,5848.18212176535,-4323.7904712397,-4.76412745672085,5.53236715602461,4.77442986324905,6764115.07628681,1.18957957723233,-0.161851055539319,-0.198734799834877,-0.0181776168836282,-0.936334709369701,0.447685871299317,1.32301506706873,-1.333708490361E-4,-0.0011233687868124,-1.250828866451E-4,388407.096245692,6.6397E-12,1137.53637695312,-4.76412745672085,5.53236715602461,4.77442986324905
2340.0,-2233231.0970368,-5018696.20971645,-3940165.84252457,3834643.11573648,-3930367.05790638,-3943002.23305172,2178.78170564284,6166.25384990231,-4027.53171228742,-4.94252444605978,5.06596547385191,5.09699529593119,6763295.25720541,1.19395484664514,-0.171908421662752,-0.198272282905448,-0.014112919525687,-0.922175459742485,0.401267332356832,1.37725597280628,-1.395831709687E-4,-0.0011224151562365,-1.281292650603E-4,389293.529748114,6.4013E-12,1131.04565429687,-4.94252444605978,5.06596547385191,5.09699529593119
2400.0,-1858007.41784714,-4983865.80765971,-4172351.00195567,3956376.7517578,-3551563.5396202,-4175296.66721371,1877.45243973319,6455.63346605098,-3712.62931494137,-5.09788538951043,4.57634135913268,5.39565073734811,6762488.25924287,1.19833011605796,-0.18214148884959,-0.197742806519977,-0.0095962554966909,-0.91141624993278,0.35412874244948,1.42963532080555,-1.459128087706E-4,-0.0011214063046602,-1.311487602042E-4,390182.221536265,6.1612E-12,1124.12890625,-5.09788538951043,4.57634135913268,5.39565073734811
2460.0,-1473812.59581787,-4929343.47976793,-4385133.05492514,4059765.11545396,-3156291.46642655,-4388174.33619325,1567.50975990797,6714.99657523082,-3380.55874747804,-5.22953502900936,4.06580814878996,5.66905410769107,6761709.14578912,1.20270538547076,-0.192527073953756,-0.197140131845194,-0.0046227296812963,-0.9038696333904,0.306443345705109,1.48047703635641,-1.523574900481E-4,-0.0011203405777016,-1.341401797036E-4,391058.649833936,5.9226E-12,1116.84289550781,-5.22953502900936,4.06580814878996,5.66905410769107
2520.0,-1082251.92516627,-4855459.31025116,-4577528.55413451,4144334.43701481,-2746388.03856158,-4580651.35354859,1250.39379648033,6943.16015690093,-3032.87232394803,-5.33691042819709,3.5367629833068,5.91598661147698,6760972.41668213,1.20708065488357,-0.203041107661524,-0.196458166609644,8.108338839999E-4,-0.899378871686845,0.258370543758033,1.53008548131173,-1.589148713314E-4,-0.00111921634191,-1.371023239751E-4,391908.721583484,5.6884E-12,1109.2490234375,-5.33691042819709,3.5367629833068,5.91598661147698
2580.0,-684966.814984181,-4762618.21801256,-4748649.24386176,4209698.29996588,-2323757.07773875,-4751839.08990266,927.575066182381,7139.08723448174,-2671.19169752758,-5.41956172342179,2.99167488641133,6.13535626802268,6760291.73825841,1.21145592429638,-0.213658735054479,-0.195691063765955,0.0067058797837827,-0.897817127179366,0.210058976894843,1.57874728306326,-1.655825381318E-4,-0.0011180319883604,-1.400339871508E-4,392719.020966483,5.4612E-12,1101.41381835937,-5.41956172342179,2.99167488641133,6.13535626802268
2640.0,-283627.85701589,-4651297.63460225,-4897705.98864189,4255559.26060548,-1890360.1421654,-4900948.1032243,600.547678134375,7301.89083683275,-2297.20016330207,-5.47715236778584,2.43307309437321,6.32620074654726,6759679.69205499,1.2158311937092,-0.224354421862011,-0.194833322305628,0.0130621203172569,-0.899086194618375,0.161649343063071,1.62673363389304,-1.72358005129E-4,-0.0011167859362762,-1.429339580589E-4,393477.043475805,5.2431E-12,1093.40734863281,-5.47715236778584,2.43307309437321,6.32620074654726
2700.0,120072.219783096,-4522044.9306019,-5024012.23570136,4281710.05963114,-1448207.42470397,-5027291.60255387,270.822538515126,7430.8372682785,-1912.63480976821,-5.50945894255519,1.8635356843768,6.4876895875972,6759147.54661741,1.220206463122,-0.235102066293005,-0.193879888627562,0.0198775458940281,-0.903115025236398,0.113276981856649,1.67430277214086,-1.79238716494E-4,-0.0011154766366725,-1.458010212563E-4,394171.411563841,5.0359E-12,1085.30004882812,-5.50945894255519,1.8635356843768,6.4876895875972
2760.0,524425.680379489,-4375474.607678,-5126987.00312533,4288034.42661328,-999348.47510881,-5130288.43715141,-60.0794222477165,7525.34870596543,-1519.27855339524,-5.51637060631566,1.28567852575473,6.61912589321886,6758705.05624035,1.22458173253482,-0.245875116260718,-0.192826256799962,0.0271484465517451,-0.90985818724542,0.0650742595910992,1.72170244974295,-1.862220463526E-4,-0.0011141025760129,-1.486339581147E-4,394792.068284692,4.8411E-12,1077.16223144531,-5.51637060631566,1.28567852575473,6.61912589321886
2820.0,927716.97393958,-4212265.27324928,-5206157.38764957,4274507.47927999,-545862.78611396,-5209465.60495901,-390.633979974331,7585.0051440364,-1118.95208572704,-5.49788824520558,0.702144554207901,6.71994756471588,6758360.2897958,1.22895700194763,-0.256646691723348,-0.191668566023916,0.0348694442495248,-0.919294326719909,0.0171727932705982,1.76917224860949,-1.93305299393E-4,-0.0011126622798709,-1.514315479551E-4,395330.445780312,4.6598E-12,1069.05932617187,-5.49788824520558,0.702144554207901,6.71994756471588
2880.0,1328229.95759537,-4033156.41425664,-5261160.58759876,4241195.72065614,-89850.2819910814,-5264460.27590008,-719.32028864613,7609.54570348113,-713.505757981836,-5.45412337795125,0.115593348501307,6.78972815941431,6758119.49211618,1.23333227136044,-0.267389711757684,-0.190403693606536,0.0430335354259594,-0.931424632757268,-0.0302944518933443,1.81694563944803,-2.004857116223E-4,-0.0011111543165902,-1.541925692317E-4,395779.605922701,4.4926E-12,1061.04956054687,-5.45412337795125,0.115593348501307,6.78972815941431
2940.0,1724255.12880563,-3838944.98595478,-5291745.4378665,4188256.63798574,366578.252887409,-5295021.32691259,-1044.627480352,7598.86932476419,-304.811424124354,-5.38529685793084,-0.471309027719455,6.8281774272632,6757986.97971467,1.23770754077325,-0.278077025868031,-0.1890293417832,0.051632143151474,-0.946271262813258,-0.0771911634384336,1.86525168736016,-2.077604512752E-4,-0.0011095773009318,-1.569158007615E-4,396134.350908545,4.3398E-12,1053.18090820312,-5.38529685793084,-0.471309027719455,6.8281774272632
3000.0,2114096.84200534,-3630481.83101546,-5297773.45498932,4115937.90810143,821310.768895462,-5301010.3867706,-1365.06118204004,7553.03485769277,105.245739883472,-5.29173740178111,-1.05589996887609,6.83514157506243,6757965.07196408,1.24208281018606,-0.28868154891093,-0.187544116791514,0.0606551780569838,-0.963875642396484,-0.123375762913462,1.91431630341828,-2.151266198772E-4,-0.0011079298977031,-1.596000229981E-4,396391.302104915,4.2013E-12,1045.48889160156,-5.29173740178111,-1.05589996887609,6.83514157506243
3060.0,2496080.48562625,-3408667.94359456,-5279219.39135027,4024576.21453322,1272243.53359873,-5282402.38973252,-1679.14993922212,7472.26055973126,514.775425380487,-5.17387996082843,-1.63553011299234,6.81060329142843,6758054.05822545,1.24645807959887,-0.299176398892761,-0.185947598693639,0.0700911070893905,-0.984296513885873,-0.168699562390907,1.96436292385977,-2.225812534662E-4,-0.0011062108253563,-1.62244019346E-4,396548.945957316,4.0768E-12,1037.99768066406,-5.17387996082843,-1.63553011299234,6.81060329142843
3120.0,2868559.59575455,-3174450.59241228,-5236171.29841378,3914595.68221836,1717290.66655182,-5239285.63792105,-1985.4515373602,7356.92301037935,921.890375103039,-5.03226393851202,-2.20757303093946,6.75468155007179,6758252.20083763,1.25083334901168,-0.309535036776637,-0.184240400566649,0.0799270290346088,-1.0076075699555,-0.21300500823662,2.01561247147874,-2.301213239733E-4,-0.0011044188595502,-1.648465775145E-4,396607.646293839,3.9656E-12,1030.72204589843,-5.03226393851202,-2.20757303093946,6.75468155007179
3180.0,3229922.88266818,-2928819.31636696,-5168830.09969612,3786505.9362324,2154393.59154813,-5171861.3731427,-2282.55921147607,7207.55544557555,1324.71454891463,-4.86753124455618,-2.7694348793391,6.6676311933251,6758555.77334349,1.2552086184245,-0.319731407322124,-0.182424215830494,0.0901487556647964,-1.03389446792828,-0.25612404604344,2.06828242070008,-2.377437407642E-4,-0.0011025528366634,-1.674064909065E-4,396569.622886464,3.867E-12,1023.66918945312,-4.86753124455618,-2.7694348793391,6.6676311933251
3240.0,3578601.1462808,-2672801.80578307,-5077508.67497007,3640899.79155256,2581530.37155532,-5080442.85964971,-2569.10773362812,7024.8455126321,1721.39125766299,-4.68042416543556,-3.31856407173696,6.54984228280957,6758959.13284522,1.2595838878373,-0.329740079880371,-0.180501852656913,0.10074089731207,-1.06325098508074,-0.297876668293494,2.12258475375824,-2.454453523433E-4,-0.0011006116572504,-1.699225600393E-4,396438.896660109,3.7801E-12,1016.84350585937,-4.68042416543556,-3.31856407173696,6.54984228280957
3300.0,3913074.0561404,-2407459.6821016,-4962630.45804523,3478450.58152885,2996724.89150656,-4965453.98019039,-2843.77936637421,6809.63244318414,2110.09125044895,-4.47178302106309,-3.85246101361878,6.40183919026141,6759454.82494517,1.26395915725012,-0.339536387982885,-0.178477254596673,0.111686951648896,-1.09577404799769,-0.338069740306814,2.17872256841612,-2.532229482197E-4,-0.0010985942894309,-1.723935939955E-4,396221.202470144,3.704E-12,1010.24841308593,-4.47178302106309,-3.85246101361878,6.40183919026141
3360.0,4231876.77112159,-2133884.18867703,-4824727.55140338,3299909.13351019,3398055.85389139,-4827427.34863256,-3105.30966829413,6562.90363925392,2489.02073859811,-4.24254356992801,-4.36868793462207,6.22427938935592,6760033.71933313,1.26833442666293,-0.349096566497426,-0.176355506773011,0.122969394467049,-1.13155736300606,-0.376496240024948,2.23688509021802,-2.610732609342E-4,-0.0010964997722023,-1.748184118978E-4,395923.870894493,3.6378E-12,1003.8882446289,-4.24254356992801,-4.36868793462207,6.22427938935592
3420.0,4533606.3733538,-1853191.80535556,-4664438.36204724,3106100.40098011,3783665.55174469,-4667001.94352443,-3352.49313520064,6285.79066596239,2856.42933696178,-3.99373411934263,-4.86487883648515,6.0179518992705,6760685.17372091,1.27270969607574,-0.358397885082285,-0.174142827211702,0.134569771292881,-1.17068340694217,-0.412935091069683,2.29724087244873,-2.689929682475E-4,-0.0010943272186653,-1.771958444062E-4,395555.681004112,3.5806E-12,997.769897460937,-3.99373411934263,-4.86487883648515,6.0179518992705
3480.0,4816928.09029645,-1566519.79967275,-4482504.7641762,2897919.76261903,4151768.38322055,-4484920.26821307,-3584.18865795743,5979.56464380368,3210.61789997539,-3.72647229416894,-5.33874955847774,5.78377532303437,6761397.2234913,1.27708496548855,-0.367418776652257,-0.171846543108396,0.146468788755304,-1.21321363136116,-0.447151811337848,2.35992905849645,-2.769786954878E-4,-0.0010920758191537,-1.795247352331E-4,395126.68657878,3.5316E-12,991.902587890625,-3.72647229416894,-5.33874955847774,5.78377532303437
3540.0,5080581.27825767,-1275021.72781965,-4279768.79576192,2676328.99994022,4500659.07152037,-4282025.04460125,-3799.32477498466,5645.63103383304,3549.94622631934,-3.44196141647032,-5.7881079438888,5.52279541865404,6762156.79411537,1.28146023490136,-0.376138959576619,-0.169475052067304,0.158646404732283,-1.25917691542551,-0.478900232089016,2.425048761073,-2.850270180538E-4,-0.0010897448442566,-1.818039426705E-4,394648.018718203,3.49E-12,986.297058105468,-3.44196141647032,-5.7881079438888,5.52279541865404
3600.0,5323385.1401114,-979862.898972626,-4057168.89777822,2442351.96654632,4828720.55358662,-4059255.44930573,-3996.90469471168,5285.52381066968,3872.84060222525,-3.14148644999685,-6.2108640722242,5.23618213875167,6762949.93309169,1.28583550431417,-0.384539552361526,-0.167037768577452,0.171081916437475,-1.30855659605463,-0.50792555107903,2.4926469038104,-2.93134464072E-4,-0.0010873336477259,-1.84032341128E-4,394131.668251327,3.4548E-12,980.966064453125,-3.14148644999685,-6.2108640722242,5.23618213875167
3660.0,5544244.14956053,-682215.817135995,-3815735.70675183,2197069.96361925,5134431.50074242,-3817642.90289356,-4176.01106057408,4900.89902090953,4177.80114961934,-2.82640946724271,-6.60504050270008,4.92522607511057,6763762.05787354,1.29021077372699,-0.392603179625257,-0.164545056219543,0.183754045766576,-1.36127681460037,-0.533968949308244,2.56270527932242,-3.012975172037E-4,-0.0010848416692573,-1.862088226746E-4,393590.251761589,3.4254E-12,975.922607421875,-2.82640946724271,-6.60504050270008,4.92522607511057
3720.0,5742153.15407176,-383255.615293607,-3556587.41344039,1941616.83797273,5416373.43442248,-3558306.42501404,-4335.81042878919,4493.52772836972,4463.40894157244,-2.49816460294536,-6.96878245602643,4.59133424814606,6764578.2159726,1.29458604313979,-0.400314068253163,-0.162008146313945,0.196641021396664,-1.41718941775019,-0.556773904314546,2.63512807434133,-3.09512619597E-4,-0.0010822684371365,-1.883322985809E-4,393036.765410415,3.4008E-12,971.1796875,-2.49816460294536,-6.96878245602643,4.59133424814606
3780.0,5916202.12863161,-84155.4973646449,-3280924.70279866,1677173.82084329,5673237.40036808,-3282447.57060019,-4475.55742721546,4065.28835249849,4728.33284411002,-2.15825246621457,-7.30036784397905,4.23602518790059,6765383.35316625,1.29896131255261,-0.40765813271771,-0.159439043925052,0.209720657315127,-1.47606315159657,-0.576094158539217,2.70973161206755,-3.177761749791E-4,-0.0010796135707411,-1.904017008573E-4,392484.331045685,3.3802E-12,966.749084472656,-2.15825246621457,-7.30036784397905,4.23602518790059
3840.0,6065580.55278726,213917.795817624,-2990025.29294063,1404964.12754146,5903830.16521155,-2991344.96486164,-4594.59856223287,3618.15841219807,4971.33604050123,-1.80823399382121,-7.59821704048842,3.86092326263701,6766162.58549533,1.30333658196542,-0.414623048665077,-0.156850422326234,0.222970427640493,-1.53757724303982,-0.591703049210244,2.78623841559065,-3.260845518827E-4,-0.0010768767828897,-1.924159837826E-4,391945.939313238,3.363E-12,962.641357421875,-1.80823399382121,-7.59821704048842,3.86092326263701
3900.0,6189581.38408843,509808.479574231,-2685238.09350803,1126247.34009274,6107079.90031028,-2686348.45749518,-4692.37563988922,3154.20569409949,5191.28219186427,-1.44972373931332,-7.86090227456758,3.46775222332479,6766901.47053213,1.30771185137822,-0.421198314000512,-0.154255507200011,0.236367537778612,-1.6013214792443,-0.603403602990632,2.86427771146968,-3.344340870011E-4,-0.0010740578820293,-1.943741254195E-4,391434.19463764,3.3483E-12,958.864624023437,-1.44972373931332,-7.86090227456758,3.46775222332479
3960.0,6287604.60207141,802376.159911572,-2367977.0066727,842313.59702524,6282041.3190548,-2368872.91935831,-4768.42876763992,2675.57887183842,5387.14118645302,-1.08438260626568,-8.08715651498066,3.05832794705041,6767586.27323814,1.31208712079104,-0.427375296847215,-0.151667951998016,0.249888992127404,-1.66680439907252,-0.611038503696906,2.94339399461273,-3.428210886633E-4,-0.0010711567742524,-1.962751291112E-4,390961.066993146,3.3353E-12,955.4248046875,-1.08438260626568,-8.08715651498066,3.05832794705041
4020.0,6359160.29835127,1090500.19136728,-2039714.39687756,554477.616457187,6427900.23570731,-2040391.7077293,-4822.39890394523,2184.49761091116,5557.9944294694,-0.713910048736259,-8.27588170972096,2.63455037929914,6768204.22163073,1.31646239020385,-0.433147269904976,-0.149101706012859,0.263511658695211,-1.73347013993675,-0.614498840206511,3.02306420410618,-3.512418404222E-4,-0.0010681734651376,-1.981180249542E-4,390537.655338673,3.3232E-12,952.323913574218,-0.713910048736259,-8.27588170972096,2.63455037929914
4080.0,6403871.29022865,1373083.93958976,-1701974.2582975,264072.580551341,6543977.5161504,-1702429.8291561,-4854.029924835,1683.24220200903,5703.03962579485,-0.340035777445962,-8.42615624065655,2.19839469370094,6768743.74745641,1.32083765961666,-0.438509430892671,-0.146570876817908,0.277212331126251,-1.80072298261642,-0.61373052135299,3.10272255788158,-3.596926047484E-4,-0.0010651080614051,-1.99901871244E-4,390173.967436151,3.3115E-12,949.5615234375,-0.340035777445962,-8.42615624065655,2.19839469370094
4140.0,6421475.2374759,1649058.92980958,-1356325.11181158,-27556.0888223988,6629732.39375077,-1356556.83170745,-4863.17017932993,1174.14277407594,5821.59500974001,0.0354889742111424,-8.53724145555305,1.7519017076445,6769194.70713893,1.32521292902947,-0.443458908920413,-0.144089588810208,0.290967788726944,-1.86795706864338,-0.60873745645763,-3.10139478177733,-3.681696268188E-4,-0.00106196077238,-2.016257558867E-4,389878.720507668,3.2993E-12,947.133056640625,0.0354889742111424,-8.53724145555305,1.7519017076445
4200.0,6411826.24463315,1917388.8623021,-1004372.66594891,-319057.031794481,6684765.12686197,-1004379.46111241,-4849.77350931335,659.568146424826,5913.10297882412,0.410900555074324,-8.60858714640008,1.29716761246273,6769548.57844746,1.32958819844228,-0.447994756800327,-0.141671839645648,0.304754855155589,-1.93458760987208,-0.59958102655118,-3.02347704527306,-3.766691383921E-4,-0.0010587319112599,-2.032887977739E-4,389659.166814053,3.2861E-12,945.0302734375,0.410900555074324,-8.60858714640008,1.29716761246273
4260.0,6374895.93419335,2177073.47611016,-647752.278731375,-609079.296820687,6708818.97828009,-647534.117736043,-4813.89971403114,141.914386786765,5977.13309272206,0.784432288724543,-8.639835854671,0.836333096910106,6769798.62862474,1.33396346785509,-0.452117929467851,-0.139331356383574,0.318550456472809,-2.00007956548455,-0.586375918678572,-2.94722182438143,-3.851873617606E-4,-0.0010554218961773,-2.048901481148E-4,389520.947761562,3.2714E-12,943.240600585937,0.784432288724543,-8.639835854671,0.836333096910106
4320.0,6310773.97944442,2427152.24272653,-288121.25951349,-896278.697840309,6701781.50118445,-287679.153517202,-4755.71444477687,-376.406851145252,6013.38440381484,1.15432405795512,-8.63082590074383,0.371571961549717,6769940.05013158,1.33833873726791,-0.455831248845873,-0.13708145316024,0.332331679250425,-2.06397035244956,-0.569282923792703,-2.87307096014491,-3.937205137683E-4,-0.0010520312510561,-2.064289917216E-4,389467.979573194,3.2545E-12,941.747802734375,1.15432405795512,-8.63082590074383,0.371571961549717
4380.0,6219668.08941489,2666707.87212695,72848.9482531778,-1179324.14779514,6663685.1206817,73512.9501774151,-4675.48852136904,-892.980131562803,6021.68709215533,1.5188319756145,-8.58159305587067,-0.0949206614217134,6769970.06070479,1.34271400668071,-0.459139355640086,-0.134934892186847,0.346075829402691,-2.12588446960212,-0.548499675062607,-2.80138107512097,-4.022648098835E-4,-0.0010485606062542,-2.079045482444E-4,389502.372910183,3.2353E-12,940.533569335937,1.5188319756145,-8.58159305587067,-0.0949206614217134
4440.0,6101903.44226753,2894869.61451618,433480.660987883,-1456903.93372811,6594707.00495162,434363.481413287,-4573.59666858915,-1405.39809850293,6002.00338497243,1.87623802923165,-8.4923708002183,-0.560940354305414,6769887.96508522,1.34708927609353,-0.462048648704055,-0.132903749818804,0.359760492337882,-2.18553951149857,-0.524250452968145,-2.73241742878118,-4.108164683157E-4,-0.0010450106989918,-2.09316073349E-4,389624.388114363,3.2136E-12,939.591979980468,1.87623802923165,-8.4923708002183,-0.560940354305414
4500.0,5957921.56752517,3110816.34238806,792097.882383574,-1727731.89877572,6495168.22507358,793195.42993768,-4450.51567762962,-1911.27331009411,5954.42774888539,2.22485958326575,-8.36358913878139,-1.02428558691621,6769695.17653549,1.35146454550634,-0.464567212754182,-0.130999289368882,0.373363594933145,-2.24274446063714,-0.496776108908579,-2.66635551305077,-4.193717141652E-4,-0.001041382373561,-2.106628598376E-4,389832.426982178,3.1895E-12,938.919006347656,2.22485958326575,-8.36358913878139,-1.02428558691621
4560.0,5788278.68161093,3313779.39899193,1147034.22049234,-1990553.49688115,6365532.20779647,1148341.40903971,-4306.82200458363,-2408.24995846949,5879.18635155463,2.56305862302347,-8.19587197733434,-1.48276987120268,6769395.19712295,1.35583981491915,-0.466704735346412,-0.129231842239116,0.386863469715682,-2.29739206689289,-0.46632492463075,-2.60328857788679,-4.279267835928E-4,-0.0010376765813141,-2.119442387036E-4,390123.061199604,3.1633E-12,938.505737304687,2.56305862302347,-8.19587197733434,-1.48276987120268
4620.0,5593643.48524437,3503045.20102242,1496640.75080715,-2244151.68698347,6206402.49068795,1498151.52330836,-4143.18882486196,-2894.01538979511,5776.63579828025,2.8892506284275,-7.9900330918072,-1.93423375071901,6768993.55666004,1.36021508433196,-0.468472414145454,-0.127610698825787,0.400238921493619,-2.34944746888023,-0.433144920451869,-2.54323893126061,-4.364779279979E-4,-0.001033894380432,-2.131595801213E-4,390491.09678406,3.1352E-12,938.339111328125,2.8892506284275,-7.9900330918072,-1.93423375071901
4680.0,5374794.43516788,3677957.58526663,1839293.78224626,-2487352.63476856,6018519.79415446,1841001.13916929,-3960.38256890836,-3366.31134179154,5647.26115778432,3.20191297387185,-7.74707075518753,-2.37655648170912,6768497.71115019,1.36459035374478,-0.469882855621545,-0.126144010510487,0.413469296526219,-2.39893508496021,-0.397477831151517,-2.48617098523286,-4.450214181937E-4,-0.0010300369354693,-2.143082943637E-4,390929.673120017,3.1055E-12,938.401123046875,3.20191297387185,-7.74707075518753,-2.37655648170912
4740.0,5132616.50639268,3837919.89100995,2173402.48405308,-2719031.19176996,5802758.42964705,2175298.51618915,-3759.25897047665,-3822.94482085101,5491.67329977712,3.49959276212506,-7.46816111487158,-2.80766727106626,6767916.90254865,1.36896562315758,-0.470949966396703,-0.124838703890016,0.426534554161448,-2.44592538983564,-0.359554735189061,-2.43200443191716,-4.535535485656E-4,-0.001026105516678,-2.153898326475E-4,391430.394458641,3.0745E-12,938.666320800781,3.49959276212506,-7.46816111487158,-2.80766727106626
4800.0,4868097.46456614,3982396.77217205,2497416.33321434,-2938116.12364075,5560122.06785897,2499492.25872723,-3540.75866382112,-4261.79854721399,5310.60557461737,3.78091401520091,-7.15465043895681,-3.22555594965686,6767261.9825806,1.37334089257039,-0.471688838529807,-0.123700408221235,0.439415340705727,-2.49052268117277,-0.319593169206831,-2.38062644498501,-4.620706412014E-4,-0.0010221014991118,-2.16403687901E-4,391983.491098343,3.0424E-12,939.099609375,3.78091401520091,-7.15465043895681,-3.22555594965686
4860.0,4582323.67110284,4110915.73535934,2809832.34402493,-3143595.0617272,5291738.89478638,2812078.54954167,-3305.90237026086,-4680.84090443669,5104.90987216378,4.04458416267116,-6.80804637105304,-3.62828297691642,6766545.20423175,1.37771616198321,-0.472115630075654,-0.122733396866994,0.45209306513203,-2.53285446143093,-0.277795480597049,-2.3319022820082,-4.705690499817E-4,-0.0010180263615103,-2.173493954526E-4,392578.006888874,3.0106E-12,939.741516113281,4.04458416267116,-6.80804637105304,-3.62828297691642
4920.0,4276475.44633342,4223068.40222058,3109202.04382738,-3334519.15459837,4998856.18708836,3111608.12935881,-3055.78571757644,-5078.13533825239,4875.5521025504,4.28939978725627,-6.43000834877332,-4.01398869346486,6765779.98530864,1.38209143139601,-0.472247442275492,-0.121940543329004,0.464549976084069,-2.57306268143449,-0.234348149013347,-2.28568404202033,-4.790451646164E-4,-0.0010138816849692,-2.182265336382E-4,393202.009218532,2.9807E-12,940.658264160156,4.28939978725627,-6.43000834877332,-4.01398869346486
4980.0,3951822.01806529,4318511.49662511,3394138.16165198,-3510007.39885335,4682834.34118995,3396692.98911427,-2791.57373750152,-5451.84915955224,4623.60714592469,4.51425160778734,-6.02233735040306,-4.38090176177093,6764980.64912614,1.38646670080883,-0.472102194734184,-0.121323292246646,0.476769239501526,-2.61129683202526,-0.189421823003501,-2.24181759338917,-4.874954146166E-4,-0.0010096691513976,-2.190347243245E-4,393842.817260238,2.9543E-12,941.902160644531,4.51425160778734,-6.02233735040306,-4.38090176177093
5040.0,3609716.08459991,4396967.55919037,3663320.99939707,-3669250.63126767,4345140.39299021,3666012.74448986,-2514.49508715785,-5800.2617161951,4350.25332105056,4.71812869981567,-5.58696513693104,-4.72734675949545,6764162.14790103,1.39084197022164,-0.471698499911629,-0.120881645531121,0.488735016077923,-2.64770871601586,-0.14317185298904,-2.20014784182729,-4.959162731897E-4,-0.0010053905417678,-2.197736333472E-4,394487.243972973,2.9326E-12,943.519653320312,4.71812869981567,-5.58696513693104,-4.72734675949545
5100.0,3251588.02241274,4458225.39351549,3915504.45823001,-3811515.16707852,3987341.06685479,3918320.66541359,-2225.83603968415,-6121.77190829978,4056.76642405769,4.90012197328297,-5.12594315261551,-5.05175091485531,6763339.77478983,1.39521723963445,-0.471055538203197,-0.120614163595711,0.500432537672923,-2.68244865959949,-0.0957391439570296,-2.16052258219696,-5.043042610458E-4,-0.0010010477341627,-2.204429708624E-4,395121.847179132,2.9172E-12,945.556030273437,4.90012197328297,-5.12594315261551,-5.05175091485531
5160.0,2878939.76939088,4502140.25009528,4149521.69596894,-3936146.07187835,3611095.39380507,4152449.33627151,-1926.9342876171,-6414.90503118256,3744.51338854036,5.05942694383796,-4.64143123688206,-5.35264999696217,6762528.87070213,1.39959250904726,-0.470192934806892,-0.120517981439399,0.51184818173588,-2.71566290402984,-0.0472511925556726,-2.12279519706682,-5.126559501042E-4,-9.966427016265E-4,-2.210424916103E-4,395733.184963593,2.9091E-12,948.055419921875,5.05942694383796,-4.64143123688206,-5.35264999696217
5220.0,2493338.41478018,4528633.75525638,4364290.39423895,-4042570.05712467,3218146.93950004,4367315.92561587,-1619.17259994,-6678.31893881507,3414.94561677737,5.1953458487973,-4.13568628429111,-5.62869339545995,6761744.53204179,1.40396777846008,-0.46913063947536,-0.120588839146433,0.522969542759631,-2.74749193272209,0.002176790340029,-2.08682645187045,-5.209679670891E-4,-9.921775098253E-4,-2.215719950904E-4,396308.070659886,2.9099E-12,951.063354492187,5.1953458487973,-4.13568628429111,-5.62869339545995
5280.0,2096409.52687622,4537693.5935544,4558817.61710782,-4130297.99162999,2810315.68279996,4561927.0470669,-1303.97237030564,-6910.80952827996,3069.59202922272,5.30728916976391,-3.61105096856289,-5.87864844191269,6761001.32538376,1.40834304787288,-0.467888810131602,-0.120821126181845,0.533785499771879,-2.7780695198672,0.0524407406803853,-2.0524856071746,-5.292369970038E-4,-9.876543145249E-4,-2.220313256481E-4,396833.822794928,2.9207E-12,954.62744140625,5.30728916976391,-3.61105096856289,-5.87864844191269
5340.0,1689830.24906315,4529372.9528921,4732204.24563007,-4198927.02352959,2389489.5854781,4735383.19583148,-982.787089983932,-7111.31555194887,2710.05187582505,5.39477663110574,-3.06994262244175,-6.10140403948185,6760313.01479525,1.4127183172857,-0.466487701190985,-0.121207938696205,0.544286278885983,-2.80752232369317,0.103446631732511,-2.01965103363109,-5.374597864732E-4,-9.830753588936E-4,-2.224203724727E-4,397298.505545837,2.943E-12,958.79638671875,5.39477663110574,-3.06994262244175,-6.10140403948185
5400.0,1275322.19414479,4503789.74216231,4883648.97521392,-4248142.30911086,1957615.89309298,4886882.74774878,-657.095774817478,-7278.92276883248,2337.98734843305,5.45743774665663,-2.51484233891519,-6.29597367693082,6759692.30707381,1.41709358669851,-0.464947557284048,-0.121741148904093,0.554463509971421,-2.83596988451159,0.155109422421863,-1.98821048099671,-5.456331469459E-4,-9.78442970638E-4,-2.227390695064E-4,397691.155510902,2.9782E-12,963.619506835937,5.45743774665663,-2.51484233891519,-6.29597367693082
5460.0,854644.166104078,4461125.59150129,5012451.86493956,-4277718.34651459,1516692.20624548,5015725.50998818,-328.396371132175,-7412.86744967717,1955.1160288177,5.4950119861587,-1.94828433243969,-6.46149790762961,6759150.61962463,1.42146885611132,-0.463288512917941,-0.122411485472396,0.564310276564181,-2.86352492158844,0.207352079358389,-1.95806112251098,-5.537539577452E-4,-9.737595589823E-4,-2.229873952664E-4,398001.990900827,3.0276E-12,969.14208984375,5.4950119861587,-1.94828433243969,-6.46149790762961
5520.0,429584.737549955,4401624.64528382,5118017.42988206,-4287519.91368883,1068757.36051648,5121315.814451,1.80083862107266,-7512.5392519134,1563.20320198475,5.50734862837282,-1.37284557280371,-6.59724637401884,6758697.87505898,1.42584412552413,-0.461530498454739,-0.123208623748165,0.573821158216067,-2.89029385259837,0.260104679596249,-1.92910947141304,-5.618191689624E-4,-9.690276114987E-4,-2.2316537258E-4,398222.599606402,3.0928E-12,975.400390625,5.50734862837282,-1.37284557280371,-6.59724637401884
5580.0,1954.71024712552,4325592.15783201,5199857.26912907,-4277502.61110646,615882.152406522,5203165.14656501,331.979813511425,-7577.48348058918,1164.05405974524,5.49440635988884,-0.791135680402023,-6.70261945320429,6758342.32589543,1.43021939493695,-0.459693152626844,-0.124121284572122,0.58299226457588,-2.91637748510144,0.313303595245732,-1.90127124792655,-5.698258041839E-4,-9.642496907998E-4,-2.232730682343E-4,398346.102986828,3.1748E-12,982.413391113281,5.49440635988884,-0.791135680402023,-6.70261945320429
5640.0,-426420.514654617,4233392.90148545,5257592.22354932,-4247713.0106761,160159.947664169,5260894.30352761,660.625301313799,-7607.40275011288,759.505815217721,5.45625266807794,-0.20578705113841,-6.77714959051478,6758090.41200815,1.43459466434975,-0.457795741658103,-0.125137340363545,0.591821260601442,-2.94187185199261,0.366890757203281,-1.87447126268762,-5.777709630444E-4,-9.594284311039E-4,-2.233105925425E-4,398367.29264087,3.2748E-12,990.173095703125,5.45625266807794,-0.20578705113841,-6.77714959051478
5700.0,-853708.63071311,4125449.39623598,5290954.0584945,-4198288.41302106,-296302.792432011,5294235.0771804,986.2293440265,-7602.15805920871,351.419745277143,5.39306306406139,0.38055483720018,-6.82050237567114,6757946.65272531,1.43896993376255,-0.455857084918581,-0.126243927124888,0.600307382415779,-2.96686918356841,0.420812992872438,-1.84864337637309,-5.85651823601E-4,-9.545665346827E-4,-2.232780988287E-4,398282.73786629,3.3935E-12,998.637084960937,5.39306306406139,0.38055483720018,-6.82050237567114
5760.0,-1278078.15907672,4002239.96961021,5299786.66754723,-4129456.21591685,-751396.031922953,5303031.45762893,1307.29773225557,-7561.76928822604,-58.326824883433,5.30512015780204,0.965240996844572,-6.8324774015279,6757913.57475101,1.44334520317537,-0.453895486914997,-0.127427560999259,0.608451443440701,-2.99145902952037,0.475021431336482,-1.82373059556848,-5.934656445215E-4,-9.496667682033E-4,-2.231757828335E-4,398090.861976171,3.5308E-12,1007.72521972656,5.30512015780204,0.965240996844572,-6.8324774015279
5820.0,-1697706.19485155,3864296.65493476,5284046.79421547,-4041532.89721471,-1203015.69367114,5287240.35450899,1622.35639990154,-7486.4151241383,-467.84858282705,5.19281259323614,1.54562844646927,-6.81300892906957,6757991.67639401,1.44772047258818,-0.451928675311231,-0.128674258019843,0.61625583056295,-3.01572956715717,0.529470968643207,-1.79968537272461,-6.01209767083E-4,-9.447319589753E-4,-2.230038820425E-4,397791.986121794,3.6867E-12,1017.3228149414,5.19281259323614,1.54562844646927,-6.81300892906957
5880.0,-2110786.14163637,3712202.93558457,5243804.26917555,-3934922.61608633,-1649073.17123578,5246931.83350359,1929.95775063998,-7376.43241452507,-875.26032424521,5.05663383749765,2.11908973979272,-6.76216636539371,6758179.42794557,1.45209574200099,-0.449973744586253,-0.129969655715727,0.623724490210272,-3.03976916077632,0.584119785381338,-1.77647019553427,-6.088816169756E-4,-9.397649911144E-4,-2.227626749414E-4,397388.339767357,3.8601E-12,1027.29138183593,5.05663383749765,2.11908973979272,-6.76216636539371
5940.0,-2515535.40866318,3546591.34233488,5179241.76134407,-3810115.43695445,-2087504.78479876,5182288.86639264,2228.68690693745,-7232.31494785227,-1278.68507118905,4.89718080540263,2.68302257053659,-6.68015454466447,6758473.30746894,1.4564710114138,-0.448047104872488,-0.131299135281787,0.630862904334283,-3.06366827629724,0.638928908314106,-1.75405858220717,-6.164787059085E-4,-9.347688016349E-4,-2.224524802003E-4,396884.037470759,4.0499E-12,1037.482421875,4.89718080540263,2.68302257053659,-6.68015454466447
6000.0,-2910203.04451422,3368140.91054461,5090654.04177244,-3667685.18107002,-2516281.1465467,5093606.59363198,2517.16787086521,-7054.71165373035,-1676.26220063937,4.71515228900986,3.23485951005021,-6.56731378625366,6758867.87075251,1.46084628082662,-0.446164435476462,-0.132647943079165,0.637678056412722,-3.08752191292816,0.693861807235702,-1.73243665106882,-6.239986330155E-4,-9.297463764805E-4,-2.220736557902E-4,396285.022144965,4.2548E-12,1047.751953125,4.71515228900986,3.23485951005021,-6.56731378625366
6060.0,-3293077.2807253,3177574.50362325,4978446.76016375,-3508286.91140153,-2933416.40043997,4981291.09926424,2794.06958386943,-6844.42421378522,-2066.15556891512,4.51134715268085,3.7720779222167,-6.42411969016061,6759355.8537316,1.46522155023942,-0.44434064256607,-0.134001310305489,0.644178387693883,-3.11143280305099,0.748884017117907,-1.71160551834014,-6.314390860583E-4,-9.247007465079E-4,-2.216265980364E-4,395598.975503306,4.4732E-12,1057.97204589843,4.51134715268085,3.7720779222167,-6.42411969016061
6120.0,-3662492.95777485,2975656.00909331,4843134.73476018,-3332654.05734845,-3336977.30066637,4845857.6989136,3058.11187005614,-6602.40407152979,-2446.56161465452,4.28666224692462,4.29221008546132,-6.25118261783266,6759928.30530241,1.46959681965224,-0.442589820513838,-0.135344569758074,0.650373744009777,-3.13551577598091,0.803962773551441,-1.69158491972159,-6.387978424267E-4,-9.19634983432E-4,-2.211117406111E-4,394835.196926711,4.7035E-12,1068.03454589843,4.28666224692462,4.29221008546132,-6.25118261783266
6180.0,-4016838.80504142,2763187.41356976,4685339.75748415,-3141595.18680416,-3725092.0923362,4687928.74275217,3308.07124459265,-6329.74882833954,-2815.71741969389,4.04208998960432,4.7928535345225,-6.04924679707205,6760574.74812337,1.47397208906505,-0.44092521641173,-0.13666326870704,0.656275313581329,3.12328138381383,0.859066645666117,-1.67241869173633,-6.460727699345E-4,-9.145521957462E-4,-2.205295534698E-4,394004.452526344,4.944E-12,1077.85400390625,4.04208998960432,4.7928535345225,-6.04924679707205
6240.0,-4354564.54534742,2541005.76314706,4505787.91757056,-2935990.43429237,-4095959.15719012,4508230.93668041,3542.78656566312,-6027.69801243326,-3171.90870327613,3.77871556087668,5.2716816158657,-5.81918898305383,6761283.36471649,1.47834735847786,-0.439359197318344,-0.137943276996307,0.661895556327575,3.09842768252564,0.914165143666511,-1.65418316833964,-6.532618274124E-4,-9.09455524628E-4,-2.198805417361E-4,393118.796705326,5.1932E-12,1087.36254882812,3.77871556087668,5.2716816158657,-5.81918898305383
6300.0,-4674187.79375604,2309980.01600686,4305306.4485255,-2716787.59529126,-4447855.38632826,4307592.18656392,3761.16450519405,-5697.6282087152,-3513.47772081513,3.49771365851243,5.72645423092447,-5.56201660372534,6762041.20593217,1.48272262789067,-0.437903219860785,-0.13917088959708,0.667248125271766,3.07290705635935,0.969228264952994,-1.63700030742623,-6.603630650991E-4,-9.043481398407E-4,-2.191652445381E-4,392191.36904055,5.4489E-12,1096.50805664062,3.49771365851243,5.72645423092447,-5.56201660372534
6360.0,-4974300.71941088,2071007.79453506,4084820.10510227,-2484997.89844121,-4779144.24129849,4086937.9722245,3962.18481043346,-5341.0475394826,-3838.83103409958,3.20034476293356,6.15502872139488,-5.27886531705159,6762834.41861356,1.48709789730349,-0.436567801888141,-0.140332922948655,0.672347780709181,3.04645550964623,1.02422591749708,-1.62105879455844,-6.673746248315E-4,-8.992332356429E-4,-2.183842338011E-4,391236.169800047,5.7092E-12,1105.2490234375,3.20034476293356,6.15502872139488,-5.27886531705159
6420.0,-5253576.43846793,1825012.04485236,3845347.07910072,-2241691.46909603,-5088283.46437646,3847287.2600009,4144.90532556569,-4959.58948934111,-4146.44711551653,2.88795086628037,6.55537083117832,-4.97099590969159,6763648.48908278,1.49147316671629,-0.435362495957894,-0.141416804533752,0.677210297864826,3.01871076736448,1.07912710846434,-1.60664921202997,-6.742947400369E-4,-8.941140267158E-4,-2.175381130009E-4,390267.817872393,5.9716E-12,1113.55126953125,2.88795086628037,6.55537083117832,-4.97099590969159
6480.0,-5510775.10563215,1572937.61239877,3587994.46516398,-1987992.49960446,-5373832.39859966,3589747.96506358,4308.46674000604,-4555.00607216343,-4434.88374478588,2.56195062694513,6.92556566080616,-4.6397904716727,6764468.4988626,1.4958484361291,-0.434295864527127,-0.142410655248148,0.681852368823037,2.98915053657609,1.13389867891852,-1.59422533182399,-6.811217355319E-4,-8.889937441187E-4,-2.166275158828E-4,389301.295299151,6.2335E-12,1121.38562011718,2.56195062694513,6.92556566080616,-4.6397904716727
6540.0,-5744749.6715313,1315747.7430518,3313953.29034894,-1725074.14377446,-5634458.87815024,3315511.97727203,4452.09702796933,-4129.16034350621,-4702.78515298949,2.22383392011791,7.26382851278942,-4.28674778937993,6765279.3888413,1.50022370554192,-0.433375456813432,-0.143303364235913,0.686291499555331,2.95697917026737,1.18850312289769,-1.58451704248874,-6.878540271288E-4,-8.838756312814E-4,-2.156531051493E-4,388351.682956381,6.4919E-12,1128.72607421875,2.22383392011791,7.26382851278942,-4.28674778937993
6600.0,-5954451.27319571,1054420.52017643,3024493.12405607,-1454153.15514409,-5868945.65007814,3025849.76717401,4575.11554245819,-3684.01826847004,-4948.88886551695,1.87515576580608,7.5685155108041,-3.91347790957527,6766066.22788551,1.50459897495472,-0.432607787382591,-0.144084655970414,0.690545902906911,2.92090423964356,1.24289443172909,-1.57875340046004,-6.944901210565E-4,-8.787629400451E-4,-2.146155711224E-4,387433.892212955,6.7437E-12,1135.54919433593,1.87515576580608,7.5685155108041,-3.91347790957527
6660.0,-6138934.22531333,789945.248970206,2720956.28788311,-1176484.29091973,-6076196.28917498,2722104.59172676,4676.93672607267,-3221.63996242165,-5172.03219308778,1.51752962831027,7.83813386243067,-3.52169584006058,6766814.48171236,1.50897424436754,-0.431998316607924,-0.144745149466261,0.694634388425985,2.87865468209304,1.29700926738928,-1.57914413548537,-7.010286132004E-4,-8.736589267577E-4,-2.135156303847E-4,386562.397588906,6.9855E-12,1141.83227539062,1.51752962831027,7.83813386243067,-3.52169584006058
6720.0,-6297360.58073763,523318.800451786,2404751.68806838,-893354.505701292,-6255240.56909487,2405686.32242341,4757.07340109248,-2744.17033014013,-5371.15831839177,1.15262009503271,8.07135162480865,-3.11321436780624,6767510.27765796,1.51334951378035,-0.431551433226754,-0.145276409607041,0.698576249932739,2.82581208119174,1.35074561885354,-1.59004805096214,-7.074681881649E-4,-8.68566848435E-4,-2.123540244028E-4,385750.975533915,7.2136E-12,1147.55334472656,1.15262009503271,8.07135162480865,-3.11321436780624
6780.0,-6429004.22997368,255541.928414339,2077348.29636011,-606076.961343842,-6405239.25461013,2078064.92168006,4815.1396022001,-2253.82913761642,-5545.32192524726,0.782134957469963,8.26700682554302,-2.68993599263451,6768140.66083698,1.51772478319316,-0.431270439290112,-0.145670990667022,0.702391151726381,2.75248083524045,1.40390157278246,-1.62130256020684,-7.138076181672E-4,-8.634899589933E-4,-2.111315181385E-4,385012.454434054,7.4245E-12,1152.69165039062,0.782134957469963,8.26700682554302,-2.68993599263451
6840.0,-6533254.51108227,-12384.4264137535,1740268.30832434,-315984.881452534,-6525488.28221206,1740763.59651706,4850.85291705323,-1752.90055971088,-5693.6943176242,0.407816732953976,8.4241157880004,-2.25384399353472,6768693.8370982,1.52210005260597,-0.431157537860385,-0.145922472190644,0.706099014318854,2.63129872477714,1.45595005116652,-1.70021284605576,-7.200457617666E-4,-8.584315055618E-4,-2.098488986523E-4,384358.480827707,7.6147E-12,1157.22680664062,0.407816732953976,8.4241157880004,-2.25384399353472
