time,gePosition_m_X,gePosition_m_Y,gePosition_m_Z,eiPosition_m_X,eiPosition_m_Y,eiPosition_m_Z,eiVelocity_m_s_X,eiVelocity_m_s_Y,eiVelocity_m_s_Z,eiAccel_m_s2_X,eiAccel_m_s2_Y,eiAccel_m_s2_Z,semiMajorAxis_m,gast_rad,eulerAngle_rad_Roll,eulerAngle_rad_Pitch,eulerAngle_rad_Yaw,eulerAngleWrtEi_rad_Roll,eulerAngleWrtEi_rad_Pitch,eulerAngleWrtEi_rad_Yaw,bodyAngularRateWrtEi_rad_s_Roll,bodyAngularRateWrtEi_rad_s_Pitch,bodyAngularRateWrtEi_rad_s_Yaw,altitudeMsl_m,airDensity_kg_m3,ambientTemperature_dgK,eiGravitation_m_s2_X,eiGravitation_m_s2_Y,eiGravitation_m_s2_Z
0.0,-1428622.3120664244,4163200.465251461,5136049.672040268,-4292653.410000001,955168.4699999995,5139356.569999999,109.64966299999837,-7527.726490000003,1484.521489,5.5138738948161246,-1.2270010755581764,-6.620564979505682,6758662.11722885,1.0233194459853856,1.1333718620180008E-16,-0.20245819323134245,-1.0625361206418758E-16,-2.4715939053549034,-0.03718896447613391,-1.4289931348885438,-2.541098841762901E-21,-0.0011344542745508244,6.640738306473715E-19,398252.76383814117,3.1125051777514152E-12,976.2183377126014,5.5138738948161246,-1.2270010755581764,-6.620564979505682
60.0,-1789722.6876899637,3920281.52997798,5213135.287856126,-4276158.387889695,501645.1551958386,5216446.652900667,439.97233988254743,-7583.891323559974,1084.154831378205,5.49266887546796,-0.6444437296780018,-6.719868580510092,6758329.843058174,1.027694715234372,-5.6066371129081055E-6,-0.20245703423237407,-1.9346417071003055E-4,-2.4720592963923615,0.01612042366582495,-1.386661179676411,-7.049068602884885E-7,-0.001134477987848552,-3.302852372536554E-6,398351.9288404228,3.201819562383446E-12,983.3981392451001,5.49266887546796,-0.6444437296780018,-6.719868580510092
120.0,-2144775.627060382,3662449.601533651,5266053.963206271,-4239897.321571677,45802.73601766821,5269354.4888828,768.2657145564763,-7605.0002042203305,678.7558794717092,5.446256790694044,-0.05891006539592746,-6.788245637219824,6758100.17250654,1.0320699844833425,-3.813316821679355E-5,-0.2024531325786301,-5.854798608084839E-4,-2.4703079486899955,0.06928029515576355,-1.3441021824371808,-1.5682193694862947E-6,-0.001134495908219746,-6.615080444255327E-6,398347.9514323511,3.3084108012249576E-12,991.3100092837672,5.446256790694044,-0.05891006539592746,-6.788245637219824
180.0,-2492271.9416025295,3390831.5485692048,5294559.583409252,-4184037.2310035466,-410251.660881741,5297834.012902082,1093.023177410915,-7590.953964056905,270.1901321119689,5.374849412290751,0.5269519402410716,-6.8253883216618645,6757977.3439860605,1.0364452537322815,-1.2113636798523942E-4,-0.20244586889085076,-0.0011707237802646092,-2.4663158457456267,0.12219457297363527,-1.3010762842737915,-2.5897433370929423E-6,-0.0011345075693188359,-9.935939052550294E-6,398237.7876728691,3.4327268135758888E-12,999.9031745913467,5.374849412290751,0.5269519402410716,-6.8253883216618645
240.0,-2830726.650685935,3106604.1475635963,5298518.367123596,-4108835.087035734,-864409.727057883,5301751.56326858,1412.754047060295,-7541.812385884394,-139.66247716965864,5.278765718677007,1.1104935159568974,-6.831123414061623,6757963.667616068,1.0408205229812044,-2.7807748800252213E-4,-0.20243466747011965,-0.0019422742589246327,-2.4600313118618438,0.17476349162083676,-1.257339171451772,-3.769247684377168E-6,-0.0011345124437284078,-1.326467640190879E-5,398020.26622684236,3.5747130953107737E-12,1009.0896690283676,5.278765718677007,1.1104935159568974,-6.831123414061623
300.0,-3158685.2455596784,2810989.040698399,5277909.490305705,-4014636.663455927,-1314571.5049617013,5281086.505074513,1725.9899668391454,-7457.793961666784,-548.9156740680625,5.158430671659388,1.689074730473712,-6.805412848047293,6758059.482749974,1.0451957922300796,-5.322084007495659E-4,-0.20241901988879651,-0.0028916461853495524,-2.451374639570682,0.2268815292002877,-1.2126385786794334,-5.106463907630985E-6,-0.0011345099435635,-1.660053348917089E-5,397696.1242976596,3.7337955585262174E-12,1018.7493411434386,5.158430671659388,1.689074730473712,-6.805412848047293
360.0,-3474729.875760934,2505247.5605295217,5232825.223977732,-3901875.0075418237,-1758654.8888081238,5235931.367133655,2031.2912230993354,-7339.275073682471,-955.6849637399662,5.014373832060987,2.26007410894492,-6.748354043219924,6758263.1492022155,1.049571061478955,-9.064584976825542E-4,-0.20239850587639854,-0.004008833389011396,-2.440237430158893,0.278435208533253,-1.1667109306417667,-6.601085475735118E-6,-0.001134499421152991,-1.9942743537003316E-5,397268.00981931237,3.908946997359705E-12,1028.7412839410479,5.014373832060987,2.26007410894492,-6.748354043219924
420.0,-3777485.437167098,2190675.438488535,5163470.584605066,-3771068.5341090853,-2194605.0589893735,5166491.491234533,2327.252975338806,-7186.788597779346,-1358.0957646038514,4.8472278021727675,2.8208982896627166,-6.660180023166722,6758571.072404063,1.0539463307277828,-0.0014233228269411357,-0.20237281072855784,-0.00528235824380373,-2.4264817776228673,0.32930071575534214,-1.1192781943571282,-8.252767163891883E-6,-0.0011344801697988547,-2.329053143748681E-5,396740.4497705763,4.098813622355028E-12,1038.9185261073353,4.8472278021727675,2.8208982896627166,-6.660180023166722
480.0,-4065625.5403813273,1868597.414034113,5070162.496662349,-3622818.748668633,-2620403.8152523586,5073084.1932894485,2612.511387127262,-7001.021924650114,-1754.2915424026264,4.657726471782219,3.368991775142411,-6.541259302210845,6758977.762222869,1.0583215999766105,-0.0021047519682896197,-0.20234173855604884,-0.006699328238906471,-2.4099394927543343,0.3793412918773781,-1.0700450871338973,-1.0061124325700758E-5,-0.0011344514246144544,-2.6643113207726744E-5,396119.7850044305,4.301855120914691E-12,1049.1417332502813,4.657726471782219,3.368991775142411,-6.541259302210845
540.0,-4337878.337534188,1540361.7612145126,4953328.467800055,-3457807.6060181456,-3034078.7735228557,4956137.436794886,2885.7496450910876,-6782.814392029672,-2142.441929793963,4.446703034468702,3.901846823856683,-6.392095509960265,6759475.92471424,1.0626968692254064,-0.002972044155949482,-0.20230522078403373,-0.008245499222380027,-2.390411662844495,0.428404365851138,-1.018696889845236,-1.2025732105981924E-5,-0.0011344123634425183,-2.9999695459422932E-5,395414.07251271297,4.516453077304872E-12,1059.2886595562636,4.446703034468702,3.901846823856683,-6.392095509960265
600.0,-4593032.184865985,1207334.7495244108,4813504.777972553,-3276794.5114207896,-3433712.3907548287,4816188.019968482,3145.7038509563613,-6533.154118263242,-2520.750814476982,4.215087732325861,4.417013517455027,-6.213326709611445,6760056.585606321,1.0670721384741706,-0.004045740168202557,-0.20226331942921372,-0.009905344997430203,-2.3676689847490815,0.4763184212478097,-0.9648982634153678,-1.414612459698505E-5,-0.0011343621078542846,-3.335947488433026E-5,394632.9565724836,4.740963757538008E-12,1069.2582641906442,4.215087732325861,4.417013517455027,-6.213326709611445
660.0,-4829941.117689471,870895.0562301293,4651334.184993748,-3080612.972505567,-3817450.781557976,4653879.279033542,3391.1687689301507,-6253.174226032465,-2887.464375867776,3.9639052806601742,4.912110023631743,-6.005724354521572,6760709.243855633,1.0714474077229348,-0.005345521507685796,-0.2022162248087543,-0.011662132930067058,-2.3414535056237398,0.5228896292523043,-0.9082936684165336,-1.6421793940852895E-5,-0.0011342997242302917,-3.672163775756346E-5,393787.51074223657,4.97371639574176E-12,1078.9703496534519,3.9639052806601742,4.912110023631743,-6.005724354521572
720.0,-5047530.113549545,532428.1478093041,4467563.150290252,-2870166.9111757227,-4183512.289655364,4469958.311426968,3621.0034076491415,-5944.14844432321,-3240.87904671816,3.6942719198460474,5.384833057373513,-5.770191818310173,6761422.053130905,1.075822676973096,-0.006890112397553549,-0.2021642474680899,-0.01349800520280211,-2.311482662738315,0.5678983472287795,-0.8485102496251709,-1.8852189381439027E-5,-0.0011342242249244607,-4.0085359460701E-5,392890.05318264366,5.212974317828919E-12,1088.3624870046979,3.6942719198460474,5.384833057373513,-5.770191818310173
780.0,-5244800.11867182,193320.64872026708,4263038.590157991,-2646426.646155604,-4530195.776515837,4265272.724243253,3834.136412687851,-5607.486077138346,-3579.349371974242,3.4073920396507322,5.832968523703068,-5.507762427128572,6762182.028616857,1.0801979462217968,-0.008697186111530192,-0.20210780426168978,-0.015394065341087,-2.2774568236568653,0.6110956857903639,-0.785164361492129,-2.143671626881366E-5,-0.0011341345695120662,-4.3449804026641554E-5,391953.93826690933,5.4568805051547355E-12,1097.385930008946,3.4073920396507322,5.832968523703068,-5.507762427128572
840.0,-5420832.812145911,-145045.2833915511,4038704.159621178,-2410424.55834356,-4855888.588859391,4040766.9150215406,4029.571242347604,-5244.726329096853,-3901.2957327661143,3.104554322172898,6.254402303904772,-5.219596919147415,6762975.276054765,1.0845732154704657,-0.010783276145811585,-0.20204739866357427,-0.017330469625755098,-2.239071852012533,0.6522004999653718,-0.7178732380708669,-2.417473502001461E-5,-0.0011340296661230072,-4.681412370818589E-5,390993.32790947764,5.703405555592173E-12,1106.0016758322495,3.104554322172898,6.254402303904772,-5.219596919147415
900.0,-5574795.081859014,-481297.5563424852,3795596.0780521403,-2163250.4528722777,-5159074.166222432,3797477.8940435806,4206.391096311148,-4857.531980996736,-4205.211898898871,2.7871273531958445,6.647131125327812,-4.906980256073666,6763787.239476424,1.0889484847191346,-0.013163692718215436,-0.20198359553703954,-0.019286523002626323,-2.1960384656091896,0.6908973697255794,-0.6462735555571122,-2.7065560039844733E-5,-0.0011339083728610687,-5.017745857229368E-5,390022.94646811864,5.950309716922168E-12,1114.1772414719146,2.7871273531958445,6.647131125327812,-4.906980256073666
960.0,-5705943.185919008,-814079.6950628536,3534838.5080416775,-1906046.6336888878,-5438339.249476016,3536530.659643062,4363.763563918254,-4447.682412673256,-4489.672368784814,2.4565546582586264,7.009273433042471,-4.5713177148400055,6764602.963652804,1.0933237539677718,-0.01585244505232393,-0.20191699073660366,-0.021240779096926912,-2.1481101246443552,0.7268363965059521,-0.570048609286927,-3.010845860572329E-5,-0.001133769499310478,-5.3538936121975884E-5,389057.8234545807,6.1951250451403224E-12,1121.8843017393294,2.4565546582586264,7.009273433042471,-4.5713177148400055
1020.0,-5813626.573369728,-1142056.3246340856,3257638.5015969444,-1640002.7085346505,-5692380.651190964,3259133.1406157506,4500.9449564591505,-4017.065976016435,-4753.339451637615,2.11434912903306,7.339080160758972,-4.2141301946206005,6765407.366866542,1.0976990232163775,-0.0188621698721714,-0.2018481760583477,-0.02317114393939361,-2.09512058408835,0.7596359203570676,-0.48896522548725607,-3.330264972084668E-5,-0.0011336118081304552,-5.689767094776573E-5,388113.02861041034,6.4351598369906374E-12,1129.0971041924806,2.11434912903306,7.339080160758972,-4.2141301946206005
1080.0,-5897291.338360091,-1463918.5621722345,2965280.5305636693,-1366350.1443964327,-5920011.549108999,2966570.722641423,4617.284286163312,-3567.671727752135,-4994.970043160835,1.7620868174879611,7.634945279426634,-3.8370486850037975,6766185.519258892,1.1020742924649671,-0.022204066481092716,-0.2017777001900113,-0.025054983011144047,-2.037030670305896,0.7888894703336407,-0.40291995598099883,-3.664730294011757E-5,-0.0011334340167386992,-6.025276441070258E-5,387203.40415197384,6.667525085262232E-12,1135.791487155438,1.7620868174879611,7.634945279426634,-3.8370486850037975
1140.0,-5956483.282678467,-1778389.294246782,2659120.6211834075,-1086356.5957738177,-6120167.264789613,2660200.3786442094,4712.226853624671,-3101.5805393863025,-5213.422043120552,1.4014000895164405,7.895415985719921,-3.441807855311332,6766922.921711353,1.1064495617135248,-0.025887838758895162,-0.20170602643324417,-0.02686923121385229,-1.9739809588076325,0.8141782427666634,-0.31199122237698246,-4.014153717352721E-5,-0.0011332347990845191,-6.360330435874117E-5,386343.29915908,6.889181204964001E-12,1141.9443163368715,1.4014000895164405,7.895415985719921,-3.441807855311332
1200.0,-5990850.562708818,-2084228.3158874838,2340580.1158533217,-801320.0304059166,-6291910.490795313,2341444.426176677,4785.31740538038,-2620.9556103767436,-5407.660361296778,1.0339701458026598,8.11920238009005,-3.030238742404521,6767605.779997121,1.110824830962067,-0.029921644347468544,-0.20163348807913464,-0.02859050536575398,-1.9063428938437597,0.8350899448856627,-0.21648994137975475,-4.3784419471897355E-5,-0.0011330127875123163,-6.6948364878482E-5,385546.31114697823,7.097002135482568E-12,1147.5331763562103,1.0339701458026598,8.11920238009005,-3.030238742404521
1260.0,-6000145.898453252,-2380237.3068033196,2011139.0883935965,-512562.67937559955,-6434435.931625381,2011783.938152369,4836.202824344452,-2128.0324198830263,-5576.76245753931,0.6615189351645613,8.305186475974173,-2.6042605343325316,6768221.26883655,1.115200100210593,-0.0343120512396984,-0.20156024241564408,-0.03019521882242948,-1.8347564423277372,0.8512437524473696,-0.11699671566363395,-4.7574963800073817E-5,-0.001132766574715915,-7.028700608407667E-5,384825.03983551566,7.287852711073857E-12,1152.5361735163128,0.6615189351645613,8.305186475974173,-2.6042605343325316
1320.0,-5984228.324280374,-2665264.6202487126,1672329.4423738483,-221424.8406898339,-6547074.3260109825,1672751.8364995904,4864.63431785619,-1625.1081620638722,-5719.92336214412,0.28580050381807653,8.452430378815286,-2.165871469260507,6768757.780471656,1.1195753694590873,-0.03906400192289307,-0.2014862244185503,-0.031659697805496656,-1.760139752981449,0.8623194042315315,-0.014371054008784676,-5.151212980288934E-5,-0.0011324947157839095,-7.361827394514277E-5,384190.857980334,7.458673052810264E-12,1156.9316779693854,0.28580050381807653,8.452430378815286,-2.165871469260507
1380.0,-5943064.463514686,-2938209.8600832107,1325727.7252270295,70741.4325394793,-6629295.821176828,1325925.7014880737,4870.469071259919,-1114.5307195223413,-5836.46012463583,-0.09140815776094914,8.560183476200962,-1.7171388924457847,6769205.152519403,1.123950638707566,-0.044180785164691115,-0.20141110123175301,-0.03296029901055294,-1.6836583329895896,0.8680864723402063,0.09027987352938614,-5.5594821569395363E-5,-0.0011321957303366327,-7.694120015547216E-5,383653.70387714216,7.606577557723179E-12,1160.698545160929,-0.09140815776094914,8.560183476200962,-1.7171388924457847
1440.0,-5876729.311839468,-3198028.2220070376,972947.693900573,362578.7263869363,-6680712.673227847,972920.332502914,4853.67133916105,-598.6872387934,-5925.815642311533,-0.46831669120670305,8.627888488980128,-1.2601885377313804,6769554.870103171,1.1283259079560126,-0.0496640154684503,-0.20133422857801933,-0.0340735280424398,-1.6066497274965046,0.868428418293915,0.19567696606816562,-5.982188640103175E-5,-0.0011318681047543617,-8.025480204426597E-5,383221.8997730685,7.728971259122529E-12,1163.8171273753162,-0.46831669120670305,8.627888488980128,-1.2601885377313804
1500.0,-5785406.517724192,-3443734.5757450345,615632.6705787586,652730.7084307445,-6701081.251919872,615380.0988257725,4814.312951745673,-79.99238037334305,-5987.561824593596,-0.8431312747299873,8.65518624763054,-0.7971931230961086,6769800.2376837265,1.1327011772044275,-0.05551362016661015,-0.2012546102499097,-0.0349761581999055,-1.5305129958301156,0.863356113268872,0.30048011965268345,-6.419211358961567E-5,-0.0011315102944968168,-8.355808253158966E-5,382901.9999408008,7.823657307955259E-12,1166.2700806155333,-0.8431312747299873,8.65518624763054,-0.7971931230961086
1560.0,-5669388.151635667,-3674407.266111133,255447.72947180035,939848.5824722237,-6690303.332652641,254971.12144591156,4752.573219678839,439.12367663962016,-6021.40205526146,-1.2140647468748975,8.641919078191473,-0.3303603712374319,6769936.516535198,1.1370764464528427,-0.061727834068834427,-0.20117086181912067,-0.035645349101835304,-1.4565848510564992,0.8530075085810214,0.40341249099048543,-6.870423321115365E-5,-0.0011311207265133868,-8.685003012965487E-5,382698.6715835372,7.888928996671109E-12,1168.0429615938435,-1.2140647468748975,8.641919078191473,-0.3303603712374319
1620.0,-5529073.959598798,-3889191.6124139056,-105928.24226931448,1222597.5192481251,-6648426.663523611,-106626.67101198628,4668.738227965234,956.2273890127077,-6027.172921871811,-1.579346830086679,8.588132707148596,0.13807941504939678,6769961.02449227,1.1414517157012258,-0.06830320153528328,-0.20108117966312178,-0.03605876460744736,-1.3860294783389648,0.8376335257590589,0.5033710867570542,-7.335691494164512E-5,-0.0011306978017434951,-9.012961899148203E-5,382614.61106913554,7.923642202284121E-12,1169.1246930537197,-1.579346830086679,8.588132707148596,0.13807941504939678
1680.0,-5364970.100652675,-4087303.0875455765,-466810.5648553999,1499663.0263687694,-6575644.800603674,-467727.5675580212,4563.199516553551,1468.894072095518,-6004.845189938551,-1.937234327531265,8.494076623937701,0.6058860777124669,6769873.195379621,1.1458269849495775,-0.07523458580795832,-0.20098331634616837,-0.03619468944883873,-1.319763769820403,0.8175735940680819,0.5995019456897288,-7.814876690119967E-5,-0.0011302398977062703,-9.339580900841958E-5,382650.4972490507,7.927264422149024E-12,1169.507934274684,-1.937234327531265,8.494076623937701,0.6058860777124669
1740.0,-5177687.371809931,-4268030.160314671,-825516.8216452014,1769757.2208126236,-6472296.210137472,-826648.1355429273,4436.452153173008,1974.7200972076807,-5954.524008491891,-2.286021163567902,8.360202872122796,1.0708224726701818,6769674.596419177,1.1502022541979289,-0.08251518540810178,-0.20087456330870848,-0.036032143947096605,-1.2584270854582613,0.7932262108674792,0.6912308089147328,-8.307833453287465E-5,-0.001129745371178121,-9.664754595789299E-5,382804.9828241263,7.899897830834373E-12,1169.189380577723,-2.286021163567902,8.360202872122796,1.0708224726701818
1800.0,-4967938.928190127,-4430736.787086814,-1180374.9041624754,2031624.9678699311,-6338862.642020119,-1181715.2705186785,4289.092211651219,2471.334969401747,-5876.448343188619,-2.6240481395365656,8.187163274493557,1.5306673217160847,6769368.902875399,1.154577523446217,-0.09013655739051896,-0.2007517417105138,-0.03555099614724278,-1.2023913748140231,0.7650199035359799,0.7782534483659987,-8.814409952277346E-5,-0.001129212560956912,-9.988376170267421E-5,383074.7239023539,7.84227542850301E-12,1168.170008907852,-2.6240481395365656,8.187163274493557,1.5306673217160847
1860.0,-4736537.509957363,-4574864.541539415,-1529731.0001538838,2284049.851451858,-6175966.784526481,-1531274.1890360042,4121.813676513454,2956.4131926598293,-5770.989642890968,-2.9497122821461272,7.97580513190262,1.9832278848831602,6768961.830191655,1.1589527926945367,-0.09808864724119776,-0.20061120214530304,-0.0347320706637937,-1.1517991043654334,0.7333884990751024,0.8604982136109712,-9.334447876801457E-5,-0.0011286397907108526,-1.0310337444284818E-4,383454.4470686091,7.755731132960618E-12,1166.455282294342,-2.9497122821461272,7.97580513190262,1.9832278848831602
1920.0,-4484392.191456485,-4699934.37426605,-1871957.4791410202,2525859.9421442095,-5984369.21575549,-1873696.3188053612,3935.4048017540017,3427.685832983812,-5638.649755242139,-3.261475671563894,7.727165469100937,2.4263522960212685,6768461.024885669,1.163328061942793,-0.10635982520748197,-0.2004488337975115,-0.03355725349658925,-1.1066144703153056,0.69875260953399,0.9380753220280313,-9.867782339924313E-5,-0.001128025371910028,-1.0630528902155463E-4,383937.0524872764,7.642146379158206E-12,1164.055323077751,-3.261475671563894,7.727165469100937,2.4263522960212685
1980.0,-4212504.671445199,-4805547.996988401,-2205460.631128276,2755933.3312551635,-5764964.672474568,-2207387.041857543,3730.7439580524765,3882.951695176639,-5480.058115917498,-3.5578736499361328,7.442463931663106,2.857941414638852,6767875.9164606035,1.1677033311910492,-0.11493692887180465,-0.20026008344814178,-0.03200959204522814,-1.0666760399706068,0.6615075241447885,1.011224754214142,-1.0414241786440697E-4,-0.0011273676068379852,-1.0948839728543218E-4,384513.750804122,7.503877249927275E-12,1160.985062790639,-3.5578736499361328,7.442463931663106,2.857941414638852
2040.0,-3921965.1264533913,-4891388.889205962,-2528688.215863466,2973203.401330607,-5518777.661893565,-2530793.2480768836,3508.7950081726326,4320.088036186456,-5295.968244616897,-3.837522327929641,7.123094464966173,3.2759600622561673,6767217.533513291,1.1720786004407024,-0.12380531179432144,-0.2000399845626216,-0.030073389532521342,-1.031743419568909,0.622016628956666,1.0802701616736838,-1.0973647908054696E-4,-0.0011266647916807339,-1.1265157850058733E-4,385174.2309199387,7.343667229217085E-12,1157.2643751671512,-3.837522327929641,7.123094464966173,3.2759600622561673
2100.0,-3613947.6519969273,-4957222.928173357,-2840136.7822561497,3176663.8061325504,-5246957.446280665,-2842410.6586898044,3270.602254656385,4737.060746422815,-5087.2535882032635,-4.0991253262061065,6.7706159278870475,3.6784475309095215,6766498.288068418,1.176453869688895,-0.132948898093177,-0.1997831965012408,-0.027734293034941418,-1.0015346691897078,0.5806090365814109,1.145582070985465,-1.1545815566030553E-4,-0.0011259152196897828,-1.1579369982475348E-4,385906.8551066068,7.164551254151146E-12,1152.918197524964,-4.0991253262061065,6.7706159278870475,3.6784475309095215
2160.0,-3289705.31878092,-5002898.645896353,-3138358.7201704714,3365373.1358243306,-4950772.434157033,-3140790.8819053574,3017.2850070896347,5131.933940114936,-4854.902757468854,-4.341479709655999,6.3867418095374875,4.0635272741408945,6765731.732883677,1.180829138937088,-0.14235024284867964,-0.1994840537030999,-0.024979374331695087,-0.9757540496197552,0.5375801051454844,1.2075508041420135,-1.2130552721989913E-4,-0.0011251171844158384,-1.1891361683615348E-4,386698.87742213503,6.969756817635414E-12,1147.9766440831495,-4.341479709655999,6.3867418095374875,4.0635272741408945
2220.0,-2950564.8725854615,-5028347.119775998,-3421969.009741846,3538459.246005073,-4631604.015040366,-3424548.165839047,2750.031818101333,5502.878906186913,-4600.014208651687,-4.563481093728549,5.973329226330763,4.4294157157006975,6764932.297068079,1.1852044081852489,-0.15199059826871567,-0.19913662449392394,-0.02179720279103528,-0.9541112435923883,0.49319374248527525,1.2665679767285074,-1.27276603775158E-4,-0.001124268983008961,-1.2201017411943106E-4,387536.6809842303,6.762607461102952E-12,1142.4751116672562,-4.563481093728549,5.973329226330763,4.4294157157006975
2280.0,-2597921.1080676955,-5033581.505819739,-3689651.636534448,3695123.2322105737,-4290939.877291184,-3692365.817021047,2470.0944378589484,5848.182381856213,-4323.790423933866,-4.76412792334154,5.532367378759993,4.774430137128233,6764115.00577234,1.1895796774333782,-0.16184998557810995,-0.19873477896941769,-0.018177909561286957,-0.9363337861272697,0.44768567412300503,1.3230148424509525,-1.3336932523221547E-4,-0.0011233689195811263,-1.250822059088316E-4,388406.0293671549,6.546433167043187E-12,1136.454372292047,-4.76412792334154,5.532367378759993,4.774430137128233
2340.0,-2233230.947395515,-5018696.225674205,-3940165.6441610893,3834643.0344708734,-3930366.8505660314,-3943002.25609682,2178.781536191337,6166.254121819815,-4027.5316467092416,-4.942524944653174,5.065965642564058,5.096995631105701,6763295.189985409,1.1939549466814758,-0.1719072726182811,-0.19827226521691946,-0.014113242383143584,-0.9221744604115485,0.40126711643191115,1.3772557294570509,-1.395815609793E-4,-0.001122415308626273,-1.2812853678865834E-4,389292.3272118406,6.324491004144006E-12,1129.9606363756122,-4.942524944653174,5.065965642564058,5.096995631105701
2400.0,-1858007.2550584858,-4983865.820571314,-4172350.799341548,3956376.6594139407,-3551563.315700415,-4175296.685684821,1877.4522397119254,6455.633746070148,-3712.629227452554,-5.0978859075816345,4.576341457958109,5.395651131849281,6762488.1925620865,1.1983302159295892,-0.18214025717487722,-0.19774279294677355,-0.009596610413745843,-0.9114151695324676,0.3541285058189084,1.4296350579652717,-1.45911109585885E-4,-0.0011214064784925953,-1.3114798245079525E-4,390180.88506999426,6.099898001059872E-12,1123.0455526229712,-5.0978859075816345,4.576341457958109,5.395651131849281
2460.0,-1473812.4201700701,-4929343.486821303,-4385132.847689178,4059765.01017122,-3156291.2255755886,-4388174.34867187,1567.5095285854936,6714.996858734916,-3380.55863467454,-5.229535551639431,4.065808164095301,5.669054555719028,6761709.076542532,1.2027054851776549,-0.19252575604489966,-0.1971401234360278,-0.004623118548633989,-0.9038684667839211,0.3064430861982848,1.4804767532220668,-1.5235569861536146E-4,-0.001120340774901873,-1.3413935050899154E-4,391057.1835380857,5.875576739148705E-12,1115.7660841234135,-5.229535551639431,4.065808164095301,5.669054555719028
2520.0,-1082251.7372180303,-4855459.308660324,-4577528.341711332,4144334.316916695,-2746387.780727428,-4580651.3584244605,1250.3935340732387,6943.16043855461,-3032.8721828796597,-5.33691093886175,3.5367629049670706,5.9159871037964304,6760972.34160414,1.207080754425705,-0.20303969985930784,-0.19645816452803333,8.104091644258953E-4,-0.8993776135865955,0.25837025897554966,1.5300851770514052,-1.5891298455711204E-4,-0.0011192165645095562,-1.3710144136927545E-4,391907.1318660892,5.6542126899553785E-12,1108.1841652769403,-5.33691093886175,3.5367629049670706,5.9159871037964304
2580.0,-684966.6155774979,-4762618.20508698,-4748649.025520024,4209698.16321909,-2323756.803205104,-4751839.085407005,927.5747739216224,7139.087508472567,-2671.191525883497,-5.419562205016491,2.991674708781549,6.135356792703218,6760291.654133817,1.211456023673723,-0.21365723364617537,-0.19569106929394367,0.006705417296728514,-0.8978157721557415,0.21005866419203706,1.5787469568358838,-1.655805528836544E-4,-0.0011180322384994209,-1.4003304915575178E-4,392717.31643778784,5.438221058979626E-12,1100.36600642739,-5.419562205016491,2.991674708781549,6.135356792703218
2640.0,-283627.6472753878,-4651297.607812588,-4897705.763521867,4255559.105481183,-1890359.851571851,-4900948.087472345,600.5473582662484,7301.891097159158,-2297.199959543614,-5.477152803762973,2.4330728168372495,6.32620128996645,6759679.595936769,1.2158312929217412,-0.22435282308398027,-0.19483333684605808,0.013061618130637788,-0.8990847371145414,0.16164899953314332,1.626733284873975,-1.7235591823825752E-4,-0.001116786216206091,-1.429329626908337E-4,393475.2348040511,5.229720107289484E-12,1092.3808878986679,-5.477152803762973,2.4330728168372495,6.32620128996645
2700.0,120072.43846637475,-4522044.887638093,-5024012.002858639,4281709.884564179,-1448207.1190483004,-5027291.573593473,270.82219423343844,7430.837509055251,-1912.6345731961737,-5.509459318062842,1.8635353114026938,6.487690135594935,6759147.436033228,1.2202065621697118,-0.2351003663333408,-0.1938799137058184,0.01987700205432249,-0.9031134595896304,0.11327660431316593,1.6743023995557396,-1.7923652475808143E-4,-0.0011154769487581812,-1.4579996652862371E-4,394169.51129418024,5.0305079917763685E-12,1084.2993007836126,-5.509459318062842,1.8635353114026938,6.487690135594935
2760.0,524425.9063776343,-4375474.5464959955,-5126986.761576688,4288034.23025544,-999348.1557309548,-5130288.393013762,-60.07978693502222,7525.348921717911,-1519.2782841465546,-5.516370909223571,1.2856780664406273,6.619126432273046,6758704.929375523,1.2245818314176822,-0.24587331126304715,-0.19282629406388943,0.027147859078219126,-0.9098565077184486,0.06507384455122375,1.7217020529106424,-1.8621974653759734E-4,-0.0011141029227348628,-1.4863284204012791E-4,394790.0906239536,4.842041495858838E-12,1076.1903854685759,-5.516370909223571,1.2856780664406273,6.619126432273046
2820.0,927717.2054290404,-4212265.192103809,-5206157.1364166895,4274507.2605433995,-545862.4546635797,-5209465.543707074,-390.634360434029,7585.005329952772,-1118.9517847037646,-5.497888466913199,0.7021440213613631,6.719948083006628,6758360.145636035,1.228957100665621,-0.25664477779143374,-0.1916686172430204,0.034868811127297054,-0.9192925275442045,0.017172336938938285,1.7691718269970735,-1.93302888236618E-4,-0.0011126626638277254,-1.514303685485506E-4,395328.4063506034,4.6654177341729754E-12,1068.1188161329387,-5.497888466913199,0.7021440213613631,6.719948083006628
2880.0,1328230.1926055257,-4033156.3117187275,-5261160.325745709,4241195.47874393,-89849.94038181892,-5264460.195670742,-719.3206798483596,7609.545855597738,-713.505426722584,-5.454123513893686,0.11559275734763186,6.7897286476560845,6758119.330539571,1.2333323699135281,-0.26738768496025944,-0.19040376067028383,0.04303285459904228,-0.9314227081904216,-0.030294953638488917,1.8169451927411138,-2.0048318583690242E-4,-0.0011111547404998605,-1.5419132451286992E-4,395777.5214873125,4.501363367595481E-12,1060.14155603282,-5.454123513893686,0.11559275734763186,6.7897286476560845
2940.0,1724255.36527069,-3838944.8609142196,-5291745.164528571,4188256.3724085693,366578.60253225925,-5295021.225949945,-1044.6278771187356,7598.869440065644,-304.81106463532416,-5.385296907727711,-0.4713096610606623,6.828177879209372,6757986.801525633,1.2377076391614352,-0.2780748822446701,-0.18902942669803058,0.051631412514604624,-0.9462692072148854,-0.0771917150554503,1.865251215550472,-2.077578075508229E-4,-0.001109577767633935,-1.5691448875757952E-4,396132.239074983,4.350238380991466E-12,1052.3051561388595,-5.385296907727711,-0.4713096610606623,6.828177879209372
3000.0,2114097.07781455,-3630481.6826691045,-5297773.169391182,4115937.6186788455,821311.1243005143,-5301010.2634484265,-1365.0615792912502,7553.034934117853,105.24612531646957,-5.2917373690113605,-1.0559006289780752,6.835141987626118,6757964.878864685,1.2420829084093103,-0.28867928447777436,-0.1875442216776643,0.060654395448180264,-0.9638734503247907,-0.12337636920228408,1.9143158069140116,-2.1512385488513597E-4,-0.001107930410160243,-1.5959864174624946E-4,396389.1810093724,4.212060906598803E-12,1044.644319095602,-5.2917373690113605,-1.0559006289780752,6.835141987626118
3060.0,2496080.71866735,-3408667.771423549,-5279219.092813045,4024575.901381107,1272243.8923915909,-5282402.2425655,-1679.1503321976522,7472.260596086213,514.7758343752773,-5.17387985245288,-1.635530786594555,6.810603664406132,6758053.852725408,1.246458177657154,-0.2991740096498783,-0.18594772578091756,0.07009027028190239,-0.9842941802208787,-0.16870022849001826,1.9643624036208192,-2.2257836386233953E-4,-0.00110621138665568,-1.6224256689639454E-4,396546.8339361824,4.086554923720233E-12,1037.182182213514,-5.17387985245288,-1.635530786594555,6.810603664406132
3120.0,2868559.823946821,-3174450.3961507212,-5236170.9863522425,3914595.3457239377,1717291.0263105247,-5239285.465565903,-1985.4519217978593,7356.923006170284,921.8908053365667,-5.032263764002853,-2.207573708140242,6.754681885504614,6758251.986107022,1.2508334469049975,-0.3095325187144693,-0.18424055218982874,0.07992613573005967,-1.0076050900499054,-0.21300573960854688,2.015611929182118,-2.3011830640163708E-4,-0.0011044194729047832,-1.6484505193281945E-4,396605.56154771923,3.9732155982817134E-12,1029.93225298715,-5.032263764002853,-2.207573708140242,6.754681885504614
3180.0,3229923.103982211,-2928819.095966863,-5168829.773607435,3786505.5770205455,2154393.949836441,-5171861.174390641,-2282.5595837308283,7207.55540078149,1324.7149982310902,-4.867531014825396,-2.7694355543700597,6.66763149457408,6758555.553017437,1.2552087161527934,-0.3197287564289569,-0.18242439442445163,0.09014780348599265,-1.033891837791326,-0.2561248484458399,2.068281858937242,-2.3774059186093348E-4,-0.0011025535054128392,-1.6740489027653358E-4,396567.5831426404,3.871381337413382E-12,1022.901415309549,-4.867531014825396,-2.7694355543700597,6.66763149457408
3240.0,3578601.358743164,-2672801.5613794248,-5077508.334419025,3640899.4104468725,2581530.72594353,-5080442.633415167,-2569.1080907238634,7024.845427445913,1721.3917241205006,-4.680423891671801,-3.3185647432263012,6.549842553455558,6758958.910793867,1.2595839854005895,-0.32973729214911207,-0.18050206075154354,0.10073988379800448,-1.0632482015946396,-0.29787754772964087,2.1225841762677238,-2.454420687406669E-4,-0.001100612384861933,-1.6992088246597115E-4,396436.9188410152,3.780300464216302E-12,1016.093182524072,-4.680423891671801,-3.3185647432263012,6.549842553455558
3300.0,3913074.257824459,-2407459.413980769,-4962630.102648125,3478450.1795116873,2996725.239576389,-4965453.725498138,-2843.7797059858567,6809.632317755099,2110.091732298528,-4.4717827136020265,-3.8524616843084023,6.401839432965435,6759454.605024152,1.2639592546483536,-0.33953345941860175,-0.17847749481182115,0.11168587424893271,-1.0957711091669748,-0.3380707029522181,2.178721980347689,-2.5321952654973394E-4,-0.0010985950795000315,-1.7239183760712356E-4,396219.3023731766,3.6991838476493666E-12,1009.5104814802028,-4.4717827136020265,-3.8524616843084023,6.401839432965435
3360.0,4231876.960125698,-2133883.8972525466,-4824727.180815875,3299908.7116857623,3398056.1932264967,-4827427.064608575,-3105.3099886662058,6562.903473462179,2489.0212341963124,-4.242543237272336,-4.3686886105632325,6.224279604819319,6760033.505130639,1.268334523896086,-0.3490934931240834,-0.17635578181242267,0.12296825053743875,-1.131554268231833,-0.3764972921215698,2.236884498423974,-2.6106969783309014E-4,-0.0010965006284530438,-1.7481657484901388E-4,395922.0628911438,3.627240274732785E-12,1003.1575724437412,-4.242543237272336,-4.3686886105632325,6.224279604819319
3420.0,4533606.547768093,-1853191.4911595911,-4664437.975959342,3106099.960544165,3783665.8799091876,-4667001.629393575,-3352.4934350138396,6285.790459255868,2856.429844627603,-3.993733767435019,-4.86487952579715,6.017952085428418,6760684.968319745,1.2727097931452471,-0.35839466295009553,-0.1741431398578114,0.13456855809417537,-1.170680157310186,-0.4129362387843421,2.2972402857894596,-2.6898926036001265E-4,-0.001094328144950574,-1.7719392488069714E-4,395553.9777644796,3.5636959859657996E-12,997.041040397477,-3.993733767435019,-4.86487952579715,6.017952085428418
3480.0,4816928.248177028,-1566519.4633312954,-4482504.36231747,2897919.3048375538,4151768.6977302465,-4484919.923306754,-3584.1889361612675,5979.564395119114,3210.6184178082267,-3.7264719259917785,-5.338750269804855,5.783775474590687,6761397.02926214,1.2770850623929477,-0.36741540184417043,-0.17184689621679008,0.14646750345063042,-1.2132102299196004,-0.4471530605793533,2.3599284881371108,-2.769748394712426E-4,-0.0010920768194548358,-1.795227314458349E-4,395125.09882810875,3.5078022653366747E-12,991.1700088549214,-3.7264719259917785,-5.338750269804855,5.783775474590687
3540.0,5080581.417584546,-1275021.3700758684,-4279768.377918276,2676328.52613861,4500659.369812116,-4282024.668376387,-3799.3250306170894,5645.6307416147565,3549.9467520015237,-3.441961032011407,-5.788108684727067,5.52279552702977,6762156.612556356,1.2814603316406326,-0.37613542821419027,-0.16947544856081517,0.15864504438720123,-1.2591733674191545,-0.4789015882812827,2.4250482207382253,-2.850230105826665E-4,-0.0010897459226833829,-1.8180185287072211E-4,394646.5550309632,3.4588354679075503E-12,985.5558099974999,-3.441961032011407,-5.788108684727067,5.52279552702977
3600.0,5323385.258765758,-979862.5206928871,-4057168.4638209236,2442351.4781093914,4828720.8329919195,-4059255.0413755635,-3996.904926727475,5285.523472987423,3872.8411328344755,-3.1414860465791827,-6.210864847306138,5.236182192471911,6762949.764725625,1.2858356008883016,-0.3845358606105547,-0.16703821144012976,0.17108047802051457,-1.308552909069909,-0.5079270188929683,2.4926464099508947,-2.931303018425132E-4,-0.001087334808515668,-1.8403016360149743E-4,394130.33488844417,3.416093213765946E-12,980.2113363894215,-3.1414860465791827,-6.210864847306138,5.236182192471911
3660.0,5544244.245310359,-682215.4193279048,-3815735.25667701,2197069.4620006783,5134431.7584707085,-3817642.4630686897,-4176.0112677029665,4900.898635667152,4177.801681477129,-2.8264090401779858,-6.605041312624028,4.925226060608141,6763761.902211018,1.2902108701359387,-0.3925993237005941,-0.16454554849022468,0.1837525261507299,-1.3612729985651626,-0.5339705323602226,2.5627048511381054,-3.0129319693820793E-4,-0.0010848429167741361,-1.8620655574613773E-4,393589.052554266,3.378889439926375E-12,975.1502494352592,-2.8264090401779858,-6.605041312624028,4.925226060608141
3720.0,5742153.2245735405,-383255.19912623736,-3556586.9474164117,1941616.324711648,5416373.667559343,-3558305.9533510287,-4335.810609441299,4493.527293584565,4463.4094701515105,-2.498164146433807,-6.9687832962924325,4.5913341509098125,6764578.071545087,1.29458613938356,-0.40031004442269047,-0.16200869107932392,0.19663941736147975,-1.417185484729314,-0.5567756048478647,2.635127733601895,-3.0950813804852975E-4,-0.0010822697758700454,-1.8832994061670542E-4,393035.7016939456,3.3465500229496427E-12,970.3861622083134,-2.498164146433807,-6.9687832962924325,4.5913341509098125
3780.0,5916202.171449934,-84155.06418689156,-3280924.2212170246,1677173.2975849225,5673237.605891449,-3282447.0674533187,-4475.557579445572,4065.2878666232045,4728.3333640182145,-2.158251974388313,-7.300368704552898,4.236024993857681,6765383.217626767,1.2989614086311496,-0.4076539373054193,-0.15943964431253213,0.20971896555020042,-1.4760591153326363,-0.5760959771131179,2.7097313826810443,-3.1777152893592685E-4,-0.0010796150053052236,-1.903992502672643E-4,392483.40164424817,3.318409930609226E-12,965.9318657487631,-2.158251974388313,-7.300368704552898,4.236024993857681
3840.0,6065580.565433285,213918.24446303086,-2990024.7964656334,1404963.5960578218,5903830.340027872,-2991344.430933041,-4594.598683768359,3618.1578744509716,4971.33654555212,-1.8082334618108395,-7.598217905958976,3.86092295962746,6766162.455781886,1.3033366778787392,-0.4146186780529307,-0.15685108149592142,0.22296864474835926,-1.5375731182127148,-0.5917049844306248,2.7862383228925056,-3.2607973817320903E-4,-0.0010768783180206882,-1.9241343902274072E-4,391945.14057632635,3.2938123393033824E-12,961.7986331028806,-1.8082334618108395,-7.598217905958976,3.86092295962746
3900.0,6189581.3640756495,509808.9419455009,-2685237.58312001,1126246.8022999337,6107080.041309849,-2686347.893878306,-4692.375728219955,3154.2051047673745,5191.282675234898,-1.4497231642160326,-7.86090312489909,3.4677518025132974,6766901.343083566,1.307711947126297,-0.42119376462946123,-0.15425622833609276,0.2363656602782772,-1.6013172804660891,-0.6034056513184207,2.864277781249864,-3.344291024980794E-4,-0.0010740595225837463,-1.9437148499400414E-4,391433.52052690426,3.2721098124399565E-12,957.9956131114395,-1.4497231642160326,-7.86090312489909,3.4677518025132974
3960.0,6287604.546985186,802376.6340725147,-2367976.4836996933,842313.0549936604,6282041.423183434,-2368872.327569343,-4768.4288201602785,2675.578232518094,5387.1416409207,-1.084381987903676,-8.087157326799424,3.0583274041228257,6767586.14424792,1.312087216373823,-0.4273705652167979,-0.15166873829975513,0.24988701645769773,-1.666800139687575,-0.6110406593694472,2.9433942519511795,-3.428159302885336E-4,-0.0010711585252051532,-1.962723915743739E-4,390960.5092167748,3.2526674115149885E-12,954.5293131614285,-1.084381987903676,-8.087157326799424,3.0583274041228257
4020.0,6359160.205927558,1090500.6752029578,-2039713.8630111471,554477.0724120236,6427900.300049866,-2040391.0897224585,-4822.398918132947,2184.4969246602413,5557.99484771035,-0.7139093901165552,-8.275882458015726,2.634549715308839,6768204.087321744,1.3164624856213492,-0.4331423525719158,-0.1491025606851246,0.263509581217952,-1.7334658307508202,-0.6145010952959364,3.023064672140493,-3.5123650515126305E-4,-0.001068175331579069,-1.9811518891275145E-4,390537.203529769,3.234867456437046E-12,951.4031635654987,-0.7139093901165552,-8.275882458015726,2.634549715308839
4080.0,6403871.158435978,1373084.4308341362,-1701973.715589784,264072.03686172044,6543977.538020407,-1702429.1873196475,-4854.029898447331,1683.2414733865712,5703.040000720721,-0.3400350848658796,-8.426156900725992,2.1983939154640164,6768743.604359977,1.3208377548688435,-0.43850432446818033,-0.14657180306103143,0.27721014812911404,-1.8007186307129806,-0.6137328659677173,3.1027232566655254,-3.5968708961483517E-4,-0.0010651100485381758,-1.9989893535859557E-4,390173.6093705941,3.2181155337163675E-12,948.6171533601469,-0.3400350848658796,-8.426156900725992,2.1983939154640164
4140.0,6421475.064593585,1649059.4260826122,-1356324.562652014,-27556.629665994707,6629732.370778465,-1356556.168839267,-4863.170110594957,1174.1420090635706,5821.595334842839,0.0354896914296703,-8.53724200500667,1.7519008276284849,6769194.552357082,1.325213024116306,-0.4434536100657787,-0.14409058980974596,0.2909654964255336,-1.867952676447272,-0.6087398790719374,-3.101393836163142,-3.6816392891860883E-4,-0.0010619628855173837,-2.0162271887396005E-4,389878.44235533895,3.2018472547308226E-12,946.1675262609236,0.0354896914296703,-8.53724200500667,1.7519008276284849
4200.0,6411826.029320605,1917389.3611537535,-1004372.1130212563,-319057.5672136001,6684765.057074873,-1004378.7803752751,-4849.773397094749,659.567352231362,5913.103248499134,0.41090128519783575,-8.608587567006856,1.2971666481626083,6769548.409883222,1.3295882933637686,-0.44798926222385443,-0.14167291856223693,0.304752449694988,-1.9345831745868496,-0.599583514426587,-3.0234758412344145,-3.766632548880913E-4,-0.0010587341558201192,-2.032856584079211E-4,389658.9534183168,3.1855351867564545E-12,944.0465250248728,0.41090128519783575,-8.608587567006856,1.2971666481626083
4260.0,6374895.675542606,2177073.975069258,-647751.724953091,-609079.8241908764,6708818.860167671,-647533.4225949742,-4813.899557946992,141.91357155125064,5977.13330253885,0.7844330185059317,-8.639836133869945,0.8363320697610522,6769798.445160726,1.3339635626111994,-0.4521122359172131,-0.1393325163430936,0.31854793392846414,-2.0000750789529937,-0.5863784583279757,-2.947220354891473,-3.8518128988663603E-4,-0.0010554242776814845,-2.048869052287346E-4,389520.78293874033,3.168695318629149E-12,942.2421716618244,0.7844330185059317,-8.639836133869945,0.8363320697610522
4320.0,6310773.6770137865,2427152.739348639,-288120.70796130603,-896279.2145384669,6701781.333743327,-287678.44766273827,-4755.714245258585,-376.407678726956,6013.38455071158,1.1543247737221514,-8.630826032655408,0.3715708954703649,6769939.851748496,1.3383388318585985,-0.4558253531022929,-0.13708269724436414,0.33232903562802724,-2.0639658014222073,-0.5692855014356024,-2.873069222413747,-3.9371425083314053E-4,-0.0010520337751235692,-2.064256442092134E-4,389467.8464271648,3.1508923812401696E-12,940.7380690509781,1.1543247737221514,-8.630826032655408,0.3715708954703649
4380.0,6219667.743239493,2666708.364038196,72849.49442615235,-1179324.6512483943,6663684.903436384,73513.66291483439,-4675.488279652053,-892.9809626543315,6021.687174537936,1.5188326644331567,-8.581593041706062,-0.0949217417201036,6769969.848527915,1.3427141011059978,-0.45913325451215387,-0.13493622342415504,0.3460730606373647,-2.125879836324624,-0.5485022770267783,-2.8013790699396792,-4.0225835327489605E-4,-0.0010485632785986031,-2.079010950609186E-4,389502.25415400136,3.1317836625906432E-12,939.5161056791896,1.5188326644331567,-8.581593041706062,-0.0949217417201036
4440.0,6101903.05284716,2894870.099450202,433481.19863757363,-1456904.4214600353,6594706.737950634,434364.19715172786,-4573.596386634586,-1405.3989245488979,6002.003402709093,1.8762386800183954,-8.492370648037586,-0.5609414250852367,6769887.741357779,1.347089370353365,-0.4620423390188721,-0.13290517117736175,0.3597575942931999,-2.185534774492739,-0.5242530660073125,-2.7324151596615596,-4.1080981550429917E-4,-0.0010450135254164979,-2.0931251351293177E-4,389624.2663939308,3.1113148196863945E-12,938.5703661572288,1.8762386800183954,-8.492370648037586,-0.5609414250852367
4500.0,5957921.135790204,3110816.8182107373,792098.408456609,-1727732.368445944,6495167.908860478,793196.1448286789,-4450.515357984032,-1911.2741232079338,5954.427703197027,2.224860187728425,-8.363588862626022,-1.0242866270871283,6769694.944517011,1.3514646396007006,-0.4645606913519456,-0.13100080374905876,0.3733605633983577,-2.2427395955531444,-0.49677872042466154,-2.666352985288962,-4.1936486270796527E-4,-0.0010413853599539162,-2.106591924310735E-4,389832.2851943496,3.0895647688753915E-12,937.8962234594026,2.224860187728425,-8.363588862626022,-1.0242866270871283
4560.0,5788278.208870496,3313779.8637134745,1147034.7320979475,-1990553.9463150816,6365531.843359792,1148342.1193437611,-4306.821650189864,-2408.2507517524277,5879.186244811681,2.563059176326488,-8.195871595816412,-1.4827708637433303,6769394.960920605,1.3558399088480522,-0.4666979990707171,-0.12923345246940468,0.38686030040363134,-2.2973870473183986,-0.4663275227997788,-2.6032857976540926,-4.279197311363991E-4,-0.0010376797336433129,-2.1194046287373864E-4,390122.88280027045,3.0666577869346836E-12,937.4843575039722,2.563059176326488,-8.195871595816412,-1.4827708637433303
4620.0,5593642.973120451,3503045.6527964575,1496641.2452743119,-2244152.114189462,6206402.079394531,1498152.2254558841,-4143.1884388405115,-2894.0161575577,5776.635633725382,2.8892511295066146,-7.99003262629884,-1.9342346837126374,6768993.321002287,1.360215178095356,-0.4684654598397148,-0.12761240765858456,0.4002356100370506,-2.349442267041208,-0.43314749426860855,-2.543235904797048,-4.364706722821401E-4,-0.001033897704740094,-2.131556950806422E-4,390490.86608025705,3.0427579479789848E-12,937.3208394939725,2.8892511295066146,-7.99003262629884,-1.9342346837126374
4680.0,5374793.885523895,3677958.0223749443,1839294.2571623514,-2487353.037941914,6018519.33767346,1841001.829803386,-3960.3821543313215,-3366.3120796589424,5647.260939206893,3.2019134253594856,-7.747070227789835,-2.3765573488968195,6768497.481118397,1.3645904473426438,-0.4698756801222281,-0.12614582062078433,0.413465838475148,-2.3989296722658677,-0.39748037040751055,-2.486167718178053,-4.4501395705425916E-4,-0.0010300404378679091,-2.1430429939102135E-4,390929.37554257404,3.018054405981115E-12,937.3867028250697,3.2019134253594856,-7.747070227789835,-2.3765573488968195
4740.0,5132615.921266124,3837920.311829055,2173402.9372820565,-2719031.5692835124,5802757.929870619,2175299.192188077,-3759.2585301579306,-3822.9455257448994,5491.673031170392,3.4995931698902343,-7.468160546370388,-2.8076680718714235,6767916.683281438,1.3689657165913447,-0.47094256652873984,-0.12484061787566761,0.4265309449800047,-2.445919737262155,-0.3595572304048852,-2.4320009287873914,-4.5354587993686054E-4,-0.0010261092033424862,-2.1538572708812906E-4,391430.01680993056,2.992717207418023E-12,937.6554305634154,3.4995931698902343,-7.468160546370388,-2.8076680718714235
4800.0,4868096.846086509,3982397.175161547,2497416.7628944805,-2938116.4740239806,5560121.526828446,2499492.9172066543,-3540.7582001446885,-4261.799217216461,5310.605259849892,3.780914387545869,-7.1546498469660715,-3.225556688685431,6767261.77897209,1.373340985838585,-0.47168121110400824,-0.12370242860391976,0.43941157576932144,-2.4905167594946627,-0.3195956115355845,-2.380622708785218,-4.6206276311924093E-4,-0.0010221053762748888,-2.1639947116707547E-4,391983.02177329717,2.966864866660824E-12,938.0912993675905,3.780914387545869,-7.1546498469660715,-3.225556688685431
4860.0,4582323.021453266,4110916.119000052,2809832.7485478683,-3143595.3836367773,5291738.314628836,2812079.1878383877,-3305.9018850655625,-4680.841538553336,5104.909514695352,4.0445845092677395,-6.808045768532892,-3.628283662992626,6766545.020640908,1.3777162550858253,-0.4721077718881528,-0.12273552609627261,0.45208913972492365,-2.5328482413212052,-0.27779786171223114,-2.3318983139527263,-4.705609605854499E-4,-0.0010180304354564789,-2.1734506702340722E-4,392577.43606477487,2.941732382113096E-12,938.7384598718991,4.0445845092677395,-6.808045768532892,-3.628283662992626
4920.0,4276474.767707885,4223068.76498363,3109202.4218018437,-3334519.4467834705,4998855.569970744,3111608.744999336,-3055.7852121100354,-5078.135936101234,4875.551705217379,4.2894001179278725,-6.4300077430643094,-4.013989338304397,6765779.825300152,1.3820915243330338,-0.47223935010791473,-0.12194278378677391,0.46454588539806285,-2.5730561334548194,-0.23435046099215612,-2.285679841337811,-4.7903686215089447E-4,-0.0010138859620282747,-2.1822209306005376E-4,393201.3290127024,2.9188495760891327E-12,939.6627062253817,4.2894001179278725,-6.4300077430643094,-4.013989338304397
4980.0,3951821.3126490866,4318511.83693765,3394138.511857141,-3510007.660120904,4682833.689292229,3396693.579773171,-2791.5732124490664,-5451.8497210126025,4623.606710812156,4.514251931265191,-6.022336742867501,-4.380902378432413,6764980.515256668,1.3864667935802266,-0.47209386535592734,-0.12132564625311101,0.47676497863553485,-2.611289926530884,-0.18942405821245242,-2.2418131571824085,-4.874868974339644E-4,-0.0010096736379383462,-2.1903017121065334E-4,393842.02185256185,2.899547992220565E-12,940.9154367460237,4.514251931265191,-6.022336742867501,-4.380902378432413
5040.0,3609715.3545704326,4396967.8754097065,3663321.320730938,-3669250.86045112,4345139.708500748,3666013.307943262,-2514.4945427424104,-5800.262241053847,4350.252849460219,4.71812902259568,-5.586964523226431,-4.7273473607668075,6764162.041566174,1.3908420628273876,-0.47168993008402066,-0.12088411535179064,0.48873058003906883,-2.647701422993663,-0.14317400397612096,-2.200143164964401,-4.959075397507708E-4,-0.0010053952441914375,-2.1976896737753635E-4,394486.32969311526,2.8850782548215722E-12,942.5427243029303,4.71812902259568,-5.586964523226431,-4.7273473607668075
5100.0,3251587.2699579746,4458225.683915079,3915504.7496586293,-3811515.3630148554,3987340.3519856445,3918321.1994935833,-2225.8354758297387,-6121.772395932452,4056.7659165704786,4.900122298704408,-5.125942523561036,-5.051751511738745,6763339.696140104,1.3952173320745327,-0.471046724685385,-0.12061675144944065,0.5004279213786837,-2.682440948453483,-0.09574120335288798,-2.1605176572119733,-5.042953099212712E-4,-0.0010010526588963488,-2.2043819178301283E-4,395120.81255685125,2.8766509556652853E-12,944.5884696988237,4.900122298704408,-5.125942523561036,-5.051751511738745
5160.0,2878938.9967423207,4502140.512864708,4149521.95648182,-3936146.233396065,3611094.650824664,4152449.8388269,-1926.933704158072,-6414.905480301706,3744.512845163148,5.0594272714798665,-4.641430579817819,-5.352650597406628,6762528.818632196,1.399592601321678,-0.47018387436309134,-0.12052068950683217,0.5118433800182017,-2.7156547433226894,-0.04725315298423492,-2.1227900140530798,-5.126467799754556E-4,-9.966478551163968E-4,-2.2103759923292182E-4,395732.03074195015,2.875464462276192E-12,947.0962971257861,5.0594272714798665,-4.641430579817819,-5.352650597406628
5220.0,2493337.6242554835,4528633.988516516,4364290.622815391,-4042570.183045566,3218146.170778055,4367316.39448378,-1619.1719968554144,-6678.319347311214,3414.9450371552653,5.195346174256808,-4.135685584778772,-5.628694003460738,6761744.504253509,1.4039678705687753,-0.469121328884096,-0.12059166957869706,0.5229645503706422,-2.7474832898779686,0.0021749363414980813,-2.086820998351502,-5.209585767487281E-4,-9.921828985300432E-4,-2.215669892917959E-4,396306.7997718263,2.882728964001352E-12,950.1108639171905,5.195346174256808,-4.135685584778772,-5.628694003460738
5280.0,2096408.7209269372,4537693.795386281,4558817.812697269,-4130298.08078479,2810314.890858985,4561927.480058546,-1303.9717479545277,-6910.809893170367,3069.5914128921695,5.307289484840657,-3.6110502122453108,-5.878649057058225,6761001.318517494,1.4083431398158728,-0.4678792461962301,-0.12082408110998923,0.5337803113912913,-2.778060360835696,0.052439000733000646,-2.052479867938931,-5.292273853557752E-4,-9.876599449085267E-4,-2.220262063692489E-4,396832.4403035339,2.8996870972851347E-12,953.6785919998863,5.307289484840657,-3.6110502122453108,-5.878649057058225
5340.0,1689829.4303193626,4529373.121379168,4732204.407148315,-4198927.07478742,2389488.7730446244,4735383.590733734,-982.7864493178487,-7111.315869437725,2710.051222480121,5.394776924375439,-3.0699417968633536,-6.10140465697854,6760313.024620994,1.4127184090629386,-0.46647788074999913,-0.12121102024083902,0.5442808891312493,-2.807512612568805,0.10344501368119223,-2.019644990519212,-5.37449952532958E-4,-9.8308123741857E-4,-2.2241513971765103E-4,397297.01854950684,2.927627440485107E-12,957.8475321923156,5.394776924375439,-3.0699417968633536,-6.10140465697854
5400.0,1275321.365452932,4503789.875441518,4883649.101554755,-4248142.321419994,1957615.0631417246,4886883.10234118,-657.0951175482272,-7278.923034474236,2337.9866581757856,5.457438004376982,-2.5148414351144495,-6.295974288086828,6759692.328727567,1.4170936783099726,-0.46493747722611606,-0.12174435918277414,0.5544579134085517,-2.835959583106871,0.15510793439269452,-1.9882041126279781,-5.456230898396071E-4,-9.784491037585252E-4,-2.227337233414432E-4,397689.57301447814,2.9678840305474096E-12,962.6658694203633,5.457438004376982,-2.5148414351144495,-6.295974288086828
5460.0,854643.3305523135,4461125.687820206,5012451.955000571,-4277718.318951691,1516691.3620313946,5015725.822074047,-328.39569983738573,-7412.867658624778,1955.1153023675333,5.495012193416163,-1.9482833461509066,-6.461498500729707,6759150.647876522,1.4214689475570224,-0.46327817019328876,-0.12241482660939661,0.5643044677210651,-2.8635139889401096,0.20735072981406807,-1.9580544039332959,-5.537436767092552E-4,-9.737659531371444E-4,-2.2298193581875576E-4,398000.32365493785,3.0218127087847752E-12,968.1784863078806,5.495012193416163,-1.9482833461509066,-6.461498500729707
5520.0,429583.8984766547,4401624.703058964,5118017.482601157,-4287519.845512147,1068756.5055898607,5121316.081899187,1.8015204655404957,-7512.539399223385,1563.202440826266,5.507348770356252,-1.3728445051507874,-6.59724693548462,6758697.904593356,1.4258442168040246,-0.4615198900895774,-0.12321209788272611,0.573815131597299,-2.8902822443976324,0.2601034773880222,-1.929102373660277,-5.618086633423712E-4,-9.690342731041681E-4,-2.231598000364269E-4,398220.8599166744,3.0907349923010348E-12,974.4211553037421,5.507348770356252,-1.3728445051507874,-6.59724693548462
5580.0,1953.8712327598087,4325592.175703936,5199857.283527874,-4277502.501808894,615881.2906088795,5203165.36735845,331.9805015761497,-7577.483561551827,1164.0532662010037,5.49440642316308,-0.791134538022194,-6.702619968904995,6758342.351586958,1.430219486051027,-0.4596822757375283,-0.12412489386679618,0.5829860146787812,-2.916365153023053,0.3133025496645628,-1.901263737460265,-5.698150734329531E-4,-9.64256626243022E-4,-2.23267382839744E-4,398344.3044958395,3.1758447244222158E-12,981.4124953462997,5.49440642316308,-0.791134538022194,-6.702619968904995
5640.0,-426421.3498141308,4233392.878366466,5257592.198778616,-4247712.860033087,160159.08310454577,5260894.47581375,660.6259905337467,-7607.402760572369,759.5049924415713,5.45625264173265,-0.20578584573677178,-6.777150047083661,6758090.429175399,1.4345947552979816,-0.4577845934656996,-0.12514108701192206,0.5918147819336903,-2.941858742894594,0.36688987803192863,-1.8744633006955405,-5.777600067217526E-4,-9.594356467357671E-4,-2.2330479459865309E-4,398365.45008533285,3.278083957788811E-12,989.1448654228129,5.45625264173265,-0.20578584573677178,-6.777150047083661
5700.0,-853709.4580481518,4125449.3313473137,5290953.993877113,-4198288.2211297015,-296303.65541894344,5294235.199318973,986.2300287813409,-7602.1579958405955,351.4188971719952,5.393062940624792,0.38055608980470507,-6.820502761684525,6757946.657346901,1.4389700245449362,-0.45584566276245286,-0.12624781336044152,0.6003006695136943,-2.96685523852216,0.4208122904414308,-1.8486349178848418,-5.856406413698099E-4,-9.545740368110871E-4,-2.2327218869237572E-4,398280.86681303504,3.3980109649876663E-12,997.5765888855833,5.393062940624792,0.38055608980470507,-6.820502761684525
5760.0,-1278078.9744984584,4002239.862505681,5299786.562614226,-4129455.9832223738,-751396.8888334105,5303031.528232814,1307.2984065955757,-7561.769148745637,-58.32769381134647,5.30511993383503,0.965242278067607,-6.8324777084253085,6757913.563632853,1.443345293791875,-0.45388378826838627,-0.1274315891023869,0.6084444908880778,-2.991444182622954,0.4750209165842207,-1.8237215883399218,-5.934542361467463E-4,-9.496745630862652E-4,-2.2316976091479068E-4,398088.97854019166,3.5356975041686233E-12,1006.6285728409732,5.30511993383503,0.965242278067607,-6.8324777084253085
5820.0,-1697706.9942136356,3864296.505510589,5284046.648732228,-4041532.624523068,-1203016.53989867,5287240.3724748,1622.3570577981852,-7486.41490741959,-467.84946765896257,5.19281226955692,1.5456297365500955,-6.813009151723036,6757991.647277809,1.447720563038782,-0.4519166977948755,-0.12867843032617016,0.6162486330103756,-3.0157137440508643,0.5294706531857799,-1.7996757558197047,-6.01198132428674E-4,-9.447400528144525E-4,-2.2299774880313558E-4,397790.10667093215,3.690692874595005E-12,1016.187662710451,5.19281226955692,1.5456297365500955,-6.813009151723036
5880.0,-2110786.920798759,3712202.7440746343,5243804.083156054,-3934922.3045612867,-1649074.0021418638,5246931.798030194,1929.9583862385246,-7376.432120621319,-875.2612198629439,5.056633419025077,2.119091019448137,-6.762166502279085,6758179.379553988,1.4520958322856732,-0.44996148598270663,-0.12997397462451935,0.623717042394194,-3.039752276781714,0.5841196815947947,-1.7764598975093213,-6.088697560018371E-4,-9.397733900484896E-4,-2.2275643089288545E-4,397386.4806178339,3.8620720127216814E-12,1026.1168039425172,5.056633419025077,2.119091019448137,-6.762166502279085
5940.0,-2515536.1635530684,3546591.109292752,5179241.535052239,-3810115.088099918,-2087505.5957818166,5182288.776986566,2228.6875147894043,-7232.314577920447,-1278.6859724863277,4.89718030064712,2.6830238225020437,-6.680154597631764,6758473.239488297,1.4564711015325642,-0.44803456313995776,-0.1313036032638203,0.6308552010958604,-3.0636502340236977,0.6389290294341896,-1.7540475187638658,-6.164666186683041E-4,-9.347775117329822E-4,-2.2244612590188744E-4,396882.2145784481,4.0485513897382814E-12,1036.26934440539,4.89718030064712,2.6830238225020437,-6.680154597631764
6000.0,-2910203.7711787093,3368140.636814856,5090653.775711894,-3667684.796699636,-2516281.9331038473,5093606.450100914,2517.16844612104,-7054.711209870225,-1676.2631027081895,4.715151709274079,3.234860720346682,-6.567313759938252,6758867.783756065,1.4608463707794237,-0.44615160876310167,-0.13265256268552458,0.6376700927149276,-3.0875025991693734,0.6938621674830588,-1.7324247219825215,-6.239863196513213E-4,-9.297554037360388E-4,-2.2206719184714294E-4,396283.2507983009,4.248629512603696E-12,1046.5032853779496,4.715151709274079,3.234860720346682,-6.567313759938252
6060.0,-3293077.9753718516,3177574.190305343,4978446.455058273,-3508286.493598387,-2933417.1582170306,4981290.901700997,2794.0701224169284,-6844.4236988138455,-2066.1564671880365,4.5113465110609186,3.772079081016533,-6.424119591117041,6759355.749052817,1.4652216400262512,-0.44432752922332025,-0.13400608417632795,0.6441701586384367,-3.1114120846865174,0.7488846318596382,-1.7115926033878015,-6.314265467983845E-4,-9.247100968323075E-4,-2.21620025097696E-4,395597.2700239028,4.460704665621579E-12,1056.69185759174,4.5113465110609186,3.772079081016533,-6.424119591117041
6120.0,-3662493.6167932455,2975655.6575061493,4843134.391526775,-3332653.608418096,-3336978.0254932297,4845857.447672414,3058.112368595413,-6602.403488718404,-2446.562504989339,4.28666155722127,4.292211187476379,-6.251182453503374,6759928.184867791,1.4695969092745076,-0.4425764191099271,-0.13534950063158202,0.6503652448525014,-3.135493494471576,0.8039636595145406,-1.6915708731959174,-6.387850775808622E-4,-9.19644662648924E-4,-2.211050593674317E-4,394833.57038282236,4.683140457831223E-12,1066.728832236602,4.28666155722127,4.292211187476379,-6.251182453503374
