time,gePosition_m_X,gePosition_m_Y,gePosition_m_Z,eiPosition_m_X,eiPosition_m_Y,eiPosition_m_Z,eiVelocity_m_s_X,eiVelocity_m_s_Y,eiVelocity_m_s_Z,eiAccel_m_s2_X,eiAccel_m_s2_Y,eiAccel_m_s2_Z,semiMajorAxis_m,gast_rad,eulerAngle_rad_Roll,eulerAngle_rad_Pitch,eulerAngle_rad_Yaw,eulerAngleWrtEi_rad_Roll,eulerAngleWrtEi_rad_Pitch,eulerAngleWrtEi_rad_Yaw,bodyAngularRateWrtEi_rad_s_Roll,bodyAngularRateWrtEi_rad_s_Pitch,bodyAngularRateWrtEi_rad_s_Yaw,altitudeMsl_m,airDensity_kg_m3,ambientTemperature_dgK,eiGravitation_m_s2_X,eiGravitation_m_s2_Y,eiGravitation_m_s2_Z
0.0,-1428622.31101,4163200.46562,5136049.67203,-4292653.41,955168.47,5139356.57,109.649663,-7527.72649,1484.521489,5.5138738948,-1.22700107555,-6.6205649795,6758662.11723,1.02334780893,5.666859310097427E-17,-0.2024581932313422,-1.0271182499535224E-16,-2.471593905353287,-0.03718896447605677,-1.4289931348888525,0.0,0.0,0.0,398252.763838,3.11591362917E-12,976.47737094,5.5138738948,-1.22700107555,-6.6205649795
60.0,-1789722.6867,3920281.53001,5213135.28819,-4276158.38789,501645.155197,5216446.65292,439.972339969,-7583.89132359,1084.15483209,5.49266887541,-0.644443729673,-6.71986858049,6758329.84333,1.02772307802,-5.606634503378249E-6,-0.20245703423148978,-1.9346410559383415E-4,-2.4720592963860404,0.01612042366569264,-1.3866611796765804,-7.049068603766561E-7,-0.001134477987848274,-3.302852372534542E-6,398351.928857,3.20589767231E-12,983.703900479,5.49266887541,-0.644443729673,-6.71986858049
120.0,-2144775.62615,3662449.6012,5266053.96388,-4239897.32156,45802.7360118,5269354.48897,768.265714715,-7605.00020444,678.755880817,5.44625679052,-0.0589100653892,-6.78824563714,6758100.17324,1.03209834711,-3.813315892108823E-5,-0.20245313257587222,-5.854797417240926E-4,-2.470307948697733,0.06928029515548614,-1.3441021824376438,-1.5682193695747527E-6,-0.0011344959082205722,-6.615080444266568E-6,398347.951494,3.31323420346E-12,991.665829648,5.44625679052,-0.0589100653892,-6.78824563714
180.0,-2492271.94079,3390831.54786,5294559.58441,-4184037.23098,-410251.660909,5297834.01308,1093.02317764,-7590.95396458,270.190133975,5.37484941193,0.526951940239,-6.82538832149,6757977.34532,1.0364736162,-1.2113634872364821E-4,-0.2024458688855352,-0.001170723619925342,-2.4663158457375527,0.12219457297341439,-1.3010762842746364,-2.5897433371880404E-6,-0.0011345075693185744,-9.935939052561712E-6,398237.787807,3.438354291E-12,1000.31060854,5.37484941193,0.526951940239,-6.82538832149
240.0,-2830726.64999,3106604.14647,5298518.36842,-4108835.087,-864409.727127,5301751.56357,1412.75404735,-7541.81238678,-139.662474934,5.27876571808,1.11049351592,-6.83112341376,6757963.66964,1.04084888529,-2.7807745618090593E-4,-0.20243466746013436,-0.0019422740710350322,-2.4600313118668202,0.17476349162007102,-1.2573391714524293,-3.7692476844597157E-6,-0.0011345124437282144,-1.3264676401906132E-5,398020.266457,3.58117992288E-12,1009.54816807,5.27876571808,1.11049351592,-6.83112341376
300.0,-3158685.24501,2810989.03921,5277909.49186,-4014636.6634,-1314571.5051,5281086.50552,1725.98996719,-7457.79396298,-548.915671616,5.15843067079,1.68907473038,-6.80541284758,6758059.4855,1.04522415437,-5.32208354731215E-4,-0.2024190198712959,-0.0028916459838751393,-2.4513746395741123,0.22688152919940394,-1.212638578679881,-5.106463907715847E-6,-0.0011345099435632596,-1.6600533489169586E-5,397696.124645,3.74110827325E-12,1019.25612551,5.15843067079,1.68907473038,-6.80541284758
360.0,-3474729.87539,2505247.55864,5232825.22574,-3901875.00746,-1758654.88903,5235931.36773,2031.2912235,-7339.27507541,-955.68496122,5.01437383089,2.26007410874,-6.74835404256,6758263.15269,1.04959942346,-9.064584369105478E-4,-0.2023985058524626,-0.004008833186946259,-2.440237430159686,0.27843520853324666,-1.1667109306425738,-6.601085475827106E-6,-0.0011344994211529684,-1.9942743536966846E-5,397268.0103,3.91708037201E-12,1029.29143029,5.01437383089,2.26007410874,-6.74835404256
420.0,-3777485.43699,2190675.4362,5163470.58652,-3771068.53401,-2194605.05933,5166491.49198,2327.25297578,-7186.78859989,-1358.09576215,4.84722780069,2.8208982893,-6.66018002228,6758571.07658,1.05397469255,-0.001423322751597779,-0.2023728106963357,-0.005282358053107463,-2.4264817776195184,0.32930071575502307,-1.1192781943573564,-8.252767163976442E-6,-0.0011344801697995635,-2.3290531437403787E-5,396740.4504,4.10771006692E-12,1039.50523665,4.84722780069,2.8208982893,-6.66018002228
480.0,-4065625.54043,1868597.41137,5070162.49865,-3622818.74854,-2620403.81573,5073084.19418,2612.51138757,-7001.02192708,-1754.29154011,4.65772646999,3.36899177456,-6.54125930108,6758977.76703,1.05834996164,-0.002104751879263026,-0.2023417385141413,-0.006699328069624346,-2.40993949275919,0.37934129187713267,-1.070045087132488,-1.0061124325786983E-5,-0.0011344514246142464,-2.664311320769178E-5,396119.785793,4.31142616584E-12,1049.75671662,4.65772646999,3.36899177456,-6.54125930108
540.0,-4337878.33782,1540361.75819,4953328.46978,-3457807.60586,-3034078.77415,4956137.43781,2885.7496455,-6782.81439473,-2142.44192772,4.44670303239,3.901846823,-6.39209550857,6759475.93006,1.06272523073,-0.002972044054817663,-0.20230522073363844,-0.008245499081937259,-2.3904116628473107,0.42840436585028874,-1.018696889844619,-1.2025732106073805E-5,-0.001134412363442219,-2.9999695459375573E-5,395414.073469,4.52658227709E-12,1059.92254922,4.44670303239,3.901846823,-6.39209550857
600.0,-4593032.18541,1207334.74617,4813504.77988,-3276794.51124,-3433712.39155,4816188.02111,3145.70385129,-6533.15412116,-2520.75081266,4.21508772998,4.41701351625,-6.21332670797,6760056.5914,1.06710049981,-0.004045740057085222,-0.20226331937161138,-0.009905344891178504,-2.367668984746518,0.47631842124721674,-0.964898263413571,-1.4146124597064531E-5,-0.001134362107854033,-3.335947488424658E-5,394632.957706,4.75151037365E-12,1069.90102033,4.21508772998,4.41701351625,-6.21332670797
660.0,-4829941.11851,870895.052589,4651334.18673,-3080612.97231,-3817450.78253,4653879.28027,3391.16876915,-6253.17422909,-2887.46437431,3.9639052781,4.912110022,-6.00572435262,6760709.25001,1.0714757689,-0.005345521389111534,-0.20221622474574313,-0.011662132861224658,-2.3414535056176056,0.5228896292502554,-0.908293668414397,-1.642179394093355E-5,-0.0011342997242294386,-3.672163775762219E-5,393787.51206,4.9845194567E-12,1079.61161854,3.9639052781,4.912110022,-6.00572435262
720.0,-5047530.11466,532428.143922,4467563.15179,-2870166.91097,-4183512.29082,4469958.31275,3621.00340771,-5944.1484475,-3240.87904541,3.69427191712,5.38483305525,-5.77019181616,6761422.05955,1.07585103799,-0.006890112274026419,-0.2021642474024674,-0.013498005173058422,-2.3114826627458736,0.5678983472276622,-0.848510249623177,-1.885218938147738E-5,-0.0011342242249250088,-4.0085359460649106E-5,392890.054693,5.22385692702E-12,1088.99191434,3.69427191712,5.38483305525,-5.77019181616
780.0,-5244800.12007,193320.644649,4263038.59133,-2646426.64595,-4530195.77787,4265272.72564,3834.13641254,-5607.48608042,-3579.34937087,3.40739203682,5.83296852101,-5.50776242476,6762182.03524,1.08022630708,-0.008697185985683649,-0.20210780419447752,-0.015394065350705453,-2.277456823660206,0.6110956857896566,-0.7851643614906788,-2.143671626894539E-5,-0.0011341345695115796,-4.344980402669232E-5,391953.939979,5.46765444841E-12,1097.99343569,3.40739203682,5.83296852101,-5.50776242476
840.0,-5420832.81385,-145045.287586,4038704.1604,-2410424.55816,-4855888.59042,4040766.91648,4029.57124197,-5244.7263325,-3901.29573183,3.1045543193,6.25440230056,-5.21959691658,6762975.28282,1.08460157617,-0.01078327602019848,-0.20204739859864806,-0.017330469673883693,-2.239071852014994,0.6522004999647085,-0.7178732380682341,-2.4174735020120254E-5,-0.0011340296661233877,-4.681412370814437E-5,390993.329831,5.71387614541E-12,1106.5776902,3.1045543193,6.25440230056,-5.21959691658
900.0,-5574795.08387,-481297.560593,3795596.07837,-2163250.45272,-5159074.16799,3797477.89555,4206.39109569,-4857.53198453,-4205.21189809,2.78712735036,6.64713112127,-4.90698025336,6763787.24633,1.08897684525,-0.013163692595172534,-0.20198359548031952,-0.019286523087580776,-2.196038465612824,0.6908973697244394,-0.6462735555547374,-2.7065560040001193E-5,-0.0011339083728613177,-5.017745857220708E-5,390022.94861,5.96028180927E-12,1114.71295736,2.78712735036,6.64713112127,-4.90698025336
960.0,-5705943.18826,-814079.699301,3534838.50784,-1906046.63358,-5438339.25146,3536530.6612,4363.76356304,-4447.68241638,-4489.67236807,2.45655465554,7.00927342821,-4.57131771204,6764602.97056,1.09335211434,-0.01585244493466771,-0.20191699068966248,-0.02124077921659345,-2.148110124636627,0.7268363965044108,-0.5700486092861767,-3.0108458605857893E-5,-0.0011337694993095895,-5.353893612198061E-5,389057.825826,6.20440841342E-12,1122.37184493,2.45655465554,7.00927342821,-4.57131771204
1020.0,-5813626.57604,-1142056.32879,3257638.50081,-1640002.70849,-5692380.6534,3259133.14221,4500.94495532,-4017.06597993,-4753.33945097,2.11434912653,7.33908015509,-4.2141301918,6765407.37381,1.09772738343,-0.01886216976214171,-0.20184817602593844,-0.023171144091282805,-2.09512058408405,0.7596359203553936,-0.4889652254875631,-3.330264972089827E-5,-0.0011336118081309936,-5.6897670947746615E-5,388113.031222,6.44357556476E-12,1129.52972066,2.11434912653,7.33908015509,-4.2141301918
1080.0,-5897291.34137,-1463918.56617,2965280.52915,-1366350.14442,-5920011.55156,2966570.72428,4617.28428477,-3567.67173193,-4994.97004252,1.7620868153,7.63494527288,-3.83704868224,6766185.52622,1.10210265252,-0.0222040663808321,-0.2017777001787763,-0.02505498319264899,-2.0370306703018306,0.7888894703331418,-0.40291995598085667,-3.664730294018546E-5,-0.0011334340167389126,-6.025276441071464E-5,387203.407015,6.6749117983E-12,1136.16369008,1.7620868153,7.63494527288,-3.83704868224
1140.0,-5956483.28604,-1778389.29802,2659120.61909,-1086356.59589,-6120167.2675,2660200.38032,4712.226852,-3101.58054388,-5213.42204249,1.40140008774,7.89541597826,-3.44180785269,6766922.92868,1.10647792161,-0.025887838670408992,-0.20170602644757135,-0.026869231422158902,-1.9739809588099893,0.8141782427665314,-0.31199122237648286,-4.0141537173516505E-5,-0.0011332347990845408,-6.360330435870796E-5,386343.302283,6.89540099051E-12,1142.25199702,1.40140008774,7.89541597826,-3.44180785269
1200.0,-5990850.56644,-2084228.31936,2340580.11304,-801320.030628,-6291910.49379,2341444.42789,4785.31740355,-2620.95561525,-5407.66036066,1.03397014454,8.11920237171,-3.03023874004,6767605.78696,1.11085319069,-0.02992164427222,-0.20163348812563348,-0.02859050559799033,-1.906342893843701,0.835089944884598,-0.21648994137984995,-4.3784419471894915E-5,-0.0011330127875121684,-6.694836487850138E-5,385546.314542,7.10194575622E-12,1147.77367231,1.03397014454,8.11920237171,-3.03023874004
1260.0,-6000145.90257,-2380237.30992,2011139.08483,-512562.679712,-6434435.93492,2011783.9399,4836.20282235,-2128.03242519,-5576.7624569,0.661518934531,8.30518646667,-2.60426053233,6768221.27579,1.11522845978,-0.034312051179286575,-0.2015602424985443,-0.030195219075865375,-1.8347564423309244,0.851243752447137,-0.11699671566313904,-4.757496380021514E-5,-0.0011327665747156955,-7.028700608411275E-5,384825.043511,7.29144366892E-12,1152.70828609,0.661518934531,8.30518646667,-2.60426053233
1320.0,-5984228.32879,-2665264.62294,1672329.43803,-221424.841151,-6547074.32964,1672751.83829,4864.63431574,-1625.10816785,-5719.92336152,0.28580050392,8.45243036862,-2.16587146774,6768757.7874,1.11960372887,-0.03906400187851449,-0.20148622454406248,-0.03165969807733949,-1.7601397529808154,0.8623194042314907,-0.014371054008297298,-5.15121298029657E-5,-0.0011324947157841587,-7.36182739450626E-5,384190.861944,7.46087029281E-12,1157.03564309,0.28580050392,8.45243036862,-2.16587146774
1380.0,-5943064.46843,-2938209.86228,1325727.72008,70741.4319489,-6629295.82517,1325925.70331,4870.46906906,-1114.53072585,-5836.46012404,-0.0914081568171,8.56018346517,-1.71713889154,6769205.15943,1.12397899796,-0.04418078513744651,-0.20141110140521035,-0.032960299297940476,-1.683658332990719,0.8680864723403127,0.09027987352975848,-5.5594821569408794E-5,-0.0011321957303362675,-7.694120015547445E-5,383653.708136,7.60737791945E-12,1160.73602045,-0.0914081568171,8.56018346517,-1.71713889154
1440.0,-5876729.31718,-3198028.22367,972947.687929,362578.725663,-6680712.67762,972920.334364,4853.67133694,-598.6872457,-5925.81564176,-0.468316689317,8.62788847718,-1.26018853756,6769554.87698,1.12835426705,-0.04966401545929363,-0.20133422880765728,-0.03407352834294259,-1.6066497274966174,0.868428418294561,0.1956769660676331,-5.9821886401028724E-5,-0.0011318681047544266,-8.025480204419036E-5,383221.904333,7.72841003855E-12,1163.79112527,-0.468316689317,8.62788847718,-1.26018853756
1500.0,-5785406.5235,-3443734.57682,615632.663775,652730.707574,-6701081.25674,615380.100718,4814.31294955,-79.9923879041,-5987.56182413,-0.843131271797,8.65518623517,-0.79719312379,6769800.24451,1.13272953613,-0.055513620176225235,-0.20125461054015542,-0.03497615851098475,-1.5305129958303005,0.8633561132684352,0.30048011965294963,-6.419211358962692E-5,-0.0011315102944972973,-8.355808253148673E-5,382902.004805,7.82180640119E-12,1166.18483092,-0.843131271797,8.65518623517,-0.79719312379
1560.0,-5669388.15786,-3674407.26655,255447.721829,939848.581486,-6690303.33795,254971.123363,4752.57321757,439.123668448,-6021.40205492,-1.21406474281,8.64191906519,-0.330360372924,6769936.52331,1.13710480522,-0.06172783409818966,-0.20117086217787153,-0.0356453494213073,-1.4565848510577377,0.8530075085816866,0.4034124909902382,-6.870423321112489E-5,-0.0011311207265135874,-8.685003012959792E-5,382698.676755,7.8858928631E-12,1167.9037182,-1.21406474281,8.64191906519,-0.330360372924
1620.0,-5529073.9663,-3889191.61219,-105928.250754,1222597.51814,-6648426.66933,-106626.669079,4668.73822601,956.227380128,-6027.1729217,-1.57934682481,8.58813269376,0.138079412251,6769961.03118,1.14148007431,-0.06830320158496901,-0.20108118009581125,-0.0360587649330832,-1.3860294783382345,0.8376335257598128,0.503371086758925,-7.335691494170737E-5,-0.0011306978017431083,-9.012961899141096E-5,382614.616548,7.91955196191E-12,1168.9374972,-1.57934682481,8.58813269376,0.138079412251
1680.0,-5364970.10783,-4087303.08662,-466810.574179,1499663.02515,-6575644.80696,-467727.565621,4563.19951481,1468.89406249,-6004.84518999,-1.93723432098,8.49407661035,0.605886073691,6769873.20197,1.1458553434,-0.07523458587845473,-0.20098331686142207,-0.03619468977879058,-1.3197637698206797,0.8175735940690751,0.5995019456914294,-7.814876690119264E-5,-0.0011302398977068428,-9.339580900837845E-5,382650.503034,7.92227052767E-12,1169.27934747,-1.93723432098,8.49407661035,0.605886073691
1740.0,-5177687.37949,-4268030.15867,-825516.831802,1769757.2195,-6472296.2171,-826648.133617,4436.45215171,1974.72008687,-5954.52400883,-2.28602115569,8.36020285853,1.07082246733,6769674.60289,1.15023061249,-0.08251518549966685,-0.20087456391045508,-0.03603214427964307,-1.258427085458133,0.7932262108681627,0.6912308089177335,-8.307833453288025E-5,-0.0011297453711773013,-9.664754595782443E-5,382804.988913,7.89416185649E-12,1168.92620125,-2.28602115569,8.36020285853,1.07082246733
1800.0,-4967938.93638,-4430736.78471,-1180374.91514,2031624.96647,-6338862.64962,-1181715.26862,4289.09221054,2471.33495831,-5876.44834387,-2.6240481303,8.18716326111,1.53066731497,6769368.90919,1.15460588158,-0.09013655750369542,-0.20075174240667587,-0.03555099648055072,-1.202391374812693,0.7650199035374282,0.7782534483681932,-8.814409952284304E-5,-0.0011292125609570819,-9.988376170261002E-5,383074.73029,7.8359615758E-12,1167.87898719,-2.6240481303,8.18716326111,1.53066731497
1860.0,-4736537.51866,-4574864.53843,-1529731.01194,2284049.85,-6175966.79282,-1531274.18719,4121.81367583,2956.41318082,-5770.989644,-2.94971227154,7.97580511898,1.98322787667,6768961.83634,1.15898115066,-0.09808864737631805,-0.20061120294341292,-0.034732070996531667,-1.1517991043639049,0.7333884990761941,0.8604982136134945,-9.33444787680886E-5,-0.0011286397907115438,-1.0310337444280984E-4,383454.453749,7.74899805811E-12,1166.14284729,-2.94971227154,7.97580511898,1.98322787667
1920.0,-4484392.2007,-4699934.37043,-1871957.49172,2525859.94067,-5984369.22478,-1873696.31704,3935.40480158,3427.68582039,-5638.64975686,-3.26147565959,7.72716545688,2.42635228629,6768461.03083,1.16335641975,-0.10635982536494797,-0.20044883470304584,-0.03355725382723858,-1.1066144703140466,0.6987526095348556,0.93807532203184,-9.86778233993494E-5,-0.0011280253719096849,-1.0630528902149378E-4,383937.059453,7.63513989986E-12,1163.72733608,-3.26147565959,7.72716545688,2.42635228629
1980.0,-4212504.68123,-4805547.99244,-2205460.64448,2755933.32979,-5764964.68228,-2207387.04021,3730.74395847,3882.95168185,-5480.05811812,-3.55787363663,7.44246392042,2.85794140337,6767875.92218,1.16773168884,-0.11493692905192707,-0.20026008446713134,-0.032009592372876955,-1.066676039968099,0.6615075241457522,1.0112247542172077,-1.041424178644358E-4,-0.001127367606838326,-1.0948839728548656E-4,384513.758047,7.49672439527E-12,1160.64660858,-3.55787363663,7.44246392042,2.85794140337
2040.0,-3921965.13678,-4891388.88398,-2528688.22996,2973203.39991,-5518777.67252,-2530793.24658,3508.79500926,4320.08802216,-5295.96824751,-3.83752231333,7.12309445496,3.27596004946,6767217.53898,1.17210695793,-0.12380531199807375,-0.20003998570231532,-0.03007338985512135,-1.031743419567272,0.6220166289571568,1.0802701616768746,-1.0973647908052968E-4,-0.0011266647916808707,-1.1265157850058144E-4,385174.238431,7.33647196618E-12,1156.91960146,-3.83752231333,7.12309445496,3.27596004946
2100.0,-3613947.66288,-4957222.9223,-2840136.79708,3176663.8048,-5246957.45776,-2842410.65739,3270.6022565,4737.06073173,-5087.25359188,-4.09912531038,6.7706159194,3.67844751661,6766498.29327,1.17648222702,-0.13294889832122309,-0.19978319776740922,-0.027734293351348346,-1.001534669187939,0.5806090365819053,1.1455820709885467,-1.1545815566030545E-4,-0.0011259152196903162,-1.1579369982469911E-4,385906.862876,7.15739207376E-12,1152.57021018,-4.09912531038,6.7706159194,3.67844751661
2160.0,-3289705.33023,-5002898.63941,-3138358.7357,3365373.13462,-4950772.44654,-3140790.88085,3017.28500979,5131.93392482,-4854.90276204,-4.3414796927,6.38674180283,4.06352725839,6765731.73781,1.1808574961,-0.14235024310172317,-0.19948405510374956,-0.024979374640032807,-0.9757540496178233,0.5375801051466138,1.207550804144351,-1.2130552721990702E-4,-0.0011251171844163643,-1.1891361683619878E-4,386698.885439,6.96268620635E-12,1147.62746274,-4.3414796927,6.38674180283,4.06352725839
2220.0,-2950564.88459,-5028347.11275,-3421969.02595,3538459.24499,-4631604.02836,-3424548.16509,2750.03182174,5502.87889037,-4600.01421422,-4.56348107576,5.97332922168,4.42941569858,6764932.30172,1.18523276519,-0.1519905985482161,-0.19913662603184984,-0.021797203089537195,-0.9541112435902543,0.49319374248582964,1.2665679767308224,-1.2727660377523836E-4,-0.0011242689830093322,-1.2201017411943619E-4,387536.689238,6.75565313597E-12,1142.12568735,-4.56348107576,5.97332922168,4.42941569858
2280.0,-2597921.12062,-5033581.49831,-3689651.6534,3695123.23145,-4290939.89157,-3692365.81664,2470.09444253,5848.18236562,-4323.79043062,-4.76412790449,5.5323673764,4.77443011874,6764115.01016,1.18960803428,-0.1618499858849573,-0.1987347806516898,-0.018177909848005307,-0.9363337861255657,0.447685674124448,1.3230148424526083,-1.3336932523215288E-4,-0.0011233689195816548,-1.2508220590879007E-4,388406.037847,6.53960082672E-12,1136.10466516,-4.76412790449,5.5323673764,4.77443011874
2340.0,-2233230.96049,-5018696.21776,-3940165.66167,3834643.03402,-3930366.86583,-3943002.25615,2178.78154198,6166.25410529,-4027.53165462,-4.94252492507,5.06596564274,5.09699561158,6763295.19412,1.19398330337,-0.1719072729540411,-0.19827226704902648,-0.014113242655636895,-0.9221744604109244,0.40126711643307844,1.3772557294587864,-1.3958156097926806E-4,-0.0011224153086269852,-1.281285367885392E-4,389292.335909,6.31776825272E-12,1129.6097483,-4.94252492507,5.06596564274,5.09699561158
2400.0,-1858007.26867,-4983865.81234,-4172350.81746,3956376.65935,-3551563.33196,-4175296.68625,1877.4522467,6455.63372941,-3712.62923669,-5.09788588743,4.57634146089,5.39565111134,6762488.19648,1.19835857246,-0.18214025754056076,-0.19774279493506258,-0.009596610669106158,-0.9114151695322789,0.3541285058206979,1.429635057966129,-1.4591110958584903E-4,-0.0011214064784916555,-1.3114798245068433E-4,390180.893974,6.09325904171E-12,1122.69190619,-5.09788588743,4.57634146089,5.39565111134
2460.0,-1473812.43427,-4929343.47836,-4385132.86641,4059765.01056,-3156291.24284,-4388174.34984,1567.50953685,6714.99684211,-3380.55864534,-5.22953553111,4.06580816997,5.66905453441,6761709.08029,1.20273384154,-0.19252575644217065,-0.19714012558326302,-0.004623118783496415,-0.903868466784282,0.30644308619958666,1.480476753222843,-1.5235569861540732E-4,-0.001120340774901986,-1.3413935050896977E-4,391057.19264,5.86898741157E-12,1115.40763646,-5.22953553111,4.06580816997,5.66905453441
2520.0,-1082251.75177,-4855459.30008,-4577528.36101,4144334.31784,-2746387.79898,-4580651.36027,1250.39354369,6943.16042219,-3032.87219505,-5.33691091814,3.53676291395,5.91598708188,6760972.34524,1.20710911063,-0.20303970028968307,-0.1964581668380979,8.104089539195111E-4,-0.8993776135872983,0.2583702589772763,1.5300851770536246,-1.5891298455710944E-4,-0.0011192165645090497,-1.371014413692791E-4,391907.141158,5.64763543776E-12,1107.81864262,-5.33691091814,3.53676291395,5.91598708188
2580.0,-684966.630535,-4762618.1965,-4748649.04538,4209698.16476,-2323756.82243,-4751839.08803,927.574784931,7139.08749259,-2671.19153962,-5.41956218432,2.99167472101,6.13535677039,6760291.65772,1.21148437972,-0.21365723411101975,-0.19569107177152384,0.006705417115082229,-0.897815772155687,0.21005866419448824,1.5787469568373063,-1.6558055288372193E-4,-0.0011180322384997578,-1.4003304915570687E-4,392717.325911,5.43161945742E-12,1099.9911435,-5.41956218432,2.99167472101,6.13535677039
2640.0,-283627.662581,-4651297.59933,-4897705.78392,4255559.10773,-1890359.87173,-4900948.09097,600.547370705,7301.89108201,-2297.19997488,-5.47715278332,2.43307283242,6.32620126749,6759679.59954,1.21585964881,-0.22435282358563502,-0.1948333394932017,0.013061617983138245,-0.8990847371146748,0.16164899953469095,1.626733284875172,-1.7235591823818686E-4,-0.0011167862162062012,-1.4293296269073544E-4,393475.244452,5.22306265457E-12,1091.99465529,-5.47715278332,2.43307283242,6.32620126749
2700.0,120072.422884,-4522044.87938,-5024012.02379,4281709.8876,-1448207.14008,-5027291.57806,270.822208113,7430.83749492,-1912.63459013,-5.50945929809,1.86353533041,6.4876901132,6759147.43973,1.2202349179,-0.23510036687299699,-0.19387991652620065,0.019877001946887945,-0.9031134595906,0.11327660431477467,1.6743023995580029,-1.7923652475755513E-4,-0.0011154769487586248,-1.4579996652864453E-4,394169.521109,5.02377096473E-12,1083.90010451,-5.50945929809,1.86353533041,6.4876901132
2760.0,524425.8906,-4375474.53858,-5126986.78301,4288034.23417,-999348.177576,-5130288.39854,-60.0797716254,7525.34890886,-1519.27830264,-5.51637088997,1.28567808891,6.61912641021,6758704.93323,1.22461018698,-0.24587331184111744,-0.19282629706045595,0.027147859017344247,-0.9098565077188095,0.06507384455269838,1.721702052912573,-1.8621974653759292E-4,-0.0011141029227349098,-1.4863284204005874E-4,394790.100598,4.83521078702E-12,1075.77722557,-5.51637088997,1.28567808891,6.61912641021
2820.0,927717.189549,-4212265.18466,-5206157.15833,4274507.26542,-545862.477236,-5209465.55039,-390.634343729,7585.00531864,-1118.95180469,-5.49788844861,0.702144047292,6.71994806155,6758360.14969,1.22898545607,-0.2566447784088964,-0.19166862041544488,0.03486881111991564,-0.9192925275442585,0.017172336940513146,1.7691718269904175,-1.9330288823579314E-4,-0.0011126626638275124,-1.5143036854850606E-4,395328.416474,4.65848971112E-12,1067.69139603,-5.49788844861,0.702144047292,6.71994806155
2880.0,1328230.17673,-4033156.30486,-5261160.34811,4241195.48466,-89849.9635806,-5264460.2036,-719.320661806,7609.54584608,-713.505448102,-5.4541234968,0.115592786701,6.78972862707,6758119.33483,1.23336072516,-0.2673876856183089,-0.19040376402085735,0.04303285465200853,-0.9314227081911822,-0.030294953636919652,1.816945192747227,-2.0048318583705128E-4,-0.0011111547404999264,-1.5419132451287827E-4,395777.53175,4.4943449065E-12,1059.70034071,-5.4541234968,0.115592786701,6.78972862707
2940.0,1724255.3495,-3838944.85477,-5291745.1873,4188256.37945,366578.578822,-5295021.2352,-1044.62785782,7598.86943258,-304.811087275,-5.38529689209,-0.471309628361,6.82817785976,6757986.80606,1.23773599425,-0.2780748829442513,-0.18902943022578225,0.05163141263423322,-0.946269207214828,-0.07719171505381392,1.865251215555906,-2.0775780755163728E-4,-0.001109577767634423,-1.5691448875753918E-4,396132.249464,4.34314629914E-12,1051.85138335,-5.38529689209,-0.471309628361,6.82817785976
3000.0,2114097.06228,-3630481.67736,-5297773.19253,4115937.62691,821311.100206,-5301010.27409,-1365.06155882,7553.03492885,105.246101563,-5.29173735508,-1.05590059305,6.8351419696,6757964.88361,1.24211126334,-0.28867928522070985,-0.18754422538481189,0.06065439564019718,-0.9638734503261324,-0.1233763692007358,1.9143158069078419,-2.151238548850824E-4,-0.0011079304101605893,-1.5959864174624027E-4,396389.191509,4.20492103158E-12,1044.17997208,-5.29173735508,-1.05590059305,6.8351419696
3060.0,2496080.70349,-3408667.76707,-5279219.11627,4024575.91087,1272243.86805,-5282402.25466,-1679.15031067,7472.26059322,514.775809661,-5.17387984048,-1.63553074759,6.81060364809,6758053.85763,1.24648653242,-0.2991740104345052,-0.18594772966772136,0.07009027055043479,-0.9842941802218284,-0.16870022848843533,1.964362403626982,-2.2257836386165505E-4,-0.0011062113866559433,-1.6224256689635383E-4,396546.84453,4.07940099037E-12,1036.70993329,-5.17387984048,-1.63553074759,6.81060364809
3120.0,2868559.80925,-3174450.39287,-5236171.01007,3914595.35654,1717291.00187,-5239285.47917,-1985.45189933,7356.92300584,921.890779811,-5.03226375422,-2.20757366626,6.75468187116,6758251.9911,1.25086180151,-0.30953251954187294,-0.18424055625754607,0.07992613607751649,-1.0076050900506237,-0.2130057396062373,2.0156119291758845,-2.3011830640142555E-4,-0.0011044194729046598,-1.6484505193272467E-4,396605.572217,3.96608808304E-12,1029.45538572,-5.03226375422,-2.20757366626,6.75468187116
3180.0,3229923.0899,-2928819.09387,-5168829.79753,3786505.5892,2154393.92546,-5171861.18955,-2282.55956045,7207.55540312,1324.71497204,-4.86753100747,-2.76943550985,6.66763148248,6758555.55802,1.2552370706,-0.3197287573008271,-0.18242439867343918,0.09014780391338696,-1.0338918377936421,-0.25612484844454014,2.0682818589446375,-2.3774059186139178E-4,-0.0011025535054126636,-1.6740489027642873E-4,396567.593867,3.8643262615E-12,1022.42372967,-4.86753100747,-2.76943550985,6.66763148248
3240.0,3578601.3454,-2672801.56057,-5077508.35848,3640899.42405,2581530.70179,-5080442.65016,-2569.10806677,7024.84543256,1721.39169739,-4.68042388695,-3.31856469633,6.54984254386,6758958.91572,1.25961233969,-0.32973729306337946,-0.18050206518332843,0.10073988430355656,-1.063248201595551,-0.2978775477276309,2.1225841762783184,-2.4544206874066606E-4,-0.001100612384861636,-1.6992088246599454E-4,396436.929599,3.77336814755E-12,1015.61888517,-4.68042388695,-3.31856469633,6.54984254386
3300.0,3913074.24535,-2407459.41457,-4962630.12677,3478450.19457,2996725.21581,-4965453.74386,-2843.77968151,6809.63232575,2110.09170517,-4.47178271172,-3.85246163536,6.40183942612,6759454.6098,1.26398760878,-0.33953346037744564,-0.17847749942498117,0.11168587482990591,-1.0957711091680804,-0.3380707029507688,2.178721980342326,-2.5321952654972255E-4,-0.0010985950795001894,-1.7239183760707388E-4,396219.313144,3.69242757806E-12,1009.04406203,-4.47178271172,-3.85246163536,6.40183942612
3360.0,4231876.94866,-2133883.89933,-4824727.20494,3299908.72822,3398056.17003,-4827427.08461,-3105.30996383,6562.90348445,2489.02120679,-4.2425432384,-4.3686885599,6.22427960095,6760033.5097,1.26836287786,-0.34909349412783613,-0.17635578660890466,0.12296825118944911,-1.1315542682336077,-0.3764972921203478,2.236884498425165,-2.6106969783323396E-4,-0.0010965006284530123,-1.7481657484933933E-4,395922.073655,3.62071486189E-12,1002.70366674,-4.2425432384,-4.3686885599,6.22427960095
3420.0,4533606.53744,-1853191.49482,-4664438.00001,3106099.97858,3783665.85747,-4667001.65104,-3352.49340999,6285.79047334,2856.42981708,-3.99373377172,-4.86487947379,6.01795208473,6760684.97265,1.27273814695,-0.3583946640015843,-0.17414314483812549,0.13456855881172766,-1.1706801573104484,-0.41293623878348373,2.297240285786613,-2.689892603604598E-4,-0.0010943281449497277,-1.7719392488031147E-4,395553.988501,3.55745618508E-12,996.604282648,-3.99373377172,-4.86487947379,6.01795208473
3480.0,4816928.23911,-1566519.46865,-4482504.38622,2897919.32437,4151768.67623,-4484919.94661,-3584.18891115,5979.56441239,3210.61839027,-3.72647193355,-5.33875021685,5.78377547725,6761397.03334,1.27711341604,-0.36741540294417935,-0.1718469013811365,0.14646750422749485,-1.2132102299197862,-0.4471530605784008,2.3599284881380598,-2.769748394709688E-4,-0.0010920768194542687,-1.7952273144571538E-4,395125.10952,3.50190107621E-12,990.754876001,-3.72647193355,-5.33875021685,5.78377547725
3540.0,5080581.40992,-1275021.37713,-4279768.40161,2676328.54717,4500659.34944,-4282024.69332,-3799.32500584,5645.63076216,3549.94672464,-3.44196104293,-5.78810863126,5.52279553319,6762156.6164,1.28148868513,-0.37613542936577504,-0.16947545390900678,0.1586450452167171,-1.2591733674192718,-0.47890158828077123,2.4250482207380517,-2.850230105826771E-4,-0.0010897459226825526,-1.8180185286983676E-4,394646.565661,3.45332233917E-12,985.166463221,-3.44196104293,-5.78810863126,5.52279553319
3600.0,5323385.25263,-979862.529542,-4057168.48722,2442351.50061,4828720.81396,-4059255.06796,-3996.9049024,5285.52349688,3872.84110583,-3.14148606091,-6.21086479377,5.23618220226,6762949.76835,1.28586395422,-0.38453586181804844,-0.1670382169717187,0.17108047889551567,-1.308552909070398,-0.5079270188924672,2.49264640995748,-2.931303018430035E-4,-0.0010873348085154357,-1.840301636020583E-4,394130.345441,3.41101220382E-12,979.851465971,-3.14148606091,-6.21086479377,5.23618220226
3660.0,5544244.24084,-682215.430016,-3815735.2797,2197069.48595,5134431.74097,-3817642.49125,-4176.01124408,4900.89866294,4177.80165503,-2.82640905795,-6.60504125949,4.92522607412,6763761.90568,1.2902392233,-0.39259932496710137,-0.1645455542039944,0.1837525270634653,-1.361272998565128,-0.5339705323603184,2.562704851139583,-3.012931969388493E-4,-0.0010848429167737866,-1.8620655574576808E-4,393589.063015,3.37427740928E-12,974.822930333,-2.82640905795,-6.60504125949,4.92522607412
3720.0,5742153.22188,-383255.211684,-3556586.96999,1941616.35005,5416373.6518,-3558305.9831,-4335.81058678,4493.52732425,4463.40944449,-2.49816416763,-6.96878324402,4.5913341682,6764578.07491,1.29461449239,-0.4003100457523754,-0.16200869697357984,0.19663941830527845,-1.4171854847294627,-0.5567756048474055,2.635127733597313,-3.0950813804795014E-4,-0.0010822697758696412,-1.8832994061693855E-4,393035.712049,3.34243494669E-12,970.093727881,-2.49816416763,-6.96878324402,4.5913341682
3780.0,5916202.17067,-84155.0786302,-3280924.24326,1677173.32424,5673237.59207,-3282447.09871,-4475.557558,4065.28790066,4728.33333938,-2.15825199896,-7.30036865364,4.23602501494,6765383.22097,1.29898976148,-0.40765393870183647,-0.159439650384967,0.20971896651927718,-1.4760591153330884,-0.5760959771122989,2.7097313826850087,-3.177715289350904E-4,-0.001079615005305515,-1.903992502677991E-4,392483.411882,3.31480942985E-12,965.675807426,-2.15825199896,-7.30036865364,4.23602501494
3840.0,6065580.56667,213918.228134,-2990024.81789,1404963.62396,5903830.32835,-2991344.46363,-4594.59866381,3618.15791178,4971.33652219,-1.80823348967,-7.59821785688,3.86092298449,6766162.45918,1.30336503057,-0.41461867952029213,-0.15685108774317352,0.22296864573389827,-1.5375731182116994,-0.5917049844301205,2.7862383228864096,-3.2607973817398044E-4,-0.0010768783180201244,-1.9241343902272565E-4,391945.150684,3.29073253182E-12,961.579530629,-1.80823348967,-7.59821785688,3.86092298449
3900.0,6189581.36744,509808.923746,-2685237.60383,1126246.83135,6107080.03196,-2686347.92794,-4692.37571,3154.20514528,5191.28265341,-1.44972319525,-7.86090307814,3.4677518311,6766901.34662,1.30774029966,-0.42119376617417004,-0.1542562347541143,0.2363656612754136,-1.601317280466549,-0.603405651318629,2.8642777812548754,-3.344291024982894E-4,-0.0010740595225840117,-1.943714849931864E-4,391433.530492,3.26954457644E-12,957.81310194,-1.44972319525,-7.86090307814,3.4677518311
3960.0,6287604.55257,802376.614033,-2367976.5036,842313.085079,6282041.41636,-2368872.36289,-4768.42880393,2675.57827605,5387.1416209,-1.08438202196,-8.08715728283,3.05832743635,6767586.148,1.31211556874,-0.42737056684269387,-0.1516687448838325,0.24988701745877975,-1.6668001396873284,-0.6110406593683949,2.9433942519534715,-3.4281593028881246E-4,-0.0010711585252049282,-1.9627239157348926E-4,390960.519028,3.25059814138E-12,954.382090145,-1.08438202196,-8.08715728283,3.05832743635
4020.0,6359160.21381,1090500.65337,-2039713.882,554477.103405,6427900.29592,-2040391.12618,-4822.39890413,2184.49697101,5557.99482975,-0.713909427004,-8.27588241731,2.63454975104,6768204.09137,1.31649083783,-0.43314235428341613,-0.14910256742958514,0.26350958221892556,-1.733465830749754,-0.6145010952955251,3.0230646721448524,-3.5123650515139613E-4,-0.0010681753315796283,-1.9811518891209418E-4,390537.213175,3.23326336629E-12,951.289032086,-0.713909427004,-8.27588241731,2.63454975104
4080.0,6403871.16869,1373084.40727,-1701973.73357,264072.068623,6543977.53675,-1702429.22479,-4854.02988689,1683.2415223,5703.03998508,-0.340035124366,-8.42615686372,2.19839395454,6768743.60878,1.32086610692,-0.43850432627002384,-0.14657180995927455,0.27721014912230046,-1.8007186307054677,-0.6137328659673955,3.102723256665164,-3.59687089615291E-4,-0.001065110048537971,-1.9989893535849105E-4,390173.618837,3.21693453393E-12,948.533106192,-0.340035124366,-8.42615686372,2.19839395454
4140.0,6421475.07726,1649059.40086,-1356324.57951,-27556.5972891,6629732.37252,-1356556.20717,-4863.17010168,1174.14206023,5821.59532176,0.0354896495663,-8.53724197213,1.75190086984,6769194.55721,1.32524137601,-0.4434536119627903,-0.14409059685495612,0.29096549740620065,-1.8679526764543422,-0.6087398790714814,-3.101393836162514,-3.6816392891877064E-4,-0.0010619628855177204,-2.0162271887342603E-4,389878.451629,3.20103739016E-12,946.109862508,0.0354896495663,-8.53724197213,1.75190086984
4200.0,6411826.04444,1917389.33435,-1004372.12865,-319057.534385,6684765.06194,-1004378.81941,-4849.77339098,659.567405324,5913.10323819,0.410901241249,-8.60858753865,1.29716669327,6769548.41522,1.3296166451,-0.44798926422214497,-0.14167292574659165,0.30475245066022927,-1.9345831745895201,-0.5995835144272023,-3.023475841243174,-3.766632548872534E-4,-0.0010587341558194402,-2.0328565840771134E-4,389658.962485,3.18503658625E-12,944.01099569,0.410901241249,-8.60858753865,1.29716669327
4260.0,6374895.69313,2177073.94679,-647751.739246,-609079.791082,6708818.86827,-647533.462159,-4813.89955477,141.913626192,5977.13329519,0.784432972776,-8.63983611041,0.836332117481,6769798.45102,1.33399191418,-0.45211223801895073,-0.13933252365817286,0.31854793487245686,-2.000075078947732,-0.5863784583283103,-2.9472203548857117,-3.851812898864729E-4,-0.001055424277681615,-2.0488690522867575E-4,389520.791784,3.16844256663E-12,942.224146924,0.784432972776,-8.63983611041,0.836332117481
4320.0,6310773.69706,2427152.70969,-288120.72081,-896279.18133,6701781.34516,-287678.487574,-4755.71424512,-376.407622941,6013.38454649,1.15432472654,-8.63082601441,0.371570945498,6769939.85815,1.33836718327,-0.455825355311498,-0.1370827046811823,0.3323290365488851,-2.0639658014251907,-0.5692855014347509,-2.8730692224095415,-3.937142508332451E-4,-0.001052033775123645,-2.0642564420996265E-4,389467.855035,3.15081718918E-12,940.732719351,1.15432472654,-8.63082601441,0.371570945498
4380.0,6219667.76572,2666708.33312,72849.4831262,-1179324.61812,6663684.91822,73513.6228466,-4675.48828261,-892.980906149,6021.68717357,1.51883261615,-8.58159302896,-0.0949216897253,6769969.85548,1.34274245236,-0.4591332568325293,-0.13493623097290647,0.3460730615310427,-2.1258798363182847,-0.5485022770259075,-2.8013790699426897,-4.0225835327430224E-4,-0.0010485632785985982,-2.079010950602421E-4,389502.262506,3.13183251651E-12,939.519653733,1.51883261615,-8.58159302896,-0.0949216897253
4440.0,6101903.0777,2894870.06739,433481.188985,-1456904.38861,6594706.75614,434364.157125,-4573.59639272,-1405.39886776,6002.00340508,1.87623863099,-8.49237064104,-0.560941371492,6769887.74886,1.34711772145,-0.46204234145301065,-0.13290517882789762,0.35975759515748507,-2.1855347745012894,-0.5242530660070965,-2.7324151596585513,-4.10809815503525E-4,-0.0010450135254155813,-2.093125135135251E-4,389624.274472,3.1114567704E-12,938.580646429,1.87623863099,-8.49237064104,-0.560941371492
4500.0,5957921.16296,3110816.78514,792098.400543,-1727732.33605,6495167.93045,793196.105046,-4450.51536718,-1911.27406659,5954.42770897,2.22486013834,-8.36358886157,-1.02428657229,6769694.95253,1.35149299054,-0.46456069390106586,-0.13100081149129325,0.37336056423170877,-2.2427395955518805,-0.4967787204239184,-2.6663529852860783,-4.1936486270709926E-4,-0.0010413853599544143,-2.1065919243046667E-4,389832.292978,3.08977416464E-12,937.911443268,2.22486013834,-8.36358886157,-1.02428657229
4560.0,5788278.23826,3313779.82975,1147034.72601,-1990553.91456,6365531.86833,1148342.08001,-4306.82166244,-2408.25069575,5879.18625399,2.56305912697,-8.19587160084,-1.48277080816,6769394.96941,1.35586825962,-0.46669800173666376,-0.12923346029264382,0.38686030120489007,-2.297387047312007,-0.46632752279771933,-2.603285797655357,-4.2791973113659817E-4,-0.0010376797336429419,-2.1194046287348835E-4,390122.890269,3.06691677924E-12,937.503277292,2.56305912697,-8.19587160084,-1.48277080816
4620.0,5593643.00462,3503045.61808,1496641.24108,-2244152.08326,6206402.1077,1498152.18677,-4143.18845406,-2894.01610261,5776.63564628,2.88925108058,-7.99003263749,-1.93423462777,6768993.3299,1.36024352871,-0.46846546262402067,-0.12761241555218797,0.40023561080382863,-2.3494422670393,-0.43314749426759125,-2.5432359047969415,-4.364706722820648E-4,-0.001033897704740612,-2.1315569508067217E-4,390490.87321,3.04305904671E-12,937.342965352,2.88925108058,-7.99003263749,-1.93423462777
4680.0,5374793.91901,3677957.98703,1839294.25492,-2487353.00801,6018519.36923,1841001.79197,-3960.3821724,-3366.31202619,5647.26095507,3.20191337726,-7.74707024519,-2.37655729305,6768497.49034,1.3646187978,-0.46987568302396393,-0.12614582857433188,0.4134658392088182,-2.3989296722739657,-0.39748037040494455,-2.486167718173293,-4.450139570538207E-4,-0.0010300404378672371,-2.1430429939078496E-4,390929.38231,3.01840332367E-12,937.412511049,3.20191337726,-7.74707024519,-2.37655729305
4740.0,5132615.95659,3837920.27599,2173402.93703,-2719031.54052,5802757.96458,2175299.15541,-3759.25855091,-3822.94547415,5491.67305024,3.49959312301,-7.46816056995,-2.80766801658,6767916.69272,1.36899406689,-0.47094256954893116,-0.12484062587815555,0.42653094568195865,-2.4459197372644463,-0.3595572304029157,-2.4320009287976223,-4.535458799363496E-4,-0.001026109203341515,-2.1538572708801795E-4,391430.02319,2.9931382582E-12,937.686795165,3.49959312301,-7.46816056995,-2.80766801658
4800.0,4868096.88309,3982397.13896,2497416.76467,-2938116.44658,5560121.56457,2499492.88166,-3540.7582234,-4261.79916786,5310.605282,3.78091434228,-7.15464987665,-3.22555663442,6767261.78852,1.37336933598,-0.47168121424247855,-0.12370243664529748,0.43941157644170764,-2.4905167595009026,-0.3195956115339864,-2.380622708795783,-4.620627631194919E-4,-0.0010221053762752015,-2.1639947116644065E-4,391983.02774,2.96738787506E-12,938.1305537,3.78091434228,-7.15464987665,-3.22555663442
4860.0,4582323.05997,4110916.08255,2809832.75236,-3143595.35766,5291738.35526,2812079.15371,-3305.90191062,-4680.84149177,5104.90953976,4.044584466,-6.80804580417,-3.62828361021,6766545.03017,1.37774460506,-0.47210777514290964,-0.1227355341660782,0.45208914036828174,-2.5328482413240305,-0.2777978617092688,-2.331898313949867,-4.7056096058600556E-4,-0.0010180304354561018,-2.1734506702289686E-4,392577.441591,2.94233584253E-12,938.78410659,4.044584466,-6.80804580417,-3.62828361021
4920.0,4276474.80756,4223068.72841,3109202.42764,-3334519.4224,4998855.61332,3111608.71246,-3055.78523973,-5078.13589217,4875.551733,4.28940007702,-6.43000778447,-4.01398928747,6765779.83466,1.38211987415,-0.4722393534784183,-0.12194279187500547,0.4645458860163104,-2.5730561334511286,-0.23435046099048445,-2.285679841341507,-4.7903686215025804E-4,-0.0010138859620285995,-2.1822209305914317E-4,393201.334071,2.91952387376E-12,939.714102226,4.28940007702,-6.43000778447,-4.01398928747
4980.0,3951821.35365,4318511.80037,3394138.5197,-3510007.63745,4682833.73519,3396693.54898,-2791.5732419,-5451.84968018,4623.60674113,4.51425189307,-6.02233678978,-4.38090233,6764980.52429,1.38649514324,-0.4720938688376499,-0.12132565435003423,0.4767649792331179,-2.611289926526582,-0.1894240582104637,-2.2418131571920035,-4.874868974340865E-4,-0.0010096736379385696,-2.1903017121068357E-4,393842.026415,2.90029327884E-12,940.972651035,4.51425189307,-6.02233678978,-4.38090233
5040.0,3609715.39654,4396967.83896,3663321.33054,-3669250.8396,4345139.75675,3666013.27903,-2514.49457377,-5800.26220352,4350.25288209,4.71812898743,-5.58696457533,-4.72734731518,6764162.05011,1.39087041233,-0.47168993367529277,-0.12088412344854395,0.48873058061992625,-2.647701423005544,-0.14317400397400912,-2.2001431649641314,-4.959075397501551E-4,-0.0010053952441915392,-2.197689673778661E-4,394486.333733,2.88590502928E-12,942.606597377,4.71812898743,-5.58696457533,-4.72734731518
5100.0,3251587.3127,4458225.6477,3915504.76137,-3811515.34407,3987340.40238,3918321.17261,-2225.83550819,-6121.77236185,4056.76595131,4.90012226687,-5.1259425805,-5.05175146942,6763339.70404,1.39524568142,-0.4710467283796639,-0.12061675953762095,0.5004279219493513,-2.6824409484630087,-0.09574120335089398,-2.160517657216539,-5.042953099207358E-4,-0.001001052658896174,-2.20438191783675E-4,395120.816048,2.87758102369E-12,944.660697673,4.90012226687,-5.1259425805,-5.05175146942
5160.0,2878939.04007,4502140.477,4149521.97002,-3936146.21642,3611094.70316,4152449.81408,-1926.93373761,-6414.90544979,3744.51288181,5.05942724323,-4.64143064117,-5.35265055876,6762528.82574,1.3996209505,-0.4701838781571843,-0.12052069757883839,0.5118433805844965,-2.7156547433214153,-0.047253152982093885,-2.1227900140573,-5.126467799760606E-4,-9.966478551157773E-4,-2.2103759923203966E-4,395732.03366,2.87653163594E-12,947.179485954,5.05942724323,-4.64143064117,-5.35265055876
5220.0,2493337.66798,4528633.95311,4364290.63809,-4042570.16811,3218146.22484,4367316.37199,-1619.17203116,-6678.31932045,3414.94507552,5.19534614983,-4.13568565008,-5.62869396885,6761744.51042,1.40399621959,-0.4691213327722123,-0.12059167762753589,0.5229645509397146,-2.747483289882748,0.002174936343811271,-2.0868209983546784,-5.209585767479548E-4,-9.921828985295495E-4,-2.2156698929109409E-4,396306.802095,2.88397934173E-12,950.208534477,5.19534614983,-4.13568565008,-5.62869396885
5280.0,2096408.76487,4537693.76055,4558817.82961,-4130298.06792,2810314.94642,4561927.45991,-1303.97178289,-6910.80987001,3069.59145279,5.30728946443,-3.61105028099,-5.87864902683,6761001.32363,1.40837148868,-0.46787925017197907,-0.12082408912945045,0.5337803119707432,-2.778060360844842,0.05243900073589147,-2.052479867948193,-5.292273853552594E-4,-9.876599449088412E-4,-2.2202620636997146E-4,396832.442015,2.90117883486E-12,953.795123021,5.30728946443,-3.61105028099,-5.87864902683
5340.0,1689829.47431,4529373.08722,4732204.42557,-4198927.06404,2389488.82988,4735383.57302,-982.786484678,-7111.31585002,2710.05126376,5.39477690811,-3.0699418685,-6.10140463142,6760313.02859,1.41274675777,-0.46647788480820623,-0.12121102822441358,0.5442808897290513,-2.8075126125698526,0.10344501368406549,-2.019644990528113,-5.374499525321739E-4,-9.83081237418875E-4,-2.2241513971705875E-4,397297.019634,2.92942990467E-12,957.988029075,5.39477690811,-3.0699418685,-6.10140463142
5400.0,1275321.40933,4503789.84207,4883649.12138,-4248142.3128,1957615.12103,4886883.08715,-657.095153145,-7278.92301884,2337.9867007,5.45743799236,-2.51484150907,-6.29597426745,6759692.33151,1.41712202686,-0.46493748135877155,-0.12174436712580723,0.5544579140309348,-2.835959583112034,0.15510793439577564,-1.988204112625602,-5.456230898396623E-4,-9.784491037581505E-4,-2.2273372334145701E-4,397689.573465,2.97007617681E-12,962.835947511,5.45743799236,-2.51484150907,-6.29597426745
5460.0,854643.374145,4461125.65534,5012451.97609,-4277718.31247,1516691.42075,5015725.80946,-328.395735496,-7412.86764681,1955.115346,5.4950121857,-1.94828342182,-6.46149848521,6759150.64947,1.42149729594,-0.463278174392221,-0.12241483450711285,0.564304468373933,-2.8635139889411674,0.20735072981749675,-1.9580544039440826,-5.537436767093071E-4,-9.73765953137279E-4,-2.2298193581924962E-4,398000.32347,3.02448047696E-12,968.383960181,5.4950121857,-1.94828342182,-6.46149848521
5520.0,429583.941631,4401624.67159,5118017.50482,-4287519.84117,1068756.5649,5121316.07194,1.80148491094,-7512.5393913,1563.20248545,5.50734876693,-1.37284458192,-6.59724692524,6758697.90507,1.42587256503,-0.46151989434688195,-0.12321210573072137,0.5738151322872422,-2.8902822444049017,0.2601034773913363,-1.9291023736706967,-5.618086633423015E-4,-9.690342731042305E-4,-2.2315980003693902E-4,398220.8591,3.09396750969E-12,974.667634206,5.50734876693,-1.37284458192,-6.59724692524
5580.0,1953.91379405,4325592.14536,5199857.30674,-4277502.49959,615881.350274,5203165.3601,331.980466288,-7577.4835576,1164.05331168,5.49440642398,-0.791134615251,-6.70261996402,6758342.35107,1.43024783412,-0.45968228004448886,-0.12412490166114516,0.5829860154075255,-2.9163651530362222,0.3133025496686239,-1.9012637374647645,-5.698150734321626E-4,-9.642566262421698E-4,-2.2326738283889028E-4,398344.30306,3.17972920051E-12,981.704901937,5.49440642398,-0.791134615251,-6.70261996402
5640.0,-426421.307999,4233392.84925,5257592.22284,-4247712.85992,160159.142885,5260894.47131,660.62595568,-7607.4027607,759.505038604,5.45625264668,-0.205785922796,-6.77715004759,6758090.42784,1.43462310321,-0.4577845978116261,-0.12514109474874782,0.5918147827041551,-2.941858742902933,0.3668898780354359,-1.8744633007127105,-5.777600067216392E-4,-9.594356467363944E-4,-2.2330479459797999E-4,398365.448049,3.28269939082E-12,989.486919995,5.45625264668,-0.205785922796,-6.77715004759
5700.0,-853709.417132,4125449.30356,5290954.01863,-4198288.22309,-296303.595771,5294235.1976,986.229994539,-7602.15800017,351.41894381,5.39306294956,0.380556013541,-6.82050276756,6757946.65542,1.4389983723,-0.45584566713917346,-0.12624782103502727,0.6003006703215665,-2.9668552385291593,0.4208122904461889,-1.848634917896798,-5.856406413693779E-4,-9.545740368103718E-4,-2.2327218869199746E-4,398280.8642,3.40342114489E-12,997.970327587,5.39306294956,0.380556013541,-6.82050276756
5760.0,-1278078.93463,4002239.83616,5299786.58792,-4129455.98721,-751396.829573,5303031.52932,1307.29837316,-7561.76915738,-58.3276469629,5.30511994657,0.965242203209,-6.83247771958,6757913.56136,1.44337364138,-0.45388379266508,-0.12743159671024107,0.6084444917315442,-2.9914441826359117,0.47502091658750567,-1.823721588343893,-5.934542361472931E-4,-9.496745630867286E-4,-2.2316976091546882E-4,398088.97538,3.54194417029E-12,1007.07398249,5.30511994657,0.965242203209,-6.83247771958
5820.0,-1697706.95556,3864296.4807,5284046.67441,-4041532.63049,-1203016.48129,5287240.37637,1622.35702537,-7486.41492044,-467.849420922,5.19281228586,1.54562966369,-6.81300916802,6757991.64492,1.44774891047,-0.4519167022012132,-0.12867843786201716,0.6162486338795343,-3.0157137440559203,0.5294706531896174,-1.7996757558286829,-6.011981324284964E-4,-9.447400528138481E-4,-2.2299774880246928E-4,397790.102996,3.69779006878E-12,1016.68250269,5.19281228586,1.54562966369,-6.81300916802
5880.0,-2110786.8835,3712202.72089,5243804.10904,-3934922.31244,-1649073.94444,5246931.80472,1929.95835505,-7376.43213805,-875.261173609,5.05663343864,2.11909094914,-6.76216652353,6758179.37736,1.45212417956,-0.4499614903888943,-0.12997398208221667,0.6237170432813525,-3.039752276783894,0.5841196815999048,-1.7764598975175783,-6.088697560024393E-4,-9.397733900488355E-4,-2.2275643089358487E-4,397386.476461,3.87000249292E-12,1026.65664509,5.05663343864,2.11909094914,-6.76216652353
5940.0,-2515536.12775,3546591.08783,5179241.56094,-3810115.09781,-2087505.53926,5182288.78642,2228.68748505,-7232.31459973,-1278.68592712,4.8971803233,2.68302375526,-6.6801546236,6758473.23766,1.45649944865,-0.44803456753457144,-0.1313036106370146,0.6308552019882536,-3.0636502340267544,0.6389290294382209,-1.7540475187714826,-6.164666186683991E-4,-9.347775117322723E-4,-2.2244612590164494E-4,396882.209973,4.05726546499E-12,1036.8478014,4.8971803233,2.68302375526,-6.6801546236
6000.0,-2910203.73701,3368140.61714,5090653.80141,-3667684.80814,-2516281.87802,5093606.46222,2517.16841804,-7054.71123593,-1676.26305866,4.71515173465,3.23486065667,-6.56731379034,6758867.78245,1.46087471774,-0.44615161313868323,-0.13265256996729743,0.6376700936001366,-3.0875025991680287,0.6938621674869204,-1.7324247219960738,-6.239863196509405E-4,-9.297554037367906E-4,-2.2206719184778424E-4,396283.245777,4.25804607052E-12,1047.11237841,4.71515173465,3.23486065667,-6.56731379034
6060.0,-3293077.94296,3177574.17249,4978446.48034,-3508286.50667,-2933417.10482,4981290.91641,2794.07009619,-6844.42372893,-2066.15642487,4.51134653886,3.77207902133,-6.42411962564,6759355.74839,1.46524998683,-0.4443275335679334,-0.1340060913594323,0.644170159504903,-3.1114120846945714,0.7488846318637282,-1.7115926034012396,-6.31426546798957E-4,-9.247100968318728E-4,-2.2162002509802127E-4,395597.264617,4.47071377833E-12,1057.32242759,4.51134653886,3.77207902133,-6.42411962564
6120.0,-3662493.58625,2975655.64161,4843134.41616,-3332653.623,-3336977.97402,4845857.46486,3058.11234438,-6602.40352263,-2446.56246479,4.2866615871,4.29221113218,-6.25118249179,6759928.18489,1.46962525591,-0.442576423417192,-0.13534950770831755,0.6503652456878033,-3.1354934944724935,0.803963659520197,-1.6915708732101344,-6.387850775805084E-4,-9.196446626486494E-4,-2.2110505936667518E-4,394833.564619,4.69360690293E-12,1067.37095006,4.2866615871,4.29221113218,-6.25118249179
6180.0,-4016839.39643,2763187.01127,4685339.40096,-3141594.7252,-3725092.73091,4687928.45795,3308.07167858,-6329.74821852,-2815.71826067,4.04208929689,4.79285452831,-6.04924661638,6760574.615,1.474000525,-0.4409115300060077,-0.13666836639096705,0.6562665405383742,3.1233054199592467,0.8590678212321274,-1.6724033349353604,-6.460597798891633E-4,-9.145622095853569E-4,-2.2052276465171484E-4,394002.910373,4.9250424632E-12,1077.1724013,4.04208929689,4.79285452831,-6.04924661638
6240.00000001,-4354565.0965,2541005.32771,4505787.52409,-2935989.9479,-4095959.75742,4508230.60177,3542.78695771,-6027.69734472,-3171.90953211,3.77871484707,5.27168255998,-5.8191887534,6761283.22138,1.47837579409,-0.4393452206379763,-0.13794853736714258,0.6618865041558774,3.0984537082956525,0.9141666292565331,-1.6541662789867384,-6.532486126286839E-4,-9.094658787197767E-4,-2.1987364611076703E-4,393117.354521,5.16328439722E-12,1086.66006883,3.77871484707,5.27168255998,-5.8191887534
6300.00000001,-4674188.30167,2309979.54921,4305306.01917,-2716787.08666,-4447855.94483,4307591.80236,3761.16485433,-5697.62748582,-3513.47853477,3.49771293337,5.72645513144,-5.56201632883,6762041.05486,1.48275106318,-0.4378889521918694,-0.13917631573263173,0.667238789753632,3.0729353653666385,0.9692300836228298,-1.6369816046081451,-6.603496261057255E-4,-9.043588397112021E-4,-2.1915824291094424E-4,392190.034673,5.40649168459E-12,1095.78210065,3.49771293337,5.72645513144,-5.56201632883
6360.00000001,-4974301.18122,2071007.29822,4084819.64105,-2484997.37016,-4779144.75483,4086937.53969,3962.18511618,-5341.04676371,-3838.83183056,3.20034403373,6.15502958598,-5.27886499817,6762834.2621,1.48712633227,-0.43655324278795904,-0.14033851805932837,0.6723381578237233,3.0464864763406325,1.0242280957814827,-1.621037916441874,-6.67360962220077E-4,-8.992442867076411E-4,-2.1837712700711437E-4,391234.948959,5.65266546628E-12,1104.49747513,3.20034403373,6.15502958598,-5.27886499817
6420.00000001,-5253576.8514,1825011.52092,3845346.58163,-2241690.92378,-5088283.92982,3847286.78027,4144.9055878,-4959.58866253,-4146.44789185,2.88795013767,6.55537166774,-4.97099554549,6763648.32909,1.49150160135,-0.4353476452572678,-0.14142257196971836,0.6772003837916306,3.0187448809298036,1.0791296776873849,-1.6066256820030103,-6.742808544576803E-4,-8.941254342757089E-4,-2.1753090190795274E-4,390266.714001,5.89960815059E-12,1112.77259721,2.88795013767,6.55537166774,-4.97099554549
6480.00000001,-5510775.46698,1572937.06279,3587993.93565,-1987991.93986,-5373832.81294,3589747.43943,4308.4669588,-4555.00519569,-4434.88449818,2.56194990105,6.92556647625,-4.63979005841,6764468.33692,1.49587687044,-0.4342807223421857,-0.14241659850577404,0.6818421599444322,2.989188454376373,1.1339016772773973,-1.5941985050093292,-6.811076276881708E-4,-8.890055133549537E-4,-2.1662020138788938E-4,389300.309495,6.14490156748E-12,1120.5787401,2.56194990105,6.92556647625,-4.63979005841
6540.00000001,-5744749.97865,1315747.16977,3313952.73027,-1725073.5722,-5634459.23844,3315511.4072,4452.09720346,-4129.15941842,-4702.78588033,2.22383319697,7.2638293119,-4.28674732145,6765279.22601,1.50025213953,-0.43336002355863995,-0.1433094869622147,0.6862809924581241,2.957021806070642,1.1885065989782297,-1.5844860174835607,-6.878396977704344E-4,-8.838877672505824E-4,-2.156456881763665E-4,388350.813936,6.385906952E-12,1127.89028358,2.22383319697,7.2638293119,-4.28674732145
6600.00000001,-5954451.52345,1054419.92526,3024492.53504,-1454152.57434,-5868945.95343,3025849.15433,4575.11567472,-3684.01729563,-4948.8895633,1.87515504386,7.5685162955,-3.91347738027,6766066.06474,1.50462740862,-0.432592063773924,-0.14409096196596738,0.690535094377522,2.920952917147887,1.2428984507705318,-1.578716865809404,-6.944755709766483E-4,-8.787754476733067E-4,-2.1460805262091644E-4,387433.136328,6.61978686601E-12,1134.68358637,1.87515504386,7.5685162955,-3.91347738027
6660.00000001,-6138934.41611,789944.634524,2720955.6717,-1176483.70347,-6076196.53274,2722103.938,4676.93681507,-3221.63894268,-5172.03285739,1.51752890513,7.83813463139,-3.52169524245,6766814.3184,1.50900267771,-0.4319823036642457,-0.14475164268663648,0.6946232754493323,2.878711419055565,1.2970139233716516,-1.5791000854703738,-7.010138432278263E-4,-8.736718108420244E-4,-2.1350801132405953E-4,386561.748893,6.84354753685E-12,1140.93630766,1.51752890513,7.83813463139,-3.52169524245
6720.00000001,-6297360.70951,523318.168648,2404751.04669,-893353.914217,-6255240.75009,2405685.62995,4757.07344663,-2744.16926453,-5371.15894488,1.15261936793,8.07135237352,-3.11321369571,6767510.11397,1.51337794679,-0.43153513227888823,-0.14528309416105176,0.6985648296828066,2.8258801543319767,1.350751060217778,-1.5899932207170544,-7.074531991583231E-4,-8.685801136318767E-4,-2.1234630577496576E-4,385750.425895,7.05409892899E-12,1146.62701051,1.15261936793,8.07135237352,-3.11321369571
6780.00000001,-6429004.29419,255541.281505,2077347.63195,-606076.368439,-6405239.37033,2078064.19287,4815.13960394,-2253.82802755,-5545.32250927,0.782134224085,8.26700754675,-2.68993524148,6768140.49635,1.51775321588,-0.4312538519815093,-0.145677870813577,0.7023794215595102,2.752565976539162,1.4039080648241047,-1.6212312293140285,-7.137924110092949E-4,-8.635036098200455E-4,-2.1112370095319167E-4,385011.993694,7.24832875953E-12,1151.7349041,0.782134224085,8.26700754675,-2.68993524148
6840.00000001,-6533254.50831,-12385.0860892,1740267.62328,-315984.289768,-6525488.33004,1740762.83406,4850.85287454,-1752.89940711,-5693.69485432,0.407815991674,8.42411647245,-2.25384316101,6768693.6713,1.52212848497,-0.43114066614556973,-0.14592955233257454,0.7060869717613797,2.6314114511798383,1.4559581557914345,-1.7001145088157592,-7.200303373598457E-4,-8.584455463926368E-4,-2.098409839376527E-4,384358.097002,7.42318445379E-12,1156.23954998,0.407815991674,8.42411647245,-2.25384316101
6900.00000001,-6609619.23153,-279463.49993,1395079.30817,-24424.6932237,-6615422.27659,1395350.86857,4864.03621541,-1243.72106329,-5815.56846195,0.0314329318991,8.54188114868,-1.80699175141,6769159.23061,1.52650375406,-0.431196669996591,-0.14603277214562638,0.7097075433036978,2.3560107413527356,1.5048086346938276,-1.9329927584406448,-7.261659216976018E-4,-8.534091599440657E-4,-2.0849896249988795E-4,383798.986078,7.57576561634E-12,1160.12082697,0.0314329318991,8.54188114868,-1.80699175141
6960.00000001,-6657727.43937,-544703.707889,1043389.67835,267247.977701,-6674617.43903,1043436.32687,4854.61921705,-728.672805791,-5910.36094081,-0.345230368321,8.61969554067,-1.35149578997,6769528.35481,1.53087902315,-0.4314218450358284,-0.1459832388031338,0.7132612288828164,1.3965646865390788,1.5351877881234894,-2.849609666899121,-7.321981908391899E-4,-8.483976731689458E-4,-2.0709846370605133E-4,383343.32923,7.70343747729E-12,1163.35982876,-0.345230368321,8.61969554067,-1.35149578997
7020.00000001,-6677331.19725,-807126.280921,686836.824875,557678.272619,-6702793.8083,686658.34504,4822.63879148,-210.164917436,-5977.61832148,-0.720382762548,8.65715064861,-0.88951930627,6769793.98924,1.53525429223,-0.43181505747820137,-0.14577775063192722,0.7167680402571887,0.35080204743546056,1.5088644305216325,2.4310038550605078,-7.381262532163227E-4,-8.434142914552053E-4,-2.0564033252588429E-4,382998.054501,7.80393895354E-12,1165.93966803,-0.720382762548,8.65715064861,-0.88951930627
7080.00000001,-6668307.0773,-1065766.20288,327082.156149,845516.179369,-6699816.60852,326679.377802,4768.23926636,309.373786705,-6017.01765968,-1.09223656067,8.65403823473,-0.423263761878,6769950.9891,1.53962956132,-0.4323740611547756,-0.1454142040742747,0.7202478003807852,0.04859613929214889,1.4614599516458397,2.172405277854364,-7.439492970187692E-4,-8.384621995731982E-4,-2.0412543043470704E-4,382768.223855,7.87547613949E-12,1167.84605248,-1.09223656067,8.65403823473,-0.423263761878
7140.00000001,-6630656.98483,-1319676.3922,-34197.5186887,1129423.55665,-6665697.04596,-34822.723054,4691.67187336,827.508081126,-6028.36891539,-1.4590176837,8.61035311303,0.0450442436779,6769996.23016,1.54400483041,-0.4330955053108947,-0.14489159615507946,0.7237200389660823,-0.08049849785719193,1.4110713221440665,2.087389147968431,-7.496665882151514E-4,-8.335445584852423E-4,-2.025546340450803E-4,382656.942467,7.91679744309E-12,1169.06773081,-1.4590176837,8.61035311303,0.0450442436779
7200.00000001,-6564508.38558,-1567931.13865,-395317.996749,1408080.51767,-6600592.32744,-396162.720631,4593.29362605,1341.80854407,-6011.61608352,-1.81897583796,8.5262939295,0.513165605715,6769928.68175,1.5483800995,-0.4339749476786959,-0.14421002154606163,0.7272038920909782,-0.15814420019909328,1.3601167342894167,2.0543479233426667,-7.552774684515674E-4,-8.286645022546406E-4,-2.0092883374893926E-4,382665.305016,7.92724648246E-12,1169.59685037,-1.81897583796,8.5262939295,0.513165605715
7260.00000001,-6470113.9296,-1809629.43855,-754595.733387,1680191.72814,-6504804.94548,-755656.049853,4473.56558989,1849.86377212,-5966.83756005,-2.17039458353,8.4022623901,0.978861538003,6769749.43981,1.55275536859,-0.43500687319402115,-0.14337066470357346,0.7307180063714903,-0.2145115731097382,1.3091801315849603,2.043166035523971,-7.607813528489861E-4,-8.23825135078622E-4,-1.9924893236496343E-4,382792.380031,7.90678997902E-12,1169.42925341,-2.17039458353,8.4022623901,0.978861538003
