time,gePosition_m_X,gePosition_m_Y,gePosition_m_Z,eiPosition_m_X,eiPosition_m_Y,eiPosition_m_Z,eiVelocity_m_s_X,eiVelocity_m_s_Y,eiVelocity_m_s_Z,eiAccel_m_s2_X,eiAccel_m_s2_Y,eiAccel_m_s2_Z,semiMajorAxis_m,gast_rad,eulerAngle_rad_Roll,eulerAngle_rad_Pitch,eulerAngle_rad_Yaw,eulerAngleWrtEi_rad_Roll,eulerAngleWrtEi_rad_Pitch,eulerAngleWrtEi_rad_Yaw,bodyAngularRateWrtEi_rad_s_Roll,bodyAngularRateWrtEi_rad_s_Pitch,bodyAngularRateWrtEi_rad_s_Yaw,altitudeMsl_m,airDensity_kg_m3,ambientTemperature_dgK,eiGravitation_m_s2_X,eiGravitation_m_s2_Y,eiGravitation_m_s2_Z
0.0,-1428622.31101,4163200.46562,5136049.67203,-4292653.41,955168.47,5139356.57,109.649663,-7527.72649,1484.521489,5.52898656936,-1.23026788741,-6.61954989995,6758662.11723,1.02334780893,5.666859310097427E-17,-0.2024581932313422,-1.0271182499535224E-16,-2.471593905353287,-0.03718896447605677,-1.4289931348888525,0.0,0.0,0.0,398252.763838,3.11591362917E-12,976.47737094,5.52898656936,-1.23026788741,-6.61954989995
60.0,-1789712.64868,3920255.31305,5213136.6043,-4276130.76361,501640.150639,5216447.94771,440.899504426,-7584.0430456,1084.18939672,5.50841669093,-0.646201702282,-6.71971240616,6758662.11723,1.02772307802,-2.3648081763345727E-6,-0.20245604259998598,-1.0060057579448604E-4,-2.4720592963860404,0.01612042366569264,-1.3866611796765804,-7.049068603766561E-7,-0.001134477987848274,-3.302852372534542E-6,398335.16147,3.20687244874E-12,983.702829946,5.50841669093,-0.646201702282,-6.71971240616
120.0,-2144732.03326,3662345.31178,5266057.24147,-4239785.46485,45786.4492663,5269357.6801,770.149856361,-7605.20775889,678.7772427,5.46236021842,-0.058989324127,-6.78881750198,6758662.11723,1.03209834711,-2.5118996464676512E-5,-0.20244904674264,-4.002575026466601E-4,-2.470307948697733,0.06928029515548614,-1.3441021824376438,-1.5682193695747527E-6,-0.0011344959082205722,-6.615080444266568E-6,398280.483171,3.31726588913E-12,991.661468685,5.46236021842,-0.058989324127,-6.78881750198
180.0,-2492166.12293,3390599.00166,5294562.85755,-4183783.25764,-410279.480789,5297837.08957,1095.87688043,-7591.11290731,270.159254332,5.39101509823,0.528665740843,-6.82652947799,6758662.11723,1.0364736162,-9.17969090786012E-5,-0.20243641348053673,-8.945341280171851E-4,-2.4663158457375527,0.12219457297341439,-1.3010762842746364,-2.5897433371880404E-6,-0.0011345075693185744,-9.935939052561712E-6,398085.378679,3.44775481373E-12,1000.300609,5.39101509823,0.528665740843,-6.82652947799
240.0,-2830524.93281,3106195.85057,5298517.62797,-4108380.89026,-864442.894078,5301750.4708,1416.572094,-7541.8131943,-139.774483848,5.29469509567,1.11405482452,-6.83265572643,6758662.11723,1.04084888529,-2.2590163205729109E-4,-0.20241740163866534,-0.0015773854989644415,-2.4600313118668202,0.17476349162007102,-1.2573391714524293,-3.7692476844597157E-6,-0.0011345124437282144,-1.3264676401906132E-5,397748.768109,3.59852917815E-12,1009.53002767,5.29469509567,1.11405482452,-6.83265572643
300.0,-3158349.2707,2810361.12396,5277899.32319,-4013924.98617,-1314597.20057,5281075.7838,1730.7492879,-7457.52569377,-549.126655788,5.17382866283,1.69447627941,-6.80714795491,6758662.11723,1.04522415437,-4.5079125779591843E-4,-0.20239134369840017,-0.0024411868488160384,-2.4513746395741123,0.22688152919940394,-1.212638578679881,-5.106463907715847E-6,-0.0011345099435632596,-1.6600533489169586E-5,397271.88372,3.76928395326E-12,1019.22714303,5.17382866283,1.69447627941,-6.80714795491
360.0,-3474217.08765,2504360.5957,5232799.48317,-3900850.50203,-1758653.68795,5235904.82755,2036.95136094,-7338.62906256,-956.001393646,5.02895729882,2.26724769265,-6.75010277495,6758662.11723,1.04959942346,-7.8956535989131E-4,-0.20235766593510943,-0.0034767697023917053,-2.440237430159686,0.27843520853324666,-1.1667109306425738,-6.601085475827106E-6,-0.0011344994211529684,-1.9942743536966846E-5,396658.271822,3.95927497991E-12,1029.24864764,5.02895729882,2.26724769265,-6.75010277495
420.0,-3776749.71579,2189495.12225,5163423.07076,-3769678.779,-2194551.17459,5166442.89226,2333.75704093,-7185.6620202,-1358.51297384,4.86073340379,2.82971808105,-6.66176165595,6758662.11723,1.05397469255,-0.0012649521690328252,-0.2023159053548305,-0.004673465428267019,-2.4264817776195184,0.32930071575502307,-1.1192781943573564,-8.252767163976442E-6,-0.0011344801697995635,-2.3290531437403787E-5,395913.75464,4.16743259548E-12,1039.44538411,4.86073340379,2.82971808105,-6.66176165595
480.0,-4064617.96598,1867095.10307,5070087.60404,-3621015.19486,-2620265.54951,5073007.89024,2619.78746171,-6999.32109896,-1754.79449109,4.66991762971,3.37928001561,-6.54251023745,6758662.11723,1.05834996164,-0.0018991969575552084,-0.20226572268301005,-0.006019156023651889,-2.40993949275919,0.37934129187713267,-1.070045087132488,-1.0061124325786983E-5,-0.0011344514246142464,-2.664311320769178E-5,395046.35254,4.39248786983E-12,1049.67618037,4.66991762971,3.37928001561,-6.54251023745
540.0,-4336548.05782,1538514.85011,4953221.77021,-3455546.42661,-3033819.15549,4956028.96803,2893.71256637,-6780.45766981,-2143.0064719,4.4573757334,3.91338162297,-6.39287699509,6758662.11723,1.06272523073,-0.0027139521540412094,-0.20220691085727635,-0.007500331877758609,-2.3904116628473107,0.42840436585028874,-1.018696889844619,-1.2025732106073805E-5,-0.001134412363442219,-2.9999695459375573E-5,394066.16769,4.63306699777E-12,1059.81737392,4.4573757334,3.91338162297,-6.39287699509
600.0,-4591327.35534,1205126.8898,4813363.52578,-3274037.33485,-3433289.97225,4816044.60446,3154.25730682,-6530.07425328,-2521.34538841,4.22407493918,4.42953841007,-6.21353125793,6758662.11723,1.06710049981,-0.0037301697223824436,-0.20213939852682422,-0.009102156224769098,-2.367668984746518,0.47631842124721674,-0.964898263413571,-1.4146124597064531E-5,-0.001134362107854033,-3.335947488424658E-5,392985.230813,4.88772979641E-12,1069.76694871,4.22407493918,4.42953841007,-6.21353125793
660.0,-4827809.88176,868316.221086,4651157.69009,-3077327.483,-3816820.55719,4653700.20187,3400.20761071,-6249.32012759,-2888.05203397,3.97107982106,4.92534485816,-6.00528057771,6758662.11723,1.0714757689,-0.004967996347008544,-0.20206324820062083,-0.010808535967271361,-2.3414535056176056,0.5228896292502554,-0.908293668414397,-1.642179394093355E-5,-0.0011342997242294386,-3.672163775762219E-5,391817.313346,5.15495300749E-12,1079.44416186,3.97107982106,4.92534485816,-6.00528057771
720.0,-5044921.58748,529474.553225,4467353.04181,-2866327.30621,-4182626.70184,4469745.1799,3630.4160871,-5939.48624934,-3241.41972145,3.69954771645,5.39848573122,-5.76906745355,6758662.11723,1.07585103799,-0.006446671969541185,-0.2019786487843777,-0.012602198527103273,-2.3114826627458736,0.5678983472276622,-0.848510249623177,-1.885218938147738E-5,-0.0011342242249250088,-4.0085359460649106E-5,390577.707882,5.43307543139E-12,1088.78644481,3.69954771645,5.39848573122,-5.76906745355
780.0,-5241665.34627,189994.547074,4262798.92999,-2642013.94644,-4529005.7634,4265029.58367,3843.80744331,-5601.99950563,-3579.8022658,3.41072368629,5.84674704438,-5.50596541829,6758662.11723,1.08022630708,-0.008184432218169377,-0.201885902445203,-0.014464774360976571,-2.277456823660206,0.6110956857896566,-0.7851643614906788,-2.143671626894539E-5,-0.0011341345695115796,-4.344980402669232E-5,389282.980377,5.72022664279E-12,1097.7452932,3.41072368629,5.84674704438,-5.50596541829
840.0,-5417125.65531,-148735.916456,4038441.41394,-2405426.77194,-4854344.63194,4040500.22042,4039.38358617,-5238.41631976,-3901.62171297,3.10593503834,6.26802663725,-5.21717449618,6758662.11723,1.08460157617,-0.010198415261172614,-0.2017854058266225,-0.016376884764919764,-2.239071852014994,0.6522004999647085,-0.7178732380682341,-2.4174735020120254E-5,-0.0011340296661233877,-4.681412370814437E-5,387950.698132,6.01425775883E-12,1106.28229852,3.10593503834,6.26802663725,-5.21717449618
900.0,-5570473.01589,-485339.417195,3795318.94811,-2157662.60064,-5157127.29515,3797196.34098,4216.22838204,-4850.41563555,-4205.37577766,2.78658543362,6.66034429836,-4.90401604459,6758662.11723,1.08897684525,-0.01250457359789321,-0.20167762578675777,-0.01831823458236317,-2.196038465612824,0.6908973697244394,-0.6462735555547374,-2.7065560040001193E-5,-0.0011339083728613177,-5.017745857220708E-5,386599.138075,6.3126881824E-12,1114.36594672,2.78658543362,6.66034429836,-4.90401604459
960.0,-5700967.97255,-818454.602498,3534557.63056,-1899870.6489,-5435941.96416,3536244.8846,4373.51205129,-4439.79130921,-4489.64495351,2.45414859808,7.02185138673,-4.56792699599,6758662.11723,1.09335211434,-0.01511759127471556,-0.20156307005236024,-0.02026770942552324,-2.148110124636627,0.7268363965044108,-0.5700486092861767,-3.0108458605857893E-5,-0.0011337694993095895,-5.353893612198061E-5,385246.980295,6.61267311836E-12,1121.96917921,2.45414859808,7.02185138673,-4.56792699599
1020.0,-5807964.78976,-1146741.697,3257366.03583,-1633247.22809,-5689487.726,3258855.30789,4510.49517421,-4008.44394013,-4753.09926035,2.11016166425,7.35083989866,-4.2104535197,6758662.11723,1.09772738343,-0.018031256105418884,-0.2014407450598466,-0.022203000448742183,-2.0951024055897727,0.7596355973874515,-0.4889673567771805,-3.133367107380191E-5,-0.0011334625329614666,-5.683379105866745E-5,383912.992166,6.91099941407E-12,1129.0678263,2.11016166425,7.35083989866,-4.2104535197
1080.0,-5890914.74666,-1468887.89283,2965029.65483,-1359030.21298,-5916580.68979,2966314.02071,4626.53228704,-3558.37217567,-4994.50459422,1.75621817019,7.64575092852,-3.83324412651,6758662.11723,1.10210265252,-0.021000813717967838,-0.20129150982345284,-0.02410325140675804,-2.036737254990217,0.7888789360947542,-0.4029507953047129,-2.876486488998179E-5,-0.0011328476299738573,-6.001360800082809E-5,382615.708702,7.20410831208E-12,1135.63958297,1.75621817019,7.64575092852,-3.83324412651
1140.0,-5949369.03175,-1783612.59828,2658904.96671,-1078493.30727,-6116159.59655,2659978.45374,4721.07504834,-3091.66352777,-5212.72864769,1.39396074566,7.90518247478,-3.43804224265,6758662.11723,1.10647792161,-0.023954567374489047,-0.20110999468240087,-0.02596798844616955,-1.9730795558194216,0.8141288197789385,-0.3120781397697415,-2.6358898654396775E-5,-0.001132230178742708,-6.321425620595685E-5,381373.114964,7.48814599554E-12,1141.66340206,1.39396074566,7.90518247478,-3.43804224265
1200.0,-5982981.22111,-2089672.52353,2340413.16932,-792940.132318,-6287290.8642,2341270.78449,4793.67495799,-2610.48474187,-5406.7463694,1.02507351745,8.12789654441,-3.02667828318,6758662.11723,1.11085319069,-0.026899535231527678,-0.20089698473989342,-0.02780006008464045,-1.9045041102911366,0.8349528440934618,-0.21665917419564198,-2.411591786100942E-5,-0.0011316102224509556,-6.64349583347736E-5,380202.336435,7.7590399177E-12,1147.11912903,1.02507351745,8.12789654441,-3.02667828318
1260.0,-5991509.32546,-2385866.58275,2011033.59675,-503698.166694,-6429173.04247,2011671.35038,4843.98561294,-2117.07176185,-5575.64493382,0.651274268517,8.31282551192,-2.6010612582,6758662.11723,1.11522845978,-0.02984302427545442,-0.20065332437749603,-0.02960174194213974,-1.8316630655847448,0.8509495976307923,-0.11728354605500493,-2.2036029580009768E-5,-0.0011309877385140392,-6.967494084915084E-5,379119.343262,8.01259721908E-12,1151.98723184,0.651274268517,8.31282551192,-2.6010612582
1320.0,-5974817.39318,-2671040.59285,1672296.85424,-212112.564554,-6541140.65464,1672711.77894,4871.76448598,-1613.71933672,-5718.62819429,0.274306387484,8.45907769192,-2.16316994869,6758662.11723,1.11960372887,-0.032792591075770185,-0.20037991222858856,-0.031374726403531096,-1.7554969533669407,0.8617790353201482,-0.014831319042635101,-2.0119302657131885E-5,-0.0011303626382011649,-7.293343344261265E-5,378138.674091,8.24461890324E-12,1156.24846939,0.274306387484,8.45907769192,-2.16316994869
1380.0,-5932876.65821,-2944091.74979,1325777.7021,80460.1180873,-6622667.40622,1325967.86694,4876.87421622,-1102.77031762,-5835.0205947,-0.104069352975,8.56594208807,-1.71504369194,6758662.11723,1.12397899796,-0.035756001184035345,-0.2000776955479333,-0.0331201152316413,-1.67720311312037,0.8671932313523214,0.08955906373205653,-1.836576783233629E-5,-0.0011297347663543078,-7.620966845739484E-5,377273.184958,8.4510389103E-12,1159.884107,-0.104069352975,8.56594208807,-1.71504369194
1440.0,-5865766.22415,-3203972.86468,973087.721764,372658.259633,-6673368.74336,973052.241649,4859.28340212,-586.604695271,-5924.27051757,-0.482083148433,8.6328922848,-1.25877281965,6758662.11723,1.12835426705,-0.038741187377565475,-0.19974766395641472,-0.03483841514581772,-1.598157038182758,0.8670617749647129,0.19456987343290394,-1.6775417776863276E-5,-0.001129103901180517,-7.95028802889385E-5,376533.828253,8.6280865492E-12,1162.87683742,-0.482083148433,8.6328922848,-1.25877281965
1500.0,-5773673.27738,-3449696.34278,615867.798494,663121.541664,-6693003.74703,615606.838617,4819.06689047,-67.6284305421,-5985.95304931,-0.857964603813,8.65958945283,-0.796488794607,6758662.11723,1.13272953613,-0.041756206960125775,-0.19939084254524372,-0.03652953637592292,-1.5197964749343802,0.8613861031444918,0.29882042244125034,-1.5348207049878947E-5,-0.0011284697541314888,-8.28123047788646E-5,375929.466258,8.77244310478E-12,1165.21147632,-0.857964603813,8.65958945283,-0.796488794607
1560.0,-5656892.82478,-3680337.88969,255780.45603,950497.319819,-6681476.35219,255295.231438,4756.40555737,451.73786822,-6019.77214562,-1.22995122007,8.64588444371,-0.330354094469,6758662.11723,1.13710480522,-0.04480919832906351,-0.1990082843343899,-0.03819279418530905,-1.4434916334494718,0.8502992025787188,0.4009972719588189,-1.4084051973579445E-5,-0.0011278319698651684,-8.613717860079249E-5,375466.723086,8.88138327436E-12,1166.8754629,-1.22995122007,8.64588444371,-0.330354094469
1620.0,-5515826.9535,-3895039.93044,-105497.920298,1233446.96624,-6638835.88436,-106205.150078,4671.58557971,969.070365641,-6025.5621838,-1.59629688217,8.59181895409,0.137448106468,6758662.11723,1.14148007431,-0.04790833703036097,-0.1986010620503354,-0.039826913342874956,-1.3704303222608494,0.834050751975347,0.4999695137694956,-1.2982830428306754E-5,-0.0011271901262998563,-8.947673863917735E-5,375149.878085,8.95289368481E-12,1167.85924417,-1.59629688217,8.59181895409,0.137448106468
1680.0,-5350983.61252,-4093014.72833,-466284.934963,1510652.15306,-6565276.90947,-467210.876186,4564.99719846,1481.95346136,-6003.28889111,-1.95528030342,8.497625745,0.604724404555,6758662.11723,1.1458553434,-0.051061791523614626,-0.19817025923885845,-0.04143003551977155,-1.3015409655849575,0.812981383341932,0.5948661738238114,-1.2044381567466612E-5,-0.0011265437347328907,-9.283022136413319E-5,374980.802908,8.98576118951E-12,1168.15658401,-1.95528030342,8.497625745,0.604724404555
1740.0,-5162974.91824,-4273547.19177,-824900.070469,1780821.04651,-6461138.39612,-826040.410293,4437.13297779,1987.99123664,-5953.04964202,-2.30521338067,8.36372790759,1.06928172851,6758662.11723,1.15023061249,-0.054277678878946425,-0.197716960684921,-0.04299972956799485,-1.237462763837799,0.7874918052209722,0.6851064829502356,-1.1268505453575018E-5,-0.0011258922400570657,-9.619686220224162E-5,374958.943572,8.97962539548E-12,1167.76482406,-2.30521338067,8.36372790759,1.06928172851
1800.0,-4952514.9884,-4435997.35904,-1179672.57443,2042694.38164,-6326902.19296,-1181022.00084,4288.58556662,2484.81882823,-5875.0731203,-2.64444941491,8.19073717181,1.5289379396,6758662.11723,1.15460588158,-0.057564020631169326,-0.1972422421606047,-0.044533004632346516,-1.1785580797653992,0.7580124884989728,0.7703879388467266,-1.0654962616480474E-5,-0.0011252350210608324,-9.957589490875704E-5,375081.347819,8.93499233768E-12,1166.68511611,-2.64444941491,8.19073717181,1.5289379396
1860.0,-4720417.31123,-4579802.552,-1528949.30741,2295051.38803,-6163190.82728,-1530501.5338,4120.04497215,2970.11367208,-5769.71834538,-2.97139115191,7.97945126077,1.98153241328,6758662.11723,1.15898115066,-0.06092869901548178,-0.19674715949236868,-0.04602632603432629,-1.1249534026146375,0.7249779997044216,0.8506458137666417,-1.0203473535210649E-5,-0.0011245713908017952,-1.0296655093998603E-4,375342.737191,8.85320905418E-12,1164.92263944,-2.97139115191,7.97945126077,1.98153241328
1920.0,-4467591.65876,-4704479.19181,-1871102.5134,2536715.53753,-5970764.63424,-1872850.30781,3932.29535744,3441.60655985,-5637.47306582,-3.28449859834,7.73085029914,2.42493654487,6758662.11723,1.16335641975,-0.06437941380146102,-0.1962327369964976,-0.04747563386041215,-1.076593457668477,0.6888079203650381,0.9259995480467417,-9.913718044909493E-6,-0.0011239005970744625,-1.0636805883020508E-4,375735.622232,8.7364016828E-12,1162.48681226,-3.28449859834,7.73085029914,2.42493654487
1980.0,-4195040.55576,-4809624.27078,-2204537.47528,2766560.086,-5750518.22983,-2206472.69401,3726.21137791,3897.09245199,-5478.95152616,-3.58229656936,7.4460922902,2.85706412167,6758662.11723,1.16773168884,-0.06792363994369605,-0.1956999552949583,-0.04887636417182496,-1.0332960998337073,0.6498944775504427,0.9966983989223999,-9.785334671238482E-6,-0.0011232218229617705,-1.0977964357363924E-4,376250.45835,8.58738226833E-12,1159.39150229,-3.58229656936,7.4460922902,2.85706412167
2040.0,-3903855.31784,-4894916.4765,-2527700.0178,2983513.38179,-5503476.34364,-2529813.64338,3502.75407406,4334.44099187,-5294.89161681,-3.86338192553,7.12650768163,3.27588150415,6758662.11723,1.17210695793,-0.0716471738808037,-0.19515585487316578,-0.050224418367725454,-0.9948762224185238,0.6085914757707103,1.0630791479587507,-1.3759815663001662E-5,-0.0011228280382468798,-1.1332588955086009E-4,376875.83903,8.40953146521E-12,1155.65523919,-3.86338192553,7.12650768163,3.27588150415
2100.0,-3595211.6747,-4960116.9658,-2839083.82159,3186563.91498,-5230789.03119,-2841366.00481,3262.96634031,4751.60666722,-5086.15142032,-4.12643045779,6.77359304646,3.67941755973,6758662.11723,1.17648222702,-0.07581492184250961,-0.19462063116278763,-0.05150529540847229,-0.9612768084152561,0.5652149535552732,1.1255412995746974,-1.9863931361124663E-5,-0.001122545109526165,-1.169232888460898E-4,377598.722345,8.20666555465E-12,1151.30142861,-4.12643045779,6.77359304646,3.67941755973
2160.0,-3270364.9962,-5005069.78779,-3137237.51245,3374765.08257,-4933726.2884,-3139677.61834,3007.96799232,5146.63856673,-4853.70517037,-4.37020338194,6.38900391095,4.06577329389,6758662.11723,1.1808574961,-0.08045606592187907,-0.19409518247431792,-0.05268773842636562,-0.9321974470092459,0.52006733690736,1.1844939225236313,-2.611597482513249E-5,-0.0011222179920480665,-1.2050371262901712E-4,378404.686044,7.98289658484E-12,1146.35856574,-4.37020338194,6.38900391095,4.06577329389
2220.0,-2930645.14156,-5029701.95675,-3420771.4912,3547239.64632,-4613672.09406,-3423358.14874,2738.95045726,5517.68968151,-4598.63864334,-4.59355340568,5.9745467669,4.43313112474,6758662.11723,1.18523276519,-0.08557782374233067,-0.1935784539988245,-0.05373957870242364,-0.9073258142430903,0.47341797276022035,1.2403450928435906,-3.251423590693339E-5,-0.0011218443288972734,-1.2406595182838778E-4,379278.206025,7.74249400907E-12,1140.86044225,-4.59355340568,5.9745467669,4.43313112474
2280.0,-2577450.95345,-5034023.1775,-3688364.47094,3703183.86127,-4272117.90915,-3691085.62614,2457.17111372,5863.02570399,-4322.14400536,-4.79543033435,5.53217031098,4.77976374962,6758662.11723,1.18960803428,-0.09118510981994907,-0.1930689319284714,-0.05462862340978065,-0.8863700188022439,0.4255052709219778,1.2934908070389046,-3.9056923123963155E-5,-0.0011214217502604916,-1.2760877581237165E-4,380202.952557,7.48975504853E-12,1134.84633516,-4.79543033435,5.53217031098,4.77976374962
2340.0,-2212244.42083,-5018125.22718,-3938769.68948,3841871.25495,-3910655.66432,-3941612.66178,2163.94730996,6181.03327914,-4025.5141409,-4.97488618394,5.06395595884,5.10404255435,6758662.11723,1.19398330337,-0.09728050462211348,-0.19256457796827436,-0.05532282065237019,-0.8690663301601576,0.37654072490581914,1.3443083500332398,-4.574216201372365E-5,-0.001120947877285366,-1.3113093288353816E-4,381162.098391,7.22888930943E-12,1128.36115504,-4.97488618394,5.06395595884,5.10404255435
2400.0,-1836544.53614,-4982180.99909,-4170820.76717,3962656.0387,-3530970.2699,-4173772.30869,1860.6500908,6470.22766607,-3710.13649165,-5.13107977331,4.57210768613,5.40444551896,6758662.11723,1.19835857246,-0.10386423391082782,-0.1920627686300589,-0.05579042603757806,-0.8551831613777453,0.3267129586608702,1.3931535407014457,-5.256799358829367E-5,-0.0011204203260633237,-1.3463115085446585E-4,382138.632762,6.96392113452E-12,1121.45551427,-5.13107977331,4.57210768613,5.40444551896
2460.0,-1451920.87382,-4926443.21575,-4383437.1812,4064976.13476,-3134831.68476,-4386483.53872,1548.69766527,6729.25977126,-3377.48643729,-5.26328077062,4.05894125292,5.67956457666,6758662.11723,1.20273384154,-0.11093415816916712,-0.19156024134891028,-0.056000170066756616,-0.8445226220170663,0.27619159072941435,1.4403605548303384,-5.953237290263549E-5,-0.0011198367117258596,-1.3810813770276438E-4,383115.675292,6.69861096956E-12,1114.18564961,-5.26328077062,4.05894125292,5.67956457666
2520.0,-1059986.91893,-4851242.81987,-4575629.33029,4148355.80439,-2724086.58303,-4578756.30955,1229.54864842,6956.92251834,-3029.12025205,-5.37087317277,3.5268728718,5.9281123865,6758662.11723,1.20710911063,-0.11848577184781875,-0.19105304934197784,-0.055921425540574374,-0.8369206001054778,0.2251308210294052,1.4862433818839391,-6.663316774455059E-5,-0.0011191946526438012,-1.415605823079527E-4,384076.783908,6.43639489124E-12,1106.6130995,-5.37087317277,3.5268728718,5.9281123865
2580.0,-662393.175639,-4756987.05301,-4746503.16519,4212407.8646,-2300649.65923,-4749696.19729,904.695111769,7152.15652278,-2666.66767347,-5.45335819984,2.978407383,6.14892848384,6758662.11723,1.21148437972,-0.12651221213466388,-0.19053652707539023,-0.0555243740965879,-0.8322460406444472,0.17367271650659635,1.5310982621533173,-7.386815745605891E-5,-0.0011184917747347782,-1.4498715527141453E-4,385006.251149,6.18033962638E-12,1098.80399948,-5.45335819984,2.978407383,6.14892848384
2640.0,-260820.086577,-4644157.23354,-4895264.36301,4256835.4831,-1866494.61459,-4898508.57248,575.65547802,7314.05504394,-2291.82412158,-5.51035659068,2.41612600294,6.34098477708,6758662.11723,1.21585964881,-0.1350042769328905,-0.19000526798512773,-0.05478017088733993,-0.8303998667866355,0.12195021389009303,1.5752066693584756,-8.123503189719683E-5,-0.0011177257158562182,-1.4838650981803571E-4,385889.383534,5.93310923105E-12,1090.82783651,-5.51035659068,2.41612600294,6.34098477708
2700.0,143029.20478,-4513306.24645,-5021222.02541,4281433.54312,-1423644.86836,-5024502.29981,243.967296296,7441.86819104,-1906.34260862,-5.54161028942,1.84267371467,6.50339036293,6758662.11723,1.2202349179,-0.1439504517383657,-0.18945311602264722,-0.053661106318101275,-0.8313138292485309,0.07008988080951166,1.6188385587113239,-8.873139056165885E-5,-0.0011168941303048058,-1.5175728278022052E-4,386712.759104,5.69693952857E-12,1082.75552186,-5.54161028942,1.84267371467,6.50339036293
2760.0,547436.216033,-4365055.75871,-5123791.88362,4286089.57208,-974164.039852,-5127092.9441,-88.8200654075,7535.0063634,-1512.02538078,-5.54698351642,1.26074637043,6.6353956374,6758662.11723,1.22461018698,-0.15333694514259982,-0.18887317224699068,-0.05214076365603643,-0.8349494554703967,0.018214487824390488,1.6622557048648552,-9.635474185388219E-5,-0.001115994693382262,-1.5509809566638245E-4,387464.45869,5.47361785341E-12,1074.65674208,-5.54698351642,1.26074637043,6.6353956374
2820.0,950674.578557,-4200093.17523,-5202498.99515,4270784.23028,-520146.247209,-5205805.46788,-421.152773474,7593.04291018,-1110.71533498,-5.52646322134,0.673077577775,6.73639568389,6758662.11723,1.22898545607,-0.16314773273301303,-0.18825781750359377,-0.05019417123146642,-0.8412971890397943,-0.03355455174653882,1.7057150194489503,-1.0410250253560293E-4,-0.0011150251060449029,-1.5840755581006903E-4,388134.26706,5.26446868907E-12,1066.59675154,-5.52646322134,0.673077577775,6.73639568389
2880.0,1351017.54709,-4019168.35126,-5256979.92038,4235591.35791,-63706.2704561,-5260276.40827,-751.479890592,7615.71599841,-704.28725438,-5.48015891954,0.0824254411652,6.80593292463,6758662.11723,1.23336072516,-0.1733646092367412,-0.1875987519228318,-0.04779794786917406,-0.8503757498800606,-0.08509481706059625,1.7494717733984722,-1.1197199735340271E-4,-0.0011139830996212646,-1.6168425760076783E-4,388713.840609,5.0703496281E-12,1058.6330516,-5.48015891954,0.0824254411652,6.80593292463
2940.0,1746745.532,-3823090.07806,-5286984.36911,4180677.58104,393030.373695,-5290255.52374,-1078.26070948,7602.92968311,-294.638907134,-5.40830191683,-0.508440768804,6.84369902604,6758662.11723,1.23773599425,-0.18396724883712035,-0.18688705162227667,-0.04493044012661011,-0.8622316969580631,-0.13628053525769962,1.7937826609642886,-1.1996045885335478E-4,-0.0011128664405855777,-1.649267837960451E-4,389196.838942,4.89166478687E-12,1050.81264739,-5.40830191683,-0.508440768804,6.84369902604
3000.0,2136153.61998,-3612722.35949,-5292376.31056,4106301.47935,847937.39722,-5295606.9037,-1399.97202195,7554.75417709,116.317946674,-5.31124393136,-1.09675394702,6.84953605368,6758662.11723,1.24211126334,-0.19493327369164806,-0.18611324268945856,-0.041571849868211386,-0.8769391292970818,-0.18698020690256711,1.8389086329812965,-1.2806502739306673E-4,-0.0011116729353748776,-1.681337069127477E-4,389579.018289,4.72840200403E-12,1043.17061153,-5.31124393136,-1.09675394702,6.84953605368
3060.0,2517559.04894,-3388980.49772,-5273134.54234,4012812.3205,1298897.69838,-5276309.53698,-1715.11528751,7471.4253227,526.666594845,-5.18945512471,-1.67976241572,6.82343687653,6758662.11723,1.24648653242,-0.20623833075875897,-0.18526739215017174,-0.03770435070224919,-0.8945994106144687,-0.23705415799777677,1.885117398469782,-1.3628275135670515E-4,-0.0011104004352567257,-1.713035906937779E-4,389858.285387,4.5801948662E-12,1035.73039825,-5.18945512471,-1.67976241572,6.82343687653
3120.0,2889308.60313,-3152827.00713,-5229352.71723,3900648.36831,1743813.26381,-5232457.33761,-2022.22366647,7353.34327161,934.494414725,-5.04352155781,-2.25474304741,6.76554482506,6758662.11723,1.25086180151,-0.21785617717357234,-0.184339215287025,-0.03331219182250935,-0.9153407409515253,-0.28635198598447986,1.9326854424891098,-1.4461058758329933E-4,-0.0011090468412021707,-1.7443499165340761E-4,390034.7111,4.44640287045E-12,1028.50581833,-5.04352155781,-2.25474304741,6.76554482506
3180.0,3249785.89493,-2905267.37568,-5161238.82875,3770334.77393,2180614.96794,-5164258.62914,-2319.86888361,7201.07038306,1337.90187218,-4.87414209014,-2.81901418174,6.67615261189,6758662.11723,1.2552370706,-0.22975877443807566,-0.18331819825754828,-0.028381787864648914,-0.9393173187164954,-0.33470988381301653,1.981899334000197,-1.5304540201181501E-4,-0.00110761010880234,-1.775264606929301E-4,390110.503745,4.32619711232E-12,1021.50406958,-4.87414209014,-2.81901418174,6.67615261189
3240.0,3597418.50042,-2647345.69357,-5069114.15954,3622481.06096,2607272.22312,-5072035.0914,-2606.66788966,7015.32835501,1735.01143397,-4.68212474387,-3.36994827148,6.55570052779,6758662.11723,1.25961233969,-0.24191639180919372,-0.18219373468540526,-0.022901793488827413,-0.9667077328855123,-0.3819478521503182,2.0330559949603773,-1.6158397055067737E-4,-0.0011060882531623432,-1.8057654478437871E-4,390089.94273,4.21863810765E-12,1014.72898684,-4.68212474387,-3.36994827148,6.55570052779
3300.0,3930684.91648,-2380140.16912,-4953411.69894,3457778.21787,3021802.43515,-4956220.17625,-2881.28928911,6796.99460607,2123.9763506,-4.46838255712,-3.90498419548,6.40477392979,6758662.11723,1.26398760878,-0.2542977192704603,-0.18095527447589196,-0.01686316155608618,-0.9977120946307677,-0.42786684913681133,2.0864614708960234,-1.7022298017785214E-4,-0.0011044793537969204,-1.8358378873261158E-4,389979.273774,4.12273655827E-12,1008.18379823,-4.46838255712,-3.90498419548,6.40477392979
3360.0,4248121.30806,-2104758.55224,-4814674.03892,3276995.41243,3422280.2197,-4817357.0012,-3142.4595046,6547.09793026,2502.98926769,-4.2339289529,-4.42163917965,6.22410004192,6758662.11723,1.26836287786,-0.26686999045381204,-0.17959248285731957,-0.010259183953781201,-1.0325472627192702,-0.47224598570688653,2.142427585769595,-1.789590302748006E-4,-0.0011027815595068926,-1.8654673698190167E-4,389786.567639,4.0374940666E-12,1001.87300306,-4.2339289529,-4.42163917965,6.22410004192
3420.0,4548328.01547,-1822333.48559,-4653550.75969,3080976.34491,3806846.33689,-4656095.73263,-3388.96864965,6266.81344962,2870.29062535,-3.97987265256,-4.91752027039,6.01454409236,6758662.11723,1.27273814695,-0.2795991159251475,-0.17809540729034146,-0.0030855143759695998,-1.0714393522577537,-0.5148399578290875,2.2012656970694033,-1.8778863419326177E-4,-0.0011009930932084873,-1.894639354967039E-4,389521.544878,3.96192588275E-12,995.80331902,-3.97987265256,-4.91752027039,6.01454409236
3480.0,4829975.79243,-1534017.80365,-4470795.31905,2870635.25837,4173716.30259,-4473190.47225,-3619.6760832,5957.45689307,3224.17680656,-3.70741216439,-5.39033530847,5.77710481403,6758662.11723,1.27711341604,-0.29244982704134564,-0.17645464972496905,0.004659827361351085,-1.1146125770087179,-0.5553770200112973,2.2632766248933063,-1.9670822107981963E-4,-0.0010991122567207774,-1.9233393369547967E-4,389195.369732,3.89507036472E-12,989.983858481,-3.70741216439,-5.39033530847,5.77710481403
3540.0,5091811.74723,-1240979.79992,-4267261.46147,2646952.62573,4521188.6371,-4269495.66324,-3833.51562167,5620.47823318,3563.00799723,-3.4178298796,-5.83790335535,5.51290933839,6758662.11723,1.28148868513,-0.3053858305951635,-0.17466154137609768,0.012976469567575,-1.1622734301257696,-0.5935579471509744,2.328735780259953,-2.057141379149712E-4,-0.0010971374354885404,-1.9515528643513638E-4,388820.416842,3.83599024602E-12,984.425772496,-3.4178298796,-5.83790335535,5.51290933839
3600.0,5332664.96062,-944398.48182,-4043899.16547,2410970.53513,4847652.71354,-4045962.03427,-4029.50038567,5257.45471481,3885.2157225,-3.11248580948,-6.25816452766,5.22320751493,6758662.11723,1.28586395422,-0.31836997418867435,-0.17270831713513163,0.02186172124063689,-1.2145893697826442,-0.629056593511752,2.3978726774217325,-2.148026518251642E-4,-0.0010950671032143645,-1.9792655603037324E-4,388410.014959,3.78376998763E-12,979.141589629,-3.11248580948,-6.25816452766,5.22320751493
3660.0,5551451.75548,-645458.833004,-3801750.14953,2163787.7958,5151596.17072,-3803632.10189,-4206.72726119,4870.08331244,4189.31002579,-2.7928109981,-6.6491892002,4.90936569081,6758662.11723,1.2902392233,-0.3313644221711825,-0.17058828655674904,0.03131062233441442,-1.2716617020694116,-0.6615228090045575,2.4708445381160336,-2.239699526239965E-4,-0.001092899826406975,-2.0064631433236858E-4,387978.172269,3.73751229014E-12,974.144424896,-2.7928109981,-6.6491892002,4.90936569081
3720.0,5747180.5952,-345347.10215,-3541942.95901,1906554.7884,5431611.85718,-3543635.25372,-4364.3809566,4460.17265522,4473.88625938,-2.46030064639,-7.00918654134,4.57285998723,6758662.11723,1.29461449239,-0.34433084164419736,-0.16829599837346304,0.0413160107480428,-1.3334934164680454,-0.6905885556869943,2.547704756938861,-2.3321215559252566E-4,-0.0010906342688196075,-2.0331314482841082E-4,387539.288378,3.69633571359E-12,969.447175251,-2.46030064639,-7.00918654134,4.57285998723
3780.0,5918956.58916,-45246.1367517,-3265687.65822,1640468.08441,5686404.27585,-3267182.43658,-4501.73763939,4029.63446069,4737.63145745,-2.11650698341,-7.33651234958,4.21526911059,6758662.11723,1.29898976148,-0.35723059789991324,-0.16582739548941106,0.05186860468913662,-1.3999544312803238,-0.7158779918533903,2.628368696469429,-2.4252530451788695E-4,-0.0010882691957574799,-2.0592564477469084E-4,387107.858265,3.65937448086E-12,965.061769014,-2.11650698341,-7.33651234958,4.21526911059
3840.00000001,6065985.58576,253669.219936,-2974270.15348,1366764.86033,5914795.50107,-2975560.4754,-4618.16813851,3580.47451995,4979.33026473,-1.76303192131,-7.62967616384,3.8382667379,6758662.11723,1.30336503057,-0.37002495825646653,-0.1631799575018475,0.06295709872236531,-1.4707489259127573,-0.7370219483541198,2.7125814996811957,-2.519053749518233E-4,-0.001085803478247384,-2.0848242735701963E-4,386698.173768,3.62578091709E-12,960.998501349,-1.76303192131,-7.62967616384,3.8382667379
3900.00000001,6187577.83496,550236.651405,-2669046.17456,1086717.13305,6115730.54229,-2670126.05039,-4713.14070037,3114.78327863,5197.87039659,-1.40151953039,-7.88734762431,3.44361351674,6758662.11723,1.30774029966,-0.38267530310140413,-0.16035282795344832,0.07456827150025026,-1.5453916450038467,-0.7536765283983989,2.7998948128172487,-2.613482777153063E-4,-0.0010832360970536887,-2.1098212385678184E-4,386324.028292,3.59473054627E-12,957.265465419,-1.40151953039,-7.88734762431,3.44361351674
3960.00000001,6283151.20459,843310.793085,-2351434.94331,801625.843487,6288282.13173,-2352299.36125,-4786.22328896,2634.72605916,5392.24760857,-1.03364837064,-8.10836206489,3.03314872114,6758662.11723,1.31211556874,-0.39514334262143347,-0.15734692372029838,0.08668710292205607,-1.6232012445151347,-0.7655445371222307,2.8896604963057793,-2.708498626317957E-4,-0.0010805661465267905,-2.1342338583783338E-4,385998.43044,3.5654295604E-12,953.86807594,-1.03364837064,-8.10836206489,3.03314872114
4020.00000001,6352233.93641,1131767.54422,-2022912.55937,512814.816126,6431654.91571,-2023557.50832,-4837.08542237,2142.53297092,5561.57015598,-0.661123715771,-8.29172532212,2.6087816048,6758662.11723,1.31649083783,-0.4073913374870896,-0.15416502421200434,0.09929689826370135,-1.7033176685224543,-0.772397293802334,2.981048318925497,-2.8040592246819223E-4,-0.0010777928382595782,-2.158048873316536E-4,385733.33217,3.53712414763E-12,950.808675334,-0.661123715771,-8.29172532212,2.6087816048
4080.00000001,6394466.92992,1414508.25115,-1685005.13421,221624.622359,6545189.03245,-1685427.62199,-4865.49954043,1640.48855565,5705.06272661,-0.285669705401,-8.43661774938,2.17248249371,6758662.11723,1.32086610692,-0.41938232154802085,-0.1508118383720921,0.11237941669996505,-1.7847464185324744,-0.774093501033057,3.073090502098794,-2.9001219711839276E-4,-0.0010749155045501667,-2.1812532701726158E-4,385539.376893,3.50911098672E-12,948.086209909,-0.285669705401,-8.43661774938,2.17248249371
4140.00000001,6409605.54408,1690463.74767,-1339281.70537,-70593.6240306,6628363.06181,-1339479.77225,-4871.34190026,1130.9212161,5822.06983233,0.0909785397676,-8.54239742886,1.72627365999,6758662.11723,1.32524137601,-0.4310803244305362,-0.14729404781608826,0.1259150016016928,-1.86642596824401,-0.7705917171808242,-3.1184359353764197,-2.996643779666126E-4,-0.0010719336016516996,-2.2038343039240563E-4,385425.67258,3.4807480787E-12,945.695962642,0.0909785397676,-8.54239742886,1.72627365999
4200.00000001,6397520.90908,1958598.23877,-987346.963921,-362484.510942,6680796.33552,-987319.691262,-4854.59299842,616.192476029,5912.05864751,0.467082805465,-8.60860257732,1.27222001869,6758662.11723,1.3296166451,-0.4424505918103743,-0.14362032483651108,0.13988271003050073,-1.9473077200306643,-0.7619538850716198,-3.0281877891264966,-3.0935811246189394E-4,-0.001068846712795259,-2.2257795192904498E-4,385399.594481,3.45146499499E-12,943.629328929,0.467082805465,-8.60860257732,1.27222001869
4260.00000001,6358200.74227,2217913.01525,-630833.828326,-652694.583172,6702250.59907,-630581.342573,-4815.33752059,98.6861201851,5974.62128502,0.84090964078,-8.63495314499,0.81241968899,6758662.11723,1.33399191418,-0.45345980108303946,-0.13980132440193213,0.15426043899187922,-2.0264338216829656,-0.7483391573389795,-2.9402895235683837,-3.190890088776185E-4,-0.0010656545509736674,-2.2470767719217957E-4,385466.62155,3.42077158171E-12,941.873621222,0.84090964078,-8.63495314499,0.81241968899
4320.00000001,6291749.66465,2467449.98736,-271395.898949,-939878.580496,6692631.01966,-270919.370684,-4753.76382153,-419.202737576,6009.47650283,1.21073815209,-8.6213516102,0.348994460598,6758662.11723,1.33836718327,-0.46407627010692476,-0.13584964970121002,0.1690250462219256,-2.102998880842312,-0.7299893241185423,-2.8555301854937327,-3.2885264124380824E-4,-0.0010623569614704672,-2.2677142493948097E-4,385630.209941,3.38826430033E-12,940.411895303,1.21073815209,-8.6213516102,0.348994460598
4380.00000001,6198389.01619,2706295.02659,89300.1727204,-1222705.63058,6651986.53731,89998.5344871,-4670.16294012,-935.078609819,6016.47083678,1.57486770262,-8.56788297515,-0.115919794349,6758662.11723,1.34274245236,-0.47427015677298606,-0.13177979119990876,0.18415246358574905,-2.176386764029064,-0.7072087376164952,-2.7745117957371175,-3.3864455444174103E-4,-0.0010589539241323423,-2.287680491720543E-4,385891.706265,3.35372002253E-12,939.228939146,1.57486770262,-8.56788297515,-0.115919794349
4440.00000001,6078456.17037,2933581.10581,449582.365546,-1499865.36899,6580509.55907,450499.323873,-4564.92715604,-1446.55656705,5995.57915741,1.93162548735,-8.47481397122,-0.58018272441,6758662.11723,1.34711772145,-0.484013647203595,-0.12760803959217606,0.19961780152565223,-2.2461807572164147,-0.680342244037356,-2.6976390974261655,-3.484602694434295E-4,-0.0010554455553622812,-2.3069644113284037E-4,386250.302421,3.31725062229E-12,938.321964238,1.93162548735,-8.47481397122,-0.58018272441
4500.00000001,5932403.35046,3148491.22884,807780.986408,-1770073.95908,6478534.99924,808912.291643,-4438.54809634,-1951.27309811,5946.90465112,2.27937395415,-8.3425914847,-1.04165907831,6758662.11723,1.35149299054,-0.4932811305315557,-0.12335237342702116,0.21539544342497557,-2.312151430102311,-0.6497542577931016,-2.625131625299856,-3.58295288697707E-4,-0.0010518321098369834,-2.3255553126312964E-4,386703.032995,3.27908327458E-12,937.68637922,2.27937395415,-8.3425914847,-1.04165907831
4560.00000001,5760795.95194,3350261.14124,1162236.3496,-2032079.98499,6346538.67133,1163576.75926,-4291.61440214,-2446.89685304,5870.67822823,2.61651804297,-8.1718402162,-1.49822822303,6758662.11723,1.35586825962,-0.5020493583516396,-0.11903232256614608,0.23145912922210918,-2.3742297956333682,-0.6158111124388098,-2.5570505038778264,-3.6814510161405176E-4,-0.0010481139819258107,-2.3434429108751774E-4,387244.815303,3.23951095728E-12,937.31308861,2.61651804297,-8.1718402162,-1.49822822303
4620.00000001,5564310.37755,3538181.8156,1511306.40374,-2284670.19177,6185135.04001,1512849.70691,-4124.80896706,-2931.1392229,5767.25736267,2.94151221641,-7.96335958944,-1.94779356359,6758662.11723,1.36024352871,-0.5102975871324714,-0.1146688089821671,0.24778202807867258,-2.4324736804946965,-0.5788676740426765,-2.493332059272907,-3.78005190168585E-4,-0.0010442917068095431,-2.360617350255574E-4,387868.53129,3.19888148299E-12,937.188585775,2.94151221641,-7.96335958944,-1.94779356359
4680.00000001,5343731.39336,3711601.70492,1853374.27225,-2526675.04725,5995074.34437,1855113.31849,-3938.90576077,-3401.76471209,5637.12437041,3.25286725589,-7.71811992707,-2.38829182891,6758662.11723,1.3646187978,-0.5180077020650928,-0.1102839667219682,0.2643368004032803,-2.487033622353699,-0.5392582591366131,-2.4338219294173307,-3.8787103458162644E-4,-0.001040365961305921,-2.3770692214057824E-4,388565.149624,3.15757683016E-12,937.294528027,3.25286725589,-7.71811992707,-2.38829182891
4740.00000001,5099949.01623,3869928.75911,2186855.67412,-2756974.1013,5777239.10612,2188782.40663,-3734.76625239,-3856.60105964,5480.88413557,3.54915679872,-7.43725791317,-2.81770218869,6758662.11723,1.36899406689,-0.5251643210461886,-0.10590094315122406,0.28109565003514114,-2.5381223170512137,-0.4972913068526151,-2.3783056509753258,-3.977381190737908E-4,-0.0010363375643635722,-2.3927895778902308E-4,389323.885482,3.11596283809E-12,937.605259995,3.54915679872,-7.43725791317,-2.81770218869
4800.00000001,4833954.94484,4012632.20032,2510206.19206,-2974501.11882,5532640.03908,2512311.685,-3513.33544997,-4293.54906743,5299.26129543,3.82902359293,-7.12207136408,-3.2340551677,6758662.11723,1.37336933598,-0.5317548776964175,-0.10154368384518744,0.29803036777431513,-2.585989533979012,-0.45324699554302206,-2.3265338070069106,-4.076019376622255E-4,-0.001032207477260979,-2.4077699519647997E-4,390132.394821,3.07435217165E-12,938.086179365,3.82902359293,-7.12207136408,-3.2340551677
4860.00000001,4546838.54842,4139244.05376,2821928.35603,-3178248.9641,5262411.3788,2824202.85585,-3275.63757385,-4710.59209447,5093.09689754,4.09118544736,-6.77401333066,-3.63544132469,6758662.11723,1.37774460506,-0.5377696825568926,-0.09723670370673493,0.3151123678870203,-2.6309028995160397,-0.40737697136262124,-2.27824133825067,-4.1745799999175643E-4,-0.0010279768034720893,-2.4220023692375905E-4,390976.99921,3.03418000935E-12,938.781374305,4.09118544736,-6.77401333066,-3.63544132469
4920.00000001,4239782.42886,4249360.43154,3120578.51088,-3367274.215,4967805.65358,3123011.48142,-3022.77138254,-5105.8051779,4863.34454389,4.33444085595,-6.39468555705,-4.02001966409,6758662.11723,1.38211987415,-0.5432019617936021,-0.09300484708028589,0.332312719544248,-2.6731340543508826,-0.3599054639668808,-2.2331615162821032,-4.273018371869763E-4,-0.0010236467882195112,-2.4354793624744778E-4,391842.936768,2.99715450858E-12,939.756422715,4.33444085595,-6.39468555705,-4.02001966409
4980.00000001,3914057.57391,4342642.56813,3404773.43795,-3540701.48677,4650187.92029,3407353.60914,-2755.90517152,-5477.36374286,4611.06603918,4.55767427605,-5.98583132249,-4.38602574993,6758662.11723,1.38649514324,-0.5480478729786765,-0.08887303977088458,0.34960217535266086,-2.7129492883067994,-0.31103122134905214,-2.1910354800450205,-4.3712900768862623E-4,-0.0010192188177048232,-2.448193984200388E-4,392714.634271,2.96475721796E-12,941.062957605,4.55767427605,-5.98583132249,-4.38602574993
5040.00000001,3571018.12061,4418817.60653,3673196.70132,-3697727.44658,4311029.49095,3675912.12124,-2476.27146614,-5823.55186503,4337.42656198,4.75986104189,-5.54932769406,-4.73177949215,6758662.11723,1.39087041233,-0.5523064977512793,-0.08486603599414778,0.3669511993549093,-2.7506036689144913,-0.2609298526060969,-2.1516183263874056,-4.46935103062051E-4,-0.0010146944180212337,-2.460139818305738E-4,393575.995165,2.9383651039E-12,942.74756366,4.75986104189,-5.54932769406,-4.73177949215
5100.00000001,3212095.7497,4477679.13556,3924604.69079,-3837624.50091,3951901.17771,3927442.78085,-2185.16143113,-6142.77005143,4043.68937919,4.94007189515,-5.08717722014,-5.05569257674,6758662.11723,1.39524568142,-0.5559798113371769,-0.08100816336254268,0.3843299969183955,-2.7863377643120852,-0.2097563006548484,-2.1146826624871213,-4.5671575377423905E-4,-0.0010100752537451011,-2.471310990396238E-4,394410.697979,2.91929535405E-12,944.854844169,4.94007189515,-5.08717722014,-5.05569257674
5160.00000001,2838793.73354,4519087.47898,4157832.33478,-3959744.13965,3574466.08639,4160779.94782,-1883.91902024,-6433.54250685,3731.2101261,5.09747711592,-4.6014990955,-5.35627551185,6758662.11723,1.39962095051,-0.5590726291922781,-0.07732306905080912,0.40170854890882,-2.8203762148676743,-0.157647269710112,-2.080020376837503,-4.664666348940681E-4,-0.0010053631262185291,-2.4817021770605905E-4,395202.499547,2.90883760332E-12,947.429232731,5.09747711592,-4.6014990955,-5.35627551185
5220.00000001,2452680.66113,4542969.73843,4371798.45793,-4063519.922,3180471.99013,4374841.93887,-1573.93489026,-6694.52385504,3401.43067591,5.23135023802,-4.09451983058,-5.63214426347,6758662.11723,1.40399621959,-0.561592531253599,-0.07383347029835044,0.4190566524104583,-2.8529275758029797,-0.10472350632318342,-2.047443220791065,-4.7618347172099146E-4,-0.0010005599715178033,-2.491308613811736E-4,395935.537425,2.90828290847E-12,950.516202765,5.23135023802,-4.09451983058,-5.63214426347
5280.00000001,2055383.86564,4549319.5926,4565510.7594,-4148470.09074,2771743.31692,4568636.0083,-1256.64010515,-6924.50528615,3055.87262399,5.34107133428,-3.56856345886,-5.8820264548,6758662.11723,1.40837148868,-0.5635497645149842,-0.07056091236644924,0.43634397008407233,-2.884185004154942,-0.05109188330445176,-2.0167826453188544,-4.858620453037696E-4,-9.95667858128614E-4,-2.5001261018412803E-4,396594.626012,2.91894962574E-12,954.162871194,5.34107133428,-3.56856345886,-5.8820264548
5340.00000001,1648582.58078,4538196.85595,4738070.38967,-4214199.80313,2350172.78614,4741262.9268,-933.499656144,-7122.42010356,2696.13041397,5.42612985797,-3.02604131792,-6.10476710489,6758662.11723,1.41274675777,-0.5649571249678005,-0.06752553700568134,0.45354008987636935,-2.9143274896517255,0.0031527314891623896,-1.9878892172501779,-4.954981978422639E-4,-9.906889843088614E-4,-2.5081510134823725E-4,397165.541087,2.94220226063E-12,958.41769949,5.42612985797,-3.02604131792,-6.10476710489
5400.00000001,1234000.85375,4509726.80105,4888676.1051,-4260402.96815,1917712.73092,4891921.13779,-606.005825092,-7287.34864573,2323.86413382,5.48612702795,-2.46944144101,-6.29933388303,6758662.11723,1.41712202686,-0.5658298201457862,-0.06474586437178978,0.4706145965174148,-2.943521427394,0.05792581936497077,-1.960631847540365,-5.050878379565858E-4,-9.856256751879207E-4,-2.5153802963461376E-4,397635.287741,2.97945624016E-12,963.328798147,5.48612702795,-2.46944144101,-6.29933388303
5460.00000001,813400.243808,4464099.24923,5016627.98145,-4286863.68153,1476366.14452,5019910.47242,-275.671418609,-7418.52256082,1940.79201188,5.52077774633,-1.90131759758,-6.46482185663,6758662.11723,1.42149729595,-0.5661853138797593,-0.062238591173469845,0.48753715572055145,-2.971922405997118,0.11315175430050152,-1.9348969978091848,-5.146269457956756E-4,-9.80480379567452E-4,-2.521811476201468E-4,397992.347058,3.0321592582E-12,968.940263737,5.52077774633,-1.90131759758,-6.46482185663
5520.00000001,388572.336006,4401567.43492,5121330.66924,-4293457.25169,1028177.49014,5124635.40604,55.9770985216,-7515.32841418,1548.68264364,5.5299120386,-1.32427802287,-6.60045771136,6758662.11723,1.42587256503,-0.5660431550633644,-0.06001840764091217,0.5042776116119142,-2.99967714270747,0.16876252596392713,-1.9105879870262532,-5.241115779765838E-4,-9.752556664708852E-4,-2.527442658423648E-4,398226.897326,3.10173978898E-12,975.286154449,5.5299120386,-1.32427802287,-6.60045771136
5580.00000001,-38668.8987572,4322446.64981,5202296.17572,-4280150.81135,575223.314713,5205607.84101,387.406541821,-7577.31061137,1149.34698168,5.51347600736,-0.740973877866,-6.70560342383,6758662.11723,1.43024783412,-0.5654247925905769,-0.05809783565454319,0.5208060973354354,-3.0269255408315154,0.22469661977040464,-1.8876244928704649,-5.335378723387485E-4,-9.699542214293592E-4,-2.5322725283259646E-4,398331.005993,3.18951795849E-12,982.382306354,5.51347600736,-0.740973877866,-6.70560342383
5640.00000001,-466494.865928,4227112.67352,5259146.16031,-4247003.51145,119602.708288,5262449.4027,717.083988026,-7604.17362171,744.630122135,5.47153229246,-0.154087482833,-6.77975936839,6758662.11723,1.43462310321,-0.5643533787862498,-0.05648709009414938,0.5370931583533752,-3.053802882724532,0.28089803068697583,-1.8659423298288336,-5.429020524940686E-4,-9.645788425372774E-4,-2.5363003499728856E-4,398298.78915,3.29658512187E-12,990.217249976,5.47153229246,-0.154087482833,-6.77975936839
5700.00000001,-893070.199265,4115999.99794,5291613.73233,-4194166.29559,-336572.348753,5294893.23735,1043.48376865,-7595.78349017,336.402922189,5.40426003154,0.433679631157,-6.82256684099,6758662.11723,1.4389983723,-0.5628535639581719,-0.05519396514010136,0.5531098874213595,-3.0804422039619976,0.3373153875685927,-1.8454935866586235,-5.522004321640468E-4,-9.591324362670083E-4,-2.539525963788957E-4,398126.535827,3.42367473266E-12,998.744692521,5.40426003154,0.433679631157,-6.82256684099
5760.00000001,-1316560.66962,3989599.8534,5299544.74184,-4121881.25539,-791186.707578,5302785.30284,1365.09444609,-7552.1686281,-73.4465160518,5.31195431658,1.01961880659,-6.83380998483,6758662.11723,1.44337364139,-0.5609512847985854,-0.05422374690060072,0.5688280697980277,-3.106976930479731,0.39390116497755046,-1.8262472190837098,-5.614294192813137E-4,-9.536180130811285E-4,-2.5419497828936137E-4,397812.794976,3.57106093847E-12,1007.88062989,5.31195431658,1.01961880659,-6.83380998483
5820.00000001,-1735141.11704,3848458.04486,5282898.55682,-4030480.56838,-1242131.79842,5286085.14536,1680.42574188,-7473.51987588,-483.021458885,5.19502514392,1.60102643231,-6.81341710429,6758662.11723,1.44774891047,-0.5586735495411359,-0.053579153352107896,0.5842203368305171,-3.1335439012747166,0.45061095921393235,-1.808190221660998,-5.705855198520409E-4,-9.480386828509323E-4,-2.543572788179348E-4,397358.423623,3.7385213555E-12,1017.50731979,5.19502514392,1.60102643231,-6.81341710429
5880.00000001,-2147003.37238,3693172.60724,5241748.32183,-3920385.02255,-1687315.35993,5244866.15734,1988.01538684,-7360.18983391,-890.425214539,5.0539958566,2.17521615575,-6.76146135523,6758662.11723,1.45212417956,-0.5560482227862105,-0.05326030217187692,0.5992603257323741,3.1228983523148544,0.5074028040051709,-1.7913295495624635,-5.796653415740095E-4,-9.423976500777207E-4,-2.5443965219587133E-4,396766.595257,3.92538015518E-12,1027.48400002,5.0539958566,2.17521615575,-6.76146135523
5940.00000001,-2550364.1343,3524391.28931,5176280.69576,-3792102.13293,-2124671.10633,5179315.31406,2286.43586238,-7212.69146083,-1293.76982917,4.88950108006,2.73953108461,-6.67816080219,6758662.11723,1.45649944865,-0.5531038129250709,-0.05326470662211993,0.6139228431017063,3.095823971580654,0.564236498360555,-1.7756950342349347,-5.8866559718415E-4,-9.366982089674826E-4,-2.5444230807735677E-4,396042.768155,4.13061467529E-12,1037.66151364,4.88950108006,2.73953108461,-6.67816080219
6000.00000001,-2943472.76749,3342808.87618,5086795.06833,-3646223.85764,-2552168.28866,5089732.38875,2574.30100298,-7031.69594127,-1691.18476707,4.70228415407,3.29135592625,-6.56387783486,6758662.11723,1.46087471774,-0.5498692649640351,-0.05358729922679477,0.6281840295720541,3.0682460157097644,0.621072913530654,-1.7613436503984996,-5.975831075285784E-4,-9.309437383467501E-4,-2.5436551066160653E-4,395194.613969,4.35298276682E-12,1047.89658813,4.70228415407,3.29135592625,-6.56387783486
6060.00000001,-3324618.98799,3149164.36069,4973702.25762,-3483423.92288,-2967821.10616,4976528.64844,2850.27242952,-6818.02982845,-2080.82553658,4.49319406585,3.8281290127,-6.41911793876,6758662.11723,1.46524998683,-0.5463737614260429,-0.0542204825720308,0.6420215228854834,3.039967894934218,0.6778732362569888,-1.7483656678957882,-6.064148043778108E-4,-9.251376964597724E-4,-2.542095777364255E-4,394231.907527,4.59112467507E-12,1058.06221171,4.49319406585,3.8281290127,-6.41911793876
6120.00000001,-3692140.40164,2944237.97472,4837522.69291,-3304454.76758,-3369697.92476,4840225.03469,3113.06578376,-6572.67147001,-2460.8822227,4.26318189139,4.34735415755,-6.24452781759,6758662.11723,1.46962525591,-0.5426465336788187,-0.05515420616938206,0.6554146166721695,3.010758772460932,0.7345980890667478,-1.736893500341982,-6.151577329260753E-4,-9.192836156365345E-4,-2.539748795856319E-4,393166.379416,4.84361130426E-12,1068.05264919,4.26318189139,4.34735415755,-6.24452781759
6180.00000001,-4044429.86193,2728848.09142,4678884.08963,-3110144.12077,-3755930.25982,4681449.83629,3361.45673485,-6296.74672878,-2829.5878877,4.01329675464,4.84661229097,-6.04089286716,6758662.11723,1.474000525,-0.5387166858014791,-0.05637606795946409,0.6683444123376748,2.980339817857094,0.7912064405782137,-1.7271145107050219,-6.238090540288246E-4,-9.133850968874732E-4,-2.5366183781095974E-4,392011.533561,5.10893581089E-12,1077.78371233,4.01329675464,4.84661229097,-6.04089286716
6240.00000001,-4379942.61426,2503848.01022,4498518.62547,-2901391.22606,-4124721.48142,4500935.86271,3594.2867292,-5991.52401358,-3185.22680065,3.74468131612,5.32357281808,-5.80913400399,6758662.11723,1.47837579409,-0.5346130326982639,-0.05787143871343799,0.6807939615708279,2.9483646043323057,0.8476541717738688,-1.719289775024488,-6.323660461313242E-4,-9.074458044039437E-4,-2.532709240527328E-4,390782.432571,5.38546365075E-12,1087.18999397,3.74468131612,5.32357281808,-5.80913400399
6300.00000001,-4697203.19389,2270122.6363,4297259.62913,-2679162.72958,-4474355.20112,4299517.13002,3810.46845586,-5658.40863806,-3526.14245756,3.45856680525,5.77600464603,-5.55030385439,6758662.11723,1.48275106318,-0.5303639537264975,-0.0596236073033963,0.6927483972224732,2.9143903789086765,0.9038920824975422,-1.7137820636436185,-6.4082610689879E-4,-9.014694600150555E-4,-2.528026586005825E-4,389495.454263,5.67136269718E-12,1096.22083778,3.45856680525,5.77600464603,-5.55030385439
6360.00000001,-4994812.04601,2028585.06697,4076037.79533,-2444488.24916,-4803203.30081,4078125.0727,4008.99100062,-5298.93652931,-3850.74535382,3.15626761312,6.20178682501,-5.26558231304,6758662.11723,1.48712633227,-0.5259972626992313,-0.06161394458912887,0.7041950505514545,2.8778347329640783,0.959862976714415,-1.7110985014143116,-6.491867545655283E-4,-8.954598375903988E-4,-2.52257608943079E-4,388168.023264,5.96453287662E-12,1104.83630794,3.15626761312,6.20178682501,-5.26558231304
6420.00000001,-5271451.83686,1780173.09724,3835876.94211,-2198455.6443,-5109733.56495,3837784.29759,4188.92466288,-4914.7673109,-4157.52047161,2.83917546489,6.59891874888,-4.95627148337,6758662.11723,1.49150160135,-0.5215400946500264,-0.06382208348810506,0.7151235531605694,2.837908218298584,1.0154971961419066,-1.711957352043768,-6.57445628973406E-4,-8.894207574357952E-4,-2.5163638821613395E-4,386818.322156,6.26254913159E-12,1113.0038162,2.83917546489,6.59891874888,-4.95627148337
6480.00000001,-5525893.42659,1525845.65752,3577889.32859,-1942206.00776,-5392516.87992,3579607.89799,4349.42541091,-4507.67678852,-4445.03444548,2.50875319372,6.96552986174,-4.62379001531,6758662.11723,1.49587687044,-0.5170188093022836,-0.06622611266844895,0.7255259222035443,2.79350598672725,1.0707054551128443,-1.7173958403660858,-6.656004923153615E-4,-8.833560806680996E-4,-2.509396535833346E-4,385464.987041,6.56262603837E-12,1120.69560478,2.50875319372,6.96552986174,-4.62379001531
6540.00000002,-5757001.4749,1266579.19609,3303270.55352,-1676928.40143,-5650233.96527,3304792.3484,4489.73895208,-4079.5488692,-4711.94237066,2.16652814048,7.29988881794,-4.26966685946,6758662.11723,1.50025213953,-0.5124589107230113,-0.0688027812339982,0.7353966278385181,2.743026992121031,1.1253667904383353,-1.7289504656216659,-6.736492295909351E-4,-8.77269703612694E-4,-2.501681045482105E-4,384126.792817,6.86160842013E-12,1127.88702314,2.16652814048,7.29988881794,-4.26966685946
6600.00000002,-5963739.65288,1003364.01964,3013294.05716,-1403854.3599,-5881681.60392,3014612.00232,4609.2043966,-3632.36694881,-4956.9942196,1.81408520624,7.60041204429,-3.89553446009,6758662.11723,1.50462740862,-0.5078849823110563,-0.07152771174819693,0.7447326421286783,2.6840599102921052,1.1793072419962785,-1.7489706442011035,-6.8158984876684E-4,-8.711655522236698E-4,-2.493224812071591E-4,382822.333747,7.15598971722E-12,1134.55542921,1.81408520624,7.60041204429,-3.89553446009
6660.00000002,-6145175.43517,737200.604859,2709305.25092,-1124252.18709,-6085778.34074,2710413.21771,4707.25749461,-3168.20480485,-5179.04083401,1.45305958683,7.86567165523,-3.50312141305,6758662.11723,1.50900267771,-0.5033206358491972,-0.07437561896172463,0.7535334689676755,2.612813646052556,1.232259966001146,-1.7811878066812568,-6.894204806495524E-4,-8.650475765528796E-4,-2.484035624412842E-4,381569.705136,7.44195810878E-12,1140.67952686,1.45305958683,7.86567165523,-3.50312141305
6720.00000002,-6300484.4489,469095.894289,2392715.30112,-839421.071709,-6261569.62072,2393608.13634,4783.43342878,-2689.21703502,-5377.03946085,1.0851292214,8.0944026738,-3.09424461794,6758662.11723,1.51337794679,-0.4987884731313357,-0.07732053167526008,0.7618011548430695,2.523041425852191,1.2837858697045057,-1.8317909457019588,-6.971393784943582E-4,-8.589197452713482E-4,-2.4741216406634755E-4,380386.192012,7.71546883982E-12,1146.23897034,1.0851292214,8.0944026738,-3.09424461794
6780.00000002,-6428954.35731,200059.58982,2064994.59522,-550685.049096,-6408232.34096,2065668.14547,4837.36914588,-2197.62908436,-5550.05880334,0.71200698895,8.28550951414,-2.67080095753,6758662.11723,1.51775321588,-0.49431005838629477,-0.08033601526337586,0.7695402805058725,2.403956172366075,1.333105185961557,-1.9115109141676478,-7.047449173107122E-4,-8.527860402727145E-4,-2.463491369338501E-4,379287.970735,7.97233944067E-12,1151.21408929,0.71200698895,8.28550951414,-2.67080095753
6840.00000002,-6529988.25818,-68899.5431589,1727665.9203,-259386.837224,-6525078.79305,1728117.05171,4868.80521362,-1695.72690678,-5697.28355922,0.335432689132,8.43807168389,-2.23475854054,6758662.11723,1.52212848497,-0.48990589964119247,-0.08339539251698275,0.7767579338341701,2.2363519884521916,1.3787205116576366,-2.0394986428157176,-7.122355929302315E-4,-8.466504513569596E-4,-2.4521536501117E-4,378289.829283,8.20836158832E-12,1155.58556369,0.335432689132,8.43807168389,-2.23475854054
6900.00000002,-6603107.57911,-336777.347722,1382297.38536,33118.42411,-6611559.97539,1382523.99857,4877.58719077,-1185.84630873,-5818.01842161,-0.0428351543324,8.55134866875,-1.78814754743,6758662.11723,1.52650375406,-0.48559543702599034,-0.08647196060555813,0.7834636643934736,1.987582520401835,1.4175832032454452,-2.2483465039791697,-7.196100207989285E-4,-8.405169710171075E-4,-2.4401176341981278E-4,377404.91173,8.41943450714E-12,1159.33446243,-0.0428351543324,8.55134866875,-1.78814754743
6960.00000002,-6647954.45414,-602577.910513,1030495.12036,325469.50147,-6667268.25785,1030496.16065,4863.66650119,-670.362025153,-5911.69151973,-0.421027627629,8.62478396499,-1.33305072162,6758662.11723,1.53087902315,-0.48139703606793943,-0.08953920213981238,0.7896694203343421,1.6200390005655847,1.4437421524217589,-2.575610019308752,-7.268669345320782E-4,-8.343895893533352E-4,-2.427392764649341E-4,376644.492032,8.60172604119E-12,1162.44313616,-0.421027627629,8.62478396499,-1.33305072162
7020.00000002,-6664293.56828,-865317.147179,673895.786178,616305.433341,-6691939.38418,673671.248721,4827.10080469,-151.676579898,-5977.85727953,-0.797373856485,8.65800823011,-0.87159355173,6758662.11723,1.53525429223,-0.47732798403511445,-0.09257098849032948,0.7953894684371028,1.1596483335623193,1.449174149044284,-2.9953095448123603,-7.340051842125212E-4,-8.282722890813322E-4,-2.4139887563868364E-4,376017.781688,8.75183116957E-12,1164.89595985,-0.797373856485,8.65800823011,-0.87159355173
7080.00000002,-6652013.45928,-1124026.32552,314158.930759,904271.902733,-6685453.80103,313709.861003,4768.05386036,367.791015859,-6016.19868723,-1.17010948845,8.65084152626,-0.40593419288,6758662.11723,1.53962956132,-0.47340448757847453,-0.09554177371441627,0.8006402982182268,0.7415808411542493,1.431849799520889,2.910962990056149,-7.410237344830205E-4,-8.221690407099551E-4,-2.399915576270387E-4,375531.775242,8.86691647642E-12,1166.6798577,-1.17010948845,8.65084152626,-0.40593419288
7140.00000002,-6611127.26811,-1377755.514,-47040.7722015,1188027.5863,-6647837.30532,-47712.2831346,4686.79488046,885.616672054,-6026.52894159,-1.53748518371,8.60329463603,0.0617468224194,6758662.11723,1.54400483041,-0.46964167002485746,-0.09842677764759877,0.8054405111420635,0.444894491420258,1.3988648134684962,2.6559472732411993,-7.47921662402995E-4,-8.160837978428014E-4,-2.3851834231838358E-4,375191.136803,8.94484299954E-12,1167.78470353,-1.53748518371,8.60329463603,0.0617468224194
7200.00000002,-6541772.93253,-1625576.94368,-408021.365155,1466250.44943,-6579261.00527,-408912.189932,4583.69737574,1399.38267889,-6008.79248375,-1.89777506955,8.51556943547,0.529257031084,6758662.11723,1.5483800995,-0.46605356697874983,-0.10120215691168039,0.809810696079382,0.24602637946799208,1.3576751243385814,2.499318106289192,-7.546981550975633E-4,-8.100204926420985E-4,-2.3698027079463587E-4,374998.12994,8.9842599549E-12,1168.20364042,-1.89777506955,8.51556943547,0.529257031084
7260.00000002,-6444212.82066,-1866588.27181,-767101.491529,1737643.95686,-6480040.59386,-768207.480951,4459.2374957,1906.68915984,-5963.065397,-2.24928511305,8.38805831438,0.994402589679,6758662.11723,1.55275536859,-0.46265311910011486,-0.1038451628073489,0.8137732922222299,0.10699944610684978,1.3124498271924219,2.403151048735818,-7.613525072320508E-4,-8.03983031444437E-4,-2.3537840336949604E-4,374952.592411,8.98466344125E-12,1167.93334832,-2.24928511305,8.38805831438,0.994402589679
