time,gePosition_m_X,gePosition_m_Y,gePosition_m_Z,eiPosition_m_X,eiPosition_m_Y,eiPosition_m_Z,eiVelocity_m_s_X,eiVelocity_m_s_Y,eiVelocity_m_s_Z,eiAccel_m_s2_X,eiAccel_m_s2_Y,eiAccel_m_s2_Z,semiMajorAxis_m,gast_rad,eulerAngle_rad_Roll,eulerAngle_rad_Pitch,eulerAngle_rad_Yaw,eulerAngleWrtEi_rad_Roll,eulerAngleWrtEi_rad_Pitch,eulerAngleWrtEi_rad_Yaw,bodyAngularRateWrtEi_rad_s_Roll,bodyAngularRateWrtEi_rad_s_Pitch,bodyAngularRateWrtEi_rad_s_Yaw,altitudeMsl_m,airDensity_kg_m3,ambientTemperature_dgK,eiGravitation_m_s2_X,eiGravitation_m_s2_Y,eiGravitation_m_s2_Z
0.0,-1428622.31112709,4163200.4655738,5136049.67204027,-4292653.41,955168.47,5139356.57,109.649663,-7527.72649,1484.521489,5.5289865693572,-1.23026788740987,-6.61954989994585,6758662.11722884,1.02331944621101,-0.0,-0.202458193231342,-0.0,-2.4715939053549,-0.0371889644761344,-1.42899313488854,0.0,-0.0011344542745508,0.0,398252.763838142,3.1122E-12,976.192653674721,5.5289865693572,-1.23026788740987,-6.61954989994585
60.0,-1789712.64876688,3920255.3134273,5213136.60397904,-4276130.76360613,501640.15063872,5216447.94770978,440.899504425955,-7584.04304560366,1084.18939672292,5.50841669093322,-0.646201702281534,-6.71971240615587,6758662.11722887,1.02769471546425,-2.364808184E-6,-0.202456042600789,-1.006005757945E-4,-2.47205929639209,0.0161204236657014,-1.38666117967647,-7.049068604E-7,-0.0011344779878485,-3.3028523725E-6,398335.161468169,3.2024E-12,983.369143358291,5.50841669093322,-0.646201702281534,-6.71971240615587
120.0,-2144732.0333194,3662345.3126043,5266057.24088062,-4239785.46485071,45786.449266332,5269357.68010073,770.149856360686,-7605.20775889381,678.777242699508,5.46236021841803,-0.0589893241270332,-6.78881750197499,6758662.11722883,1.0320699847175,-2.51189964817E-5,-0.202449046743113,-4.002575026433E-4,-2.47030794868962,0.069280295155486,-1.34410218243724,-1.5682193696E-6,-0.0011344959082197,-6.6150804443E-6,398280.483168024,3.312E-12,991.275655191297,5.46236021841803,-0.0589893241270332,-6.78881750197499
180.0,-2492166.12299056,3390599.0029,5294562.85672707,-4183783.25764152,-410279.480789291,5297837.08956815,1095.87688042975,-7591.11290731489,270.159254331849,5.39101509822693,0.52866574084301,-6.82652947798943,6758662.11722882,1.03644525395931,-9.1796909114E-5,-0.202436413480054,-8.945341280153E-4,-2.46631584574527,0.122194572973341,-1.30107628427383,-2.5897433372E-6,-0.0011345075693188,-9.9359390526E-6,398085.3786748,3.4417E-12,999.861374013802,5.39101509822693,0.52866574084301,-6.82652947798943
240.0,-2830524.93283794,3106195.85223943,5298517.62697299,-4108380.89026465,-864442.894077516,5301750.47079899,1416.5720940025,-7541.81319429643,-139.77448384783,5.29469509567264,1.11405482451904,-6.83265572642931,6758662.11722884,1.04082052320969,-2.259016321156E-4,-0.202417401639533,-0.0015773854989592,-2.46003131186148,0.174763491620489,-1.25733917145186,-3.7692476845E-6,-0.0011345124437284,-1.32646764019E-5,397748.768104346,3.5916E-12,1009.03826093396,5.29469509567264,1.11405482451904,-6.83265572642931
300.0,-3158349.27068251,2810361.12607352,5277899.32207647,-4013924.98616908,-1314597.20057467,5281075.78379538,1730.74928789973,-7457.52569377281,-549.126655787512,5.17382866282785,1.69447627941292,-6.80714795491088,6758662.11722881,1.04519579246293,-4.507912578842E-4,-0.202391343697663,-0.0024411868488052,-2.45137463957029,0.226881529199867,-1.21263857867943,-5.1064639077E-6,-0.0011345099435635,-1.66005334892E-5,397271.883714379,3.7614E-12,1018.68603174665,5.17382866282785,1.69447627941292,-6.80714795491088
360.0,-3474217.0876188,2504360.59818322,5232799.48200484,-3900850.50203112,-1758653.68795,5235904.82755069,2036.95136094463,-7338.62906255864,-956.00139364551,5.02895729882105,2.26724769265305,-6.75010277495461,6758662.1172288,1.04957106170188,-7.895653599697E-4,-0.202357665935199,-0.0034767697023755,-2.44023743015857,0.278435208532751,-1.16671093064184,-6.6010854758E-6,-0.001134499421153,-1.9942743537E-5,396658.271816294,3.9505E-12,1028.66356558606,5.02895729882105,2.26724769265305,-6.75010277495461
420.0,-3776749.7157209,2189495.1251204,5163423.06959608,-3769678.77900142,-2194551.17459278,5166442.89226163,2333.75704093037,-7185.6620201973,-1358.5129738363,4.86073340379137,2.82971808104516,-6.66176165594907,6758662.11722882,1.05394633095227,-0.0012649521691088,-0.202315905355336,-0.0046734654282475,-2.42648177762254,0.329300715754733,-1.11927819435689,-8.252767164E-6,-0.0011344801697988,-2.32905314375E-5,395913.754633969,4.1579E-12,1038.82359594937,4.86073340379137,2.82971808104516,-6.66176165594907
480.0,-4064617.96585945,1867095.10630415,5070087.60293968,-3621015.19485927,-2620265.54951359,5073007.89024476,2619.7874617098,-6999.32109896086,-1754.79449109399,4.66991762971392,3.37928001560926,-6.54251023745084,6758662.11722886,1.05832160020265,-0.0018991969576234,-0.202265722683112,-0.0060191560236244,-2.40993949275385,0.379341291876588,-1.07004508713299,-1.00611243258E-5,-0.0011344514246144,-2.66431132077E-5,395046.352534709,4.3822E-12,1049.02643605174,4.66991762971392,3.37928001560926,-6.54251023745084
540.0,-4336548.05765017,1538514.85367808,4953221.76924825,-3455546.42660972,-3033819.1554875,4956028.9680342,2893.71256636816,-6780.45766980691,-2143.00647189947,4.45737573340151,3.91338162296548,-6.39287699509342,6758662.11722893,1.06269686945303,-0.0027139521541114,-0.202206910856821,-0.0075003318777319,-2.39041166284383,0.428404365850198,-1.01869688984379,-1.20257321061E-5,-0.0011344123634425,-2.99996954594E-5,394066.16768517,4.6222E-12,1059.14947100887,4.45737573340151,3.91338162296548,-6.39287699509342
600.0,-4591327.35512146,1205126.89368974,4813363.52501608,-3274037.3348504,-3433289.97224998,4816044.60446428,3154.25730682291,-6530.07425328215,-2521.34538840932,4.22407493918389,4.42953841007283,-6.21353125792587,6758662.11722894,1.06707213870913,-0.0037301697224377,-0.202139398527372,-0.0091021562247331,-2.36766898474829,0.476318421246715,-0.964898263413453,-1.41461245971E-5,-0.0011343621078543,-3.33594748843E-5,392985.230809613,4.8764E-12,1069.09131825969,4.22407493918389,4.42953841007283,-6.21353125792587
660.0,-4827809.88150349,868316.225201669,4651157.68959356,-3077327.48299947,-3816820.55719276,4653700.20187414,3400.20761071366,-6249.32012759414,-2888.05203397396,3.97107982105512,4.92534485815692,-6.00528057770761,6758662.11722897,1.0714474079538,-0.0049679963470527,-0.202063248200158,-0.0108085359672361,-2.34145350562307,0.522889629251059,-0.908293668414527,-1.64217939409E-5,-0.0011342997242303,-3.67216377576E-5,391817.313344238,5.1433E-12,1078.7715032867,3.97107982105512,4.92534485815692,-6.00528057770761
720.0,-5044921.58717981,529474.557546531,4467353.04163684,-2866327.30620534,-4182626.70183817,4469745.17990409,3630.41608710307,-5939.48624933574,-3241.41972144966,3.69954771645439,5.39848573122372,-5.76906745354871,6758662.11722898,1.07582267720419,-0.0064466719695716,-0.201978648783574,-0.0126021985270696,-2.31148266273773,0.567898347227422,-0.84851024962313,-1.88521893815E-5,-0.0011342242249244,-4.00853594607E-5,390577.707881745,5.4213E-12,1088.12741165133,3.69954771645439,5.39848573122372,-5.76906745354871
780.0,-5241665.34592555,189994.551533034,4262798.93021112,-2642013.94644413,-4529005.76339734,4265029.58367307,3843.80744331259,-5601.99950563094,-3579.80226580135,3.41072368629182,5.84674704437561,-5.50596541829295,6758662.11722894,1.08019794645171,-0.00818443221818,-0.201885902445972,-0.0144647743609254,-2.27745682365638,0.61109568578895,-0.785164361490176,-2.14367162689E-5,-0.001134134569512,-4.34498040266E-5,389282.980377661,5.7085E-12,1097.11022049672,3.41072368629182,5.84674704437561,-5.50596541829295
840.0,-5417125.65492679,-148735.911961008,4038441.41462094,-2405426.77194363,-4854344.63194301,4040500.22042338,4039.38358616868,-5238.41631975528,-3901.62171297128,3.10593503833543,6.26802663725425,-5.21717449618087,6758662.11722895,1.08457321569067,-0.0101984152611626,-0.201785405826093,-0.0163768847648758,-2.23907185201206,0.652200499964049,-0.71787323806903,-2.41747350201E-5,-0.001134029666123,-4.68141237082E-5,387950.698134415,6.0029E-12,1105.68096071401,3.10593503833543,6.26802663725425,-5.21717449618087
900.0,-5570473.01547434,-485339.412664834,3795318.94930193,-2157662.60064381,-5157127.29514867,3797196.34098099,4216.22838203827,-4850.41563555375,-4205.37577765728,2.7865854336178,6.66034429835598,-4.90401604458787,6758662.11722896,1.08894848494105,-0.012504573597883,-0.20167762578742,-0.0183182345823849,-2.19603846560858,0.690897369724399,-0.646273555555516,-2.70655600399E-5,-0.001133908372861,-5.01774585723E-5,386599.138079688,6.3018E-12,1113.80733938154,2.7865854336178,6.66034429835598,-4.90401604458787
960.0,-5700967.97210349,-818454.597994031,3534557.63232429,-1899870.64890394,-5435941.96416277,3536244.88459677,4373.51205128819,-4439.79130921346,-4489.6449535128,2.45414859808208,7.02185138672565,-4.56792699598511,6758662.11722897,1.09332375419143,-0.0151175912746989,-0.201563070051994,-0.0202677094254314,-2.14811012464414,0.726836396504885,-0.570048609285883,-3.01084586058E-5,-0.0011337694993105,-5.3538936122E-5,385246.980300878,6.6025E-12,1121.46132185438,2.45414859808208,7.02185138672565,-4.56792699598511
1020.0,-5807964.78929802,-1146741.69255305,3257366.0382143,-1633247.22808712,-5689487.72599526,3258855.3078914,4510.49517421355,-4008.44394012615,-4753.09926035203,2.11016166424597,7.35083989865653,-4.21045351969828,6758662.117229,1.09769902344753,-0.018031157907207,-0.201440737495472,-0.022202998460621,-2.0951023141754,0.759635595422994,-0.488967367204439,-3.13287379716E-5,-0.0011334621612064,-5.68336344602E-5,383912.992172884,6.9017E-12,1128.61758947139,2.11016166424597,7.35083989865653,-4.21045351969828
1080.0,-5890914.74618771,-1468887.88854309,2965029.65788749,-1359030.21298398,-5916580.68979203,2966314.02071485,4626.53228704321,-3558.37217567435,-4994.50459422186,1.75621817019126,7.64575092852467,-3.83324412651147,6758662.11722893,1.10207429269791,-0.0210004181971554,-0.201291479687761,-0.0241032580507072,-2.0367368853756,0.788878917248548,-0.40295082993143,-2.87599424532E-5,-0.0011328472728723,-6.0013472435E-5,382615.708710365,7.1959E-12,1135.25254461002,1.75621817019126,7.64575092852467,-3.83324412651147
1140.0,-5949369.0312497,-1783612.5943091,2658904.97049029,-1078493.30727021,-6116159.59655273,2659978.45373574,4721.07504834272,-3091.66352777368,-5212.72864769034,1.39396074566216,7.90518247477936,-3.43804224265412,6758662.11722895,1.10644956193401,-0.0239538721964178,-0.20110994226514,-0.0259680255400061,-1.97307890542477,0.814128766642191,-0.312078191168104,-2.63539878431E-5,-0.0011322298369129,-6.32141417023E-5,381373.114973407,7.4812E-12,1141.34373969863,1.39396074566216,7.90518247477936,-3.43804224265412
1200.0,-5982981.22062771,-2089672.51982012,2340413.17385551,-792940.132318386,-6287290.86420417,2341270.7844855,4793.67495799488,-2610.48474187409,-5406.74636939725,1.02507351744905,8.12789654441039,-3.02667828318415,6758662.11722899,1.11082483119011,-0.0268985396205168,-0.200896910421274,-0.0278001492356132,-1.90450318157673,0.834952738369814,-0.216659240442192,-2.41110196375E-5,-0.0011316098965085,-6.64348649269E-5,380202.336445099,7.7535E-12,1146.86955458213,1.02507351744905,8.12789654441039,-3.02667828318415
1260.0,-5991509.32500534,-2385866.5794125,2011033.60207702,-503698.16669436,-6429173.042467,2011671.35038273,4843.98561293818,-2117.07176184575,-5575.64493381733,0.651274268517162,8.31282551191723,-2.60106125820466,6758662.11722899,1.11520010044049,-0.0298417290210197,-0.200653228635087,-0.0296019044428882,-1.83166186742139,0.850949420697931,-0.11728363211602,-2.20311449102E-5,-0.0011309874290676,-6.96748685746E-5,379119.343271715,8.0086E-12,1151.80897714089,0.651274268517162,8.31282551191723,-2.60106125820466
1320.0,-5974817.39272324,-2671040.59001858,1672296.86038922,-212112.56455431,-6541140.6546351,1672711.77894476,4871.76448597512,-1613.71933672153,-5718.62819429269,0.274306387483965,8.45907769192004,-2.16316994869345,6758662.117229,1.11957536967945,-0.0327909985307652,-0.200379795648344,-0.0313749831300277,-1.75549550188527,0.861778768985474,-0.0148314375618736,-2.01144325106E-5,-0.0011303623458547,-7.29333823433E-5,378138.674100816,8.2422E-12,1156.14131746527,0.274306387483965,8.45907769192004,-2.16316994869345
1380.0,-5932876.65781449,-2944091.74744898,1325777.70908434,80460.1180872135,-6622667.40621776,1325967.86694114,4876.8742162195,-1102.7703176167,-5835.02059469547,-0.104069352975052,8.56594208806799,-1.715043691941,6758662.11722896,1.12395063893269,-0.0357541152547612,-0.200077558833026,-0.0331204865422498,-1.6772014314414,0.867192858706692,0.0895588926491663,-1.8360913183E-5,-0.0011297344917031,-7.62096385795E-5,377273.184967215,8.4502E-12,1159.84640445432,-0.104069352975052,8.56594208806799,-1.715043691941
1440.0,-5865766.22382437,-3203972.86290322,973087.729604974,372658.259632584,-6673368.74335871,973052.241648627,4859.28340212075,-586.604695271457,-5924.27051757402,-0.482083148432695,8.63289228480459,-1.25877281964979,6758662.11722899,1.12832590818593,-0.0387390135075899,-0.19974750793576,-0.0348389207841481,-1.59815515511179,0.867061281188548,0.194569623613471,-1.67705796032E-5,-0.0011291036448113,-7.95028716822E-5,376533.828260442,8.6288E-12,1162.90556110442,-0.482083148432695,8.63289228480459,-1.25877281964979
1500.0,-5773673.27712897,-3449696.34164391,615867.807197708,663121.541664056,-6693003.74702991,615606.838616801,4819.06689047301,-67.6284305422186,-5985.9530493058,-0.857964603812728,8.65958945282898,-0.796488794607543,6758662.11722899,1.13270117743631,-0.0417537521054161,-0.199390668184212,-0.0365301953764623,-1.51979442252551,0.86138547612658,0.29882006406588,-1.53433863354E-5,-0.0011284695166218,-8.28123174973E-5,375929.466263016,8.7746E-12,1165.30237071448,-0.857964603812728,8.65958945282898,-0.796488794607543
1560.0,-5656892.82461752,-3680337.88927615,255780.465598208,950497.319819383,-6681476.35218847,255295.231437642,4756.40555737188,451.73786822014,-6019.77214561535,-1.22995122006623,8.64588444371375,-0.330354094468689,6758662.11722897,1.13707644668384,-0.0448064709265508,-0.199008092739794,-0.0381936247817007,-1.44348944408925,0.850298433218354,0.400996774492036,-1.40792497075E-5,-0.0011278317517848,-8.61372127022E-5,375466.723088685,8.8849E-12,1167.02323326331,-1.22995122006623,8.64588444371375,-0.330354094468689
1620.0,-5515826.95340565,-3895039.9308628,-105497.909872624,1233446.96624131,-6638835.88436154,-106205.150077749,4671.58557970746,969.070365641116,-6025.56218379897,-1.59629688216489,8.5918189540851,0.137448106468298,6758662.11722896,1.14145171592279,-0.0479053469594374,-0.198600854482547,-0.0398279328812071,-1.37042802589276,0.834049834129337,0.499968848755116,-1.29780476055E-5,-0.0011271899282036,-8.94767941854E-5,375149.878083675,8.9577E-12,1168.05779321931,-1.59629688216489,8.5918189540851,0.137448106468298
1680.0,-5350983.61257858,-4093014.72954424,-466284.923695406,1510652.1530577,-6565276.90947246,-467210.876185622,4564.99719846212,1481.95346135839,-6003.28889111467,-1.95528030341496,8.49762574499596,0.604724404554614,6758662.11722895,1.14582698517889,-0.0510585500600224,-0.198170037117582,-0.0414312603751604,-1.30153858762746,0.812980313479055,0.594865316977211,-1.20396191893E-5,-0.0011265435571643,-9.28302984203E-5,374980.802903324,8.9916E-12,1168.39927877386,-1.95528030341496,8.49762574499596,0.604724404554614
1740.0,-5162974.91843944,-4273547.19386603,-824900.058379691,1780821.04650638,-6461138.39612124,-826040.410293359,4437.13297779464,1987.99123663926,-5953.04964202478,-2.30521338066818,8.36372790758928,1.0692817285131,6758662.11722893,1.15020225442927,-0.0542741986424013,-0.197716725598073,-0.043001175065959,-1.23746032407118,0.78749058188716,0.685105415289144,-1.1263764528E-5,-0.0011258920835477,-9.61969608372E-5,374958.943562422,8.9864E-12,1168.04477903315,-2.30521338066818,8.36372790758928,1.0692817285131
1800.0,-4952514.98876372,-4435997.36205582,-1179672.56155015,2042694.38163965,-6326902.19296386,-1181022.00083517,4288.58556662327,2484.81882823115,-5875.07312029932,-2.64444941490613,8.1907371718141,1.52893793960155,6758662.11722894,1.15457752367966,-0.0575603155269473,-0.197241995867327,-0.0445346849749301,-1.17855559214017,0.758011111720114,0.770386646894125,-1.06502441583E-5,-0.001125234886126,-9.95760151945E-5,375081.347804565,8.9425E-12,1166.99547821383,-2.64444941490613,8.1907371718141,1.52893793960155
1860.0,-4720417.31177547,-4579802.55599024,-1528949.29377129,2295051.38802784,-6163190.82727827,-1530501.53379618,4120.04497214574,2970.11367207645,-5769.71834537809,-2.97139115191287,7.97945126076767,1.9815324132759,6758662.11722897,1.15895279293004,-0.0609247841688091,-0.196746903932003,-0.0460282542320591,-1.1249508757398,0.724976470412136,0.850644289080951,-1.01987785666E-5,-0.0011245712779424,-1.02966692952E-4,375342.73717172,8.8612E-12,1165.25686060381,-2.97139115191287,7.97945126076767,1.9815324132759
1920.0,-4467591.65945038,-4704479.19686224,-1871102.49905694,2536715.53752901,-5970764.63423897,-1872850.30780825,3932.29535743579,3441.6065598536,-5637.47306582436,-3.28449859833492,7.73085029914256,2.4249365448675,6758662.11722899,1.16332806216899,-0.064375305486871,-0.196232474289677,-0.0474778216686892,-1.07659089567767,0.688806239923695,0.925997786363153,-9.9090475954E-6,-0.0011239005067756,-1.063682226467E-4,375735.622207122,8.7448E-12,1162.83889605431,-3.28449859833492,7.73085029914256,2.4249365448675
1980.0,-4195040.55666981,-4809624.27685717,-2204537.46028362,2766560.08600013,-5750518.22982524,-2206472.69401429,3726.21137791165,3897.09245199399,-5478.95152615822,-3.58229656936021,7.4460922902021,2.85706412166967,6758662.117229,1.16770333142223,-0.0679193555087614,-0.195699687746704,-0.0488788220335356,-1.03329350338296,0.649892647388388,0.996696399183212,-9.7806897782E-6,-0.001123221755689,-1.097798292757E-4,376250.458318801,8.596E-12,1159.75621270568,-3.58229656936021,7.4460922902021,2.85706412166967
2040.0,-3903855.31899984,-4894916.48363007,-2527700.00220742,2983513.3817907,-5503476.34364012,-2529813.64337879,3502.75407406107,4334.44099186723,-5294.89161680589,-3.86338192552636,7.12650768163134,3.27588150414579,6758662.11722902,1.17207860067547,-0.0716429287701984,-0.195155600209486,-0.0502271561629083,-0.994873778753183,0.60858948730458,1.06307692562404,-1.37601279156E-5,-0.00112282835351,-1.133262474248E-4,376875.838993535,8.4182E-12,1156.02826133882,-3.86338192552636,7.12650768163134,3.27588150414579
2100.0,-3595211.67602848,-4960116.97407085,-2839083.80546986,3186563.91497868,-5230789.03119491,-2841366.00480917,3262.96634031037,4751.60666722407,-5086.15142031892,-4.1264304577897,6.77359304645847,3.67941755972944,6758662.11722901,1.17645386991157,-0.0758108365405523,-0.19462039880883,-0.0515083032530325,-0.961274603544935,0.565212815885013,1.12553887474286,-1.98642615791E-5,-0.0011225454219786,-1.169236485143E-4,377598.722302018,8.2153E-12,1151.67947389085,-4.1264304577897,6.77359304645847,3.67941755972944
2160.0,-3270364.99776836,-5005069.79715692,-3137237.49586789,3374765.08257431,-4933726.28839849,-3139677.61834287,3007.96799231993,5146.63856673043,-4853.70517037444,-4.37020338193555,6.38900391094964,4.06577329388592,6758662.11722906,1.1808291391591,-0.0804521621093789,-0.194094974185706,-0.0526910010985297,-0.93219546977881,0.520065065268727,1.18449131196828,-2.61163230476E-5,-0.0011222183014501,-1.205040739822E-4,378404.685995256,7.9915E-12,1146.73941664901,-4.37020338193555,6.38900391094964,4.06577329388592
2220.0,-2930645.14339684,-5029701.96720964,-3420771.47425171,3547239.64632245,-4613672.0940596,-3423358.14874461,2738.95045725709,5517.68968150628,-4598.63864334116,-4.59355340567688,5.97454676689681,4.43313112473822,6758662.11722905,1.18520440840948,-0.0855741222609723,-0.193578271618573,-0.0537430797129456,-0.90732405311478,0.473415580916037,1.24034231422021,-3.25146021643E-5,-0.0011218446350082,-1.240663147539E-4,379278.20597086,7.751E-12,1141.24293547986,-4.59355340567688,5.97454676689681,4.43313112473822
2280.0,-2577450.95559301,-5034023.1890373,-3688364.4536949,3703183.8612728,-4272117.90914548,-3691085.62614034,2457.17111372191,5863.02570398799,-4322.14400535768,-4.79543033434893,5.53217031097946,4.77976374961544,6758662.11722905,1.18957967766558,-0.0911816305772738,-0.193068777345107,-0.0546323450767138,-0.886368462613683,0.425502771278244,1.29348787818481,-3.90573074381E-5,-0.001121422052832,-1.276091401938E-4,380202.952497485,7.4981E-12,1135.23028469051,-4.79543033434893,5.53217031097946,4.77976374961544
2340.0,-2212244.42325245,-5018125.2398008,-3938769.67204942,3841871.25494627,-3910655.66432023,-3941612.66178343,2163.94730996203,6181.03327914375,-4025.51414089648,-4.97488618394351,5.06395595884157,5.10404255434567,6758662.11722905,1.1939549469131,-0.097277266500733,-0.192564453055432,-0.0553267441811886,-0.869064968630773,0.376538128669357,1.34430528855149,-4.57425643973E-5,-0.0011209481760631,-1.311312986012E-4,381162.098326338,7.2371E-12,1128.74722066978,-4.97488618394351,5.06395595884157,5.10404255434567
2400.0,-1836544.53879732,-4982181.01278231,-4170820.74964127,3962656.0386994,-3530970.26989712,-4173772.30869328,1860.65009079793,6470.22766607027,-3710.13649165393,-5.13107977330633,4.57210768612703,5.40444551895833,6758662.11722903,1.19833021615206,-0.10386125468348,-0.192062675191227,-0.0557945316080632,-0.855181985425107,0.326710275997271,1.39315036372969,-5.25684140445E-5,-0.0011204206207886,-1.34631517785E-4,382138.632693792,6.9721E-12,1121.84502408977,-5.13107977330633,4.57210768612703,5.40444551895833
2460.0,-1451920.876792,-4926443.23047299,-4383437.16367372,4064976.13476226,-3134831.6847598,-4386483.53871902,1548.69766527187,6729.25977126165,-3377.48643729296,-5.26328077061895,4.05894125292038,5.67956457666304,6758662.11722904,1.2027054854053,-0.110931454418924,-0.191560181054008,-0.0560044369246759,-0.84452162394084,0.27618883093783,1.44035727896261,-5.95328114253E-5,-0.0011198370021352,-1.381085057192E-4,383115.675220448,6.7067E-12,1114.58038820284,-5.26328077061895,4.05894125292038,5.67956457666304
2520.0,-1059986.92219812,-4851242.83558609,-4575629.31287015,4148355.80438889,-2724086.58302654,-4578756.30954747,1229.54864842329,6956.92251834345,-3029.12025204798,-5.37087317276826,3.52687287180051,5.92811238649638,6758662.11722906,1.20708075465283,-0.118483358894518,-0.191053023666349,-0.0559258320964998,-0.836919773700076,0.225127992703937,1.48624002317293,-6.66336243173E-5,-0.0011191949384705,-1.415609512799E-4,384076.783833767,6.4444E-12,1107.01507606967,-5.37087317276826,3.52687287180051,5.92811238649638
2580.0,-662393.179166488,-4756987.06967161,-4746503.14799752,4212407.8646,-2300649.65923339,-4749696.19728514,904.695111768889,7152.15652277818,-2666.66767346598,-5.45335819983568,2.97840738299949,6.14892848384064,6758662.11722907,1.21145602389464,-0.126510103967039,-0.190536537226119,-0.05552889802842,-0.832245381250252,0.17366982768995,1.53109483619163,-7.38686320521E-5,-0.0011184920557066,-1.44987525065E-4,385006.251072346,6.1884E-12,1099.21521217583,-5.45335819983568,2.97840738299949,6.14892848384064
2640.0,-260820.090419522,-4644157.25109703,-4895264.34614737,4256835.48310176,-1866494.61458587,-4898508.57248131,575.655478019826,7314.05504394427,-2291.82412158403,-5.51035659068179,2.41612600293897,6.34098477708032,6758662.11722906,1.21583129314788,-0.135002486145927,-0.190005314847049,-0.0547847892494218,-0.830399371326305,0.121947272223645,1.57520319139081,-8.12355244794E-5,-0.0011177259917002,-1.483868802956E-4,385889.383457114,5.9412E-12,1091.25004959984,-5.51035659068179,2.41612600293897,6.34098477708032
2700.0,143029.200640046,-4513306.26484232,-5021222.0090031,4281433.54311999,-1423644.86836366,-5024502.29981305,243.967296295855,7441.86819103667,-1906.34260862108,-5.54161028941853,1.8426737146673,6.50339036292982,6758662.11722904,1.22020656239826,-0.14394898947752,-0.18945320009082,-0.0536657956544582,-0.831313496246187,0.0700868936767682,1.6188350437856,-8.87319010823E-5,-0.0011168944007423,-1.517576538011E-4,386712.759026604,5.7051E-12,1083.19007167143,-5.54161028941853,1.8426737146673,6.50339036292982
2760.0,547436.21160298,-4365055.77786721,-5123791.86777146,4286089.57207991,-974164.039852042,-5127092.94410331,-88.8200654070877,7535.00636340341,-1512.02538077689,-5.54698351641569,1.26074637043157,6.6353956373971,6758662.11722904,1.22458183164864,-0.153335821053088,-0.188873293569191,-0.0521455001177034,-0.834949285076093,0.0182114624898239,1.66225216799232,-9.6355270254E-5,-0.0011159949581318,-1.550984670862E-4,387464.458614429,5.4818E-12,1075.10438442342,-5.54698351641569,1.26074637043157,6.6353956373971
2820.0,950674.573836446,-4200093.19507742,-5202498.97998936,4270784.23027696,-520146.247208985,-5205805.46787883,-421.15277347353,7593.04291018305,-1110.71533497795,-5.52646322133994,0.673077577775959,6.73639568389456,6758662.11722905,1.22895710090188,-0.163146954915232,-0.18825797563276,-0.0501989306974642,-0.841297183056544,-0.0335576079987556,1.70571147577932,-1.04103048745E-4,-0.0011150253648239,-1.584079274811E-4,388134.266986495,5.2727E-12,1067.0575582423,-5.52646322133994,0.673077577775959,6.73639568389456
2880.0,1351017.54215959,-4019168.37169611,-5256979.90601575,4235591.3579072,-63706.2704566121,-5260276.40827409,-751.479890591863,7615.71599841328,-704.287254380612,-5.48015891954017,0.0824254411658065,6.80593292462789,6758662.11722903,1.23333237013798,-0.173364184207438,-0.187598945869965,-0.0478027060712449,-0.850375911805648,-0.0850978967859882,1.74946823841265,-1.119725612905E-4,-0.0011139833521454,-1.616846293721E-4,388713.840538909,5.0787E-12,1059.10635733756,-5.48015891954017,0.0824254411658065,6.80593292462789
2940.0,1746745.52681707,-3823090.09901963,-5286984.35566802,4180677.58104461,393030.373694563,-5290255.52373987,-1078.26070947834,7602.92968310498,-294.638907134816,-5.40830191683057,-0.508440768803242,6.84369902603605,6758662.11722903,1.23770763938837,-0.183967181496834,-0.18688727982073,-0.0449351727750483,-0.862232032033004,-0.136283630706474,1.79377915062231,-1.199610404249E-4,-0.0011128666865678,-1.649271555136E-4,389196.83887576,4.9E-12,1051.29704197727,-5.40830191683057,-0.508440768803242,6.84369902603605
3000.0,2136153.61456935,-3612722.3808703,-5292376.2981441,4106301.479354,847937.397219235,-5295606.90369749,-1399.97202194823,7554.75417708781,116.317946673517,-5.31124393135566,-1.09675394702352,6.84953605367844,6758662.11722904,1.24208290863875,-0.194933567294327,-0.186113502969409,-0.0415765327802048,-0.876939644561541,-0.186983309864862,1.83890516396721,-1.280656264936E-4,-0.0011116731745293,-1.681340784191E-4,389579.018227837,4.7368E-12,1043.66396878157,-5.31124393135566,-1.09675394702352,6.84953605367844
3060.0,2517559.04336611,-3388980.51939098,-5273134.53107079,4012812.32049638,1298897.69837611,-5276309.53698159,-1715.11528750719,7471.4253227025,526.666594844423,-5.18945512471062,-1.67976241572116,6.82343687652494,6758662.11722907,1.2464581778777,-0.206238986893979,-0.185267681727282,-0.0377089599298264,-0.894600114967892,-0.237057259640907,1.88511398832317,-1.362833678691E-4,-0.0011104006672939,-1.713039618289E-4,389858.285331199,4.5885E-12,1036.22993227441,-5.18945512471062,-1.67976241572116,6.82343687652494
3120.0,2889308.59736021,-3152827.02902276,-5229352.70721779,3900648.36831084,1743813.26381001,-5232457.33761456,-2022.22366646689,7353.34327160783,934.494414724551,-5.04352155781167,-2.25474304740578,6.76554482505608,6758662.11722909,1.25083344713094,-0.217857195746408,-0.184339530752756,-0.0333167037801654,-0.915341645203538,-0.286355076669153,1.93268210975924,-1.44611221378E-4,-0.0011090470658371,-1.744353622539E-4,390034.711051019,4.4547E-12,1029.00816025733,-5.04352155781167,-2.25474304740578,6.76554482505608
3180.0,3249785.88900021,-2905267.39768537,-5161238.82010046,3770334.77392579,2180614.96793476,-5164258.6291408,-2319.86888361335,7201.07038306276,1337.90187217558,-4.87414209013697,-2.8190141817371,6.676152611891,6758662.11722909,1.25520871638133,-0.22976015366235,-0.183318535594527,-0.0283861794548056,-0.939318435602794,-0.334712952909221,1.98189609835151,-1.530460529469E-4,-0.0011076103257478,-1.775268305922E-4,390110.503703828,4.3343E-12,1022.0053607684,-4.87414209013697,-2.8190141817371,6.676152611891
3240.0,3597418.49436665,-2647345.71556312,-5069114.15234606,3622481.06095598,2607272.22311576,-5072035.09140276,-2606.66788966231,7015.32835500632,1735.01143396727,-4.6821247438661,-3.36994827148201,6.5557005277888,6758662.11722909,1.25958398563171,-0.241918128204018,-0.182194089287027,-0.0229060422251938,-0.966709077043165,-0.381950887819922,2.03305287727444,-1.615846384719E-4,-0.0011060884621321,-1.805769138156E-4,390089.942695625,4.2266E-12,1015.22498710971,-4.6821247438661,-3.36994827148201,6.5557005277888
3300.0,3930684.91033609,-2380140.19098516,-4953411.69330459,3457778.21786699,3021802.43514517,-4956220.17624809,-2881.2892891083,6796.99460606673,2123.97635060154,-4.46838255711736,-3.90498419548339,6.40477392978706,6758662.11722906,1.26395925488209,-0.254299807656604,-0.180955641186145,-0.0168672456813411,-0.997713682478655,-0.427869838118421,2.08645849317059,-1.702236649182E-4,-0.0011044795545079,-1.835841567228E-4,389979.273747649,4.1305E-12,1008.67000825432,-4.46838255711736,-3.90498419548339,6.40477392978706
3360.0,4248121.30189623,-2104758.57380907,-4814674.03493072,3276995.41242787,3422280.21970103,-4817357.00120441,-3142.45950460107,6547.09793026495,2502.98926769107,-4.23392895290099,-4.42163917965244,6.22410004191866,6758662.11722904,1.26833452412105,-0.266872423973166,-0.179592856014301,-0.010263082553016,-1.03254911220548,-0.472248913093695,2.14242477093305,-1.789597316539E-4,-0.0011027817516769,-1.865471037568E-4,389786.567620952,4.0449E-12,1002.34480000736,-4.23392895290099,-4.42163917965244,6.22410004191866
3420.0,4548328.00928642,-1822333.50678985,-4653550.75743573,3080976.34491468,3806846.33689109,-4656095.73263202,-3388.96864964488,6266.81344961684,2870.29062534671,-3.97987265256373,-4.91752027038839,6.01454409236431,6758662.11722905,1.27270979337429,-0.279601886049026,-0.178095780795538,-0.0030892074826253,-1.07144148241025,-0.514842806847298,2.20126306863971,-1.877893520212E-4,-0.0011009932765593,-1.894643008815E-4,389521.544868114,3.969E-12,996.256103343861,-3.97987265256373,-4.91752027038839,6.01454409236431
3480.0,4829975.78627297,-1534017.82434583,-4470795.31859513,2870635.25836753,4173716.30259295,-4473190.47225278,-3619.67608320143,5957.45689306545,3224.17680655454,-3.70741216438568,-5.39033530847363,5.77710481403167,6758662.11722903,1.27708506262181,-0.292452923602376,-0.176455017110732,0.00465635866721,-1.11461500720648,-0.555379771841321,2.26327420625767,-1.967089551491E-4,-0.0010991124309786,-1.923342975134E-4,389195.369730048,3.9017E-12,990.413208361755,-3.70741216438568,-5.39033530847363,5.77710481403167
3540.0,5091811.74116184,-1240979.81993645,-4267261.46288673,2646952.62573247,4521188.63709865,-4269495.66324399,-3833.51562166667,5620.47823317791,3563.00799722945,-3.41782987960479,-5.83790335534593,5.51290933839072,6758662.11722902,1.28146033186077,-0.305389241815776,-0.174661895897188,0.0129732430699694,-1.1622761790314,-0.593560580798847,2.32873359365917,-2.057148880089E-4,-0.0010971376003808,-1.951556485042E-4,388820.416848307,3.8422E-12,984.827601006282,-3.41782987960479,-5.83790335534593,5.51290933839072
3600.0,5332664.95467096,-944398.501065189,-4043899.16881665,2410970.53513246,4847652.7135426,-4045962.03426974,-4029.50038566907,5257.45471480681,3885.2157224999,-3.1124858094836,-6.25816452766269,5.22320751492804,6758662.11722904,1.28583560110829,-0.318373686729408,-0.17270865186251,0.0218587535083552,-1.21459245384295,-0.629059085803783,2.39787074247385,-2.148034177138E-4,-0.0010950672584739,-1.979269161699E-4,388410.014971599,3.7895E-12,979.512298198724,-3.1124858094836,-6.25816452766269,5.22320751492804
3660.0,5551451.74969387,-645458.851390035,-3801750.15485664,2163787.79580348,5151596.17072007,-3803632.1018894,-4206.72726118828,4870.08331243855,4189.31002578799,-2.79281099810524,-6.64918920020122,4.90936569080623,6758662.11722903,1.29021087036154,-0.331368421175574,-0.170588594484591,0.0313079286524519,-1.27166513356976,-0.661525134738027,2.47084286995221,-2.239707340625E-4,-0.0010928999717736,-2.006466723593E-4,387978.172287956,3.7427E-12,974.481045777091,-2.79281099810524,-6.64918920020122,4.90936569080623
3720.0,5747180.5896237,-345347.119522059,-3541942.96635779,1906554.78839926,5431611.85717704,-3543635.25372557,-4364.38095659912,4460.17265522184,4473.88625938351,-2.46030064639365,-7.00918654133816,4.57285998722558,6758662.11722906,1.29458613960906,-0.344335110810748,-0.168296272531698,0.0413136050601315,-1.33349720119156,-0.690590688017393,2.54770336381743,-2.332129523266E-4,-0.0010906344040376,-2.033135005582E-4,387539.288402796,3.7009E-12,969.747495397337,-2.46030064639365,-7.00918654133816,4.57285998722558
3780.0,5918956.58385293,-45246.1530393195,-3265687.66761614,1640468.08440698,5686404.27585255,-3267182.4365849,-4501.7376393938,4029.63446068898,4737.63145744966,-2.11650698341198,-7.33651234958111,4.21526911059205,6758662.11722902,1.29896140886516,-0.357235119545549,-0.165827629061944,0.0518664995523998,-1.39995856594832,-0.715879902973716,2.62836757732428,-2.425261162787E-4,-0.0010882693205769,-2.05925998023E-4,387107.858293845,3.6634E-12,965.324428232253,-2.11650698341198,-7.33651234958111,4.21526911059205
3840.0,6065985.58076717,253669.204969592,-2974270.16493936,1366764.8603268,5914795.50107068,-2975560.47540013,-4618.16813850936,3580.47451994697,4979.3302647256,-1.76303192131057,-7.62967616384154,3.83826673789821,6758662.11722901,1.30333667810126,-0.37002971340401,-0.163180143950012,0.0629553052726739,-1.47075339576547,-0.737023610489669,2.71258064168036,-2.519062014594E-4,-0.0010858035924257,-2.084827779362E-4,386698.173799822,3.6292E-12,961.223058660455,-1.76303192131057,-7.62967616384154,3.83826673789821
3900.0,6187577.83033227,550236.637787164,-2669046.18809527,1086717.13304608,6115730.542292,-2670126.0503934,-4713.14070037307,3114.78327862854,5197.87039658654,-1.40151953039067,-7.88734762431078,3.44361351674073,6758662.11722903,1.30771194735164,-0.382680271572974,-0.160352961139902,0.074566799430378,-1.54539642202574,-0.753677915109156,2.79989418958367,-2.613491186779E-4,-0.001083236200357,-2.109824715797E-4,386324.02832654,3.5976E-12,957.452429175451,-1.40151953039067,-7.88734762431078,3.44361351674073
3960.0,6283151.20038635,843310.780925425,-2351434.95890966,801625.843487449,6288282.1317308,-2352299.36124893,-4786.22328896472,2634.72605915899,5392.24760857179,-1.0336483706372,-8.10836206489171,3.03314872113891,6758662.11722909,1.31208721660202,-0.395148503142532,-0.157346998033156,0.0866859604704159,-1.6232062868902,-0.765545624808798,2.88966006744174,-2.708507177425E-4,-0.0010805662387277,-2.134237305169E-4,385998.430474983,3.5677E-12,954.018895184443,-1.0336483706372,-8.10836206489171,3.03314872113891
4020.0,6352233.93266323,1131767.53370983,-2022912.57701922,512814.816126111,6431654.91571021,-2023557.50832108,-4837.08542236712,2142.53297091679,5561.57015597622,-0.661123715771268,-8.29172532212302,2.60878160479874,6758662.11722912,1.31646248583812,-0.407396667800018,-0.154165034686712,0.099296092213336,-1.70332292179535,-0.772398063235336,2.98104803116312,-2.80406791413E-4,-0.0010777929191395,-2.158052287786E-4,385733.33220347,3.5389E-12,950.925692017849,-0.661123715771268,-8.29172532212302,2.60878160479874
4080.0,6394466.92669125,1414508.24230268,-1685005.15387398,221624.622359367,6545189.03244638,-1685427.62199388,-4865.49954042626,1640.48855565354,5705.06272660789,-0.28566970540172,-8.43661774938323,2.17248249371032,6758662.11722915,1.3208377550885,-0.419387798534402,-0.15081178080785,0.112378952387835,-1.7847518186407,-0.77409393868036,3.07309029233796,-2.900130795686E-4,-0.0010749155739006,-2.181256650446E-4,385539.376924726,3.5104E-12,948.172573723124,-0.28566970540172,-8.43661774938323,2.17248249371032
4140.0,6409605.54142777,1690463.74056777,-1339281.72702224,-70593.6240300353,6628363.0618126,-1339479.77224601,-4871.34190025938,1130.9212161002,5822.06983232943,0.0909785397668333,-8.54239742886254,1.72627365998851,6758662.11722912,1.32521302433889,-0.431085924243102,-0.147293918886779,0.125914882935624,-1.86643144607059,-0.77059181607708,-3.11843613550955,-2.996652735826E-4,-0.0010719336592743,-2.203837648138E-4,385425.672607369,3.4816E-12,945.755512245536,0.0909785397668333,-8.54239742886254,1.72627365998851
4200.0,6397520.90705735,1958598.23348016,-987346.987497593,-362484.510941684,6680796.33552171,-987319.691262689,-4854.59299842423,616.192476030009,5912.05864751141,0.467082805464259,-8.60860257731945,1.27222001869013,6758662.11722913,1.32958829359213,-0.44245629001627,-0.143620122191928,0.139882939513958,-1.94731320672927,-0.76195364509152,-3.02818804792904,-3.093590208938E-4,-0.0010688467585019,-2.225782825565E-4,385399.594503656,3.452E-12,943.666445143318,0.467082805464259,-8.60860257731945,1.27222001869013
4260.0,6358200.74092404,2217913.0118744,-630833.853765509,-652694.583171313,6702250.59906611,-630581.342573761,-4815.33752059034,98.6861201863636,5974.62128501957,0.840909640779444,-8.6349531449924,0.812419688990696,6758662.11722914,1.33396356284251,-0.453465572807904,-0.139801046758992,0.154261017754156,-2.0264392538161,-0.748338584829493,-2.94028990413514,-3.190899297652E-4,-0.0010656545845856,-2.247080038405E-4,385466.621565094,3.4211E-12,941.893059161598,0.840909640779444,-8.6349531449924,0.812419688990696
4320.0,6291749.66400293,2467449.9860296,-271395.926175164,-939878.580495419,6692631.01965859,-270919.370685339,-4753.76382152531,-419.202737574436,6009.47650282697,1.21073815208788,-8.62135161020103,0.348994460598848,6758662.11722913,1.33833883208147,-0.464082090189758,-0.135849296922565,0.169025974053312,-2.10300420430426,-0.729988430982731,-2.85553074178902,-3.288535742162E-4,-0.0010623569828212,-2.267717474237E-4,385630.20994779,3.3884E-12,940.418595083009,1.21073815208788,-8.62135161020103,0.348994460598848
4380.0,6198389.01630561,2706295.02728258,89300.143796437,-1222705.63057801,6651986.53731182,89998.5344861251,-4670.16294012214,-935.078609817834,6016.47083677599,1.57486770261568,-8.56788297514797,-0.115919794348138,6758662.11722914,1.34271410133185,-0.474275999921604,-0.131779364359218,0.184153738974269,-2.17639193642433,-0.707207540064519,-2.77451257018449,-3.386454991176E-4,-0.0010589539330665,-2.287683673066E-4,385891.706262489,3.3537E-12,939.22631033922,1.57486770261568,-8.56788297514797,-0.115919794348138
4440.0,6078456.17129795,2933581.10856779,449582.335024273,-1499865.36899004,6580509.55906889,450499.323872019,-4564.92715604359,-1446.55656705062,5995.57915740792,1.93162548735304,-8.47481397122141,-0.580182724408417,6758662.11722914,1.34708937058509,-0.48401948815505,-0.127607541023899,0.199619421695869,-2.24618574854925,-0.680340761206453,-2.697640120275,-3.484612254347E-4,-0.0010554455517385,-2.306967547364E-4,386250.302408852,3.3171E-12,938.312067776928,1.93162548735304,-8.47481397122141,-0.580182724408417
4500.0,5932403.35223323,3148491.23370562,807780.954400755,-1770073.95908075,6478534.99924296,808912.291642345,-4438.54809634324,-1951.27309811003,5946.9046511234,2.27937395414908,-8.34259148470085,-1.04165907831225,6758662.11722912,1.35146463983547,-0.493286944212491,-0.123351806760069,0.215397404378492,-2.31215622206402,-0.64975251045215,-2.62513291530256,-3.582962556042E-4,-0.0010518320935254,-2.325558401559E-4,386703.032971475,3.2789E-12,937.670908632945,2.27937395414908,-8.34259148470085,-1.04165907831225
4560.0,5760795.95459817,3350261.14825014,1162236.31623305,-2032079.98499319,6346538.67132891,1163576.75925433,-4291.61440213902,-2446.89685303485,5870.67822823028,2.61651804296417,-8.17184021619981,-1.49822822302582,6758662.11722914,1.35583990908586,-0.502055120040151,-0.119031692740962,0.231461425773113,-2.37423438006248,-0.615809121878006,-2.55705206986476,-3.681460790292E-4,-0.0010481139528091,-2.3434459509E-4,387244.815266682,3.2392E-12,937.293181380604,2.61651804296417,-8.17184021619981,-1.49822822302582
4620.0,5564310.38107365,3538181.82484581,1511306.36913888,-2284670.19177084,6185135.04000881,1512849.70690483,-4124.80896706129,-2931.1392228996,5767.25736267261,2.94151221641248,-7.96335958944041,-1.94779356358973,6758662.11722916,1.36021517832195,-0.510303272616766,-0.114668122249614,0.247784653887925,-2.4324780573678,-0.578865461231304,-2.49333390213484,-3.780061776768E-4,-0.0010442916647864,-2.360620339628E-4,387868.53124169,3.1985E-12,937.164631261985,2.94151221641248,-7.96335958944041,-1.94779356358973
4680.0,5343731.39782218,3711601.7163202,1853374.23656035,-2526675.04725295,5995074.34437411,1855113.31848596,-3938.90576077539,-3401.76471209284,5637.12437041435,3.25286725588706,-7.71811992706593,-2.38829182890917,6758662.11722918,1.36459044757234,-0.518013287799674,-0.110283230625082,0.26433974801648,-2.48703779778678,-0.539255844129797,-2.43382404410633,-3.87872031761E-4,-0.0010403659062861,-2.377072158379E-4,388565.149562458,3.1572E-12,937.265942274326,3.25286725588706,-7.71811992706593,-2.38829182890917
4740.0,5099949.02163671,3869928.77267722,2186855.63749682,-2756974.10130009,5777239.10612564,2188782.40662544,-3734.7662523858,-3856.60105964254,5480.8841355698,3.54915679871398,-7.43725791317124,-2.81770218868467,6758662.1172292,1.36896571681986,-0.525169784301225,-0.105900166488795,0.281098910906607,-2.5381263014795,-0.49728870842275,-2.37830802839212,-3.97739125494E-4,-0.0010363374962735,-2.392792460762E-4,389323.885407506,3.1155E-12,937.570044649688,3.54915679871398,-7.43725791317124,-2.81770218868467
4800.0,4833954.95116943,4012632.21609561,2510206.1546651,-2974501.11882295,5532640.03908002,2512311.68500089,-3513.33544996846,-4293.54906742871,5299.26129543133,3.82902359292462,-7.12207136408136,-3.23405516769656,6758662.11722923,1.37334098605596,-0.531760196704835,-0.101542876617154,0.298033932291626,-2.58599334069124,-0.453244230988257,-2.32653643546084,-4.076029528862E-4,-0.0010322073960402,-2.407772779048E-4,390132.394733289,3.0737E-12,938.04207566431,3.82902359292462,-7.12207136408136,-3.23405516769656
4860.0,4546838.55575832,4139244.07160733,2821928.31802354,-3178248.96410412,5262411.37880056,2824202.85584647,-3275.63757384784,-4710.59209446774,5093.09689754081,4.09118544736238,-6.77401333065545,-3.63544132468403,6758662.11722923,1.37771625531206,-0.537774836648488,-0.0972358770434841,0.31511622539781,-2.63090654341228,-0.407374056446709,-2.2782442047135,-4.174590235794E-4,-0.0010279767090755,-2.422005138902E-4,390976.999109614,3.0335E-12,938.729698844784,4.09118544736238,-6.77401333065545,-3.63544132468403
4920.0,4239782.43716974,4249360.45147533,3120578.47244311,-3367274.21499868,4967805.65357691,3123011.48141746,-3022.77138253987,-5105.80517790036,4863.34454388668,4.33444085595154,-6.39468555705357,-4.02001966408515,6758662.11722925,1.38209152455673,-0.543206931521844,-0.0930040131545571,0.332316858369598,-2.67313755112849,-0.359902412947027,-2.23316460721028,-4.27302868692E-4,-0.0010236466806173,-2.435482073109E-4,391842.936655525,2.9964E-12,939.697612392562,4.33444085595154,-6.39468555705357,-4.02001966408515
4980.0,3914057.58323609,4342642.59005251,3404773.39926906,-3540701.48677222,4650187.92029398,3407353.60913966,-2755.90517151846,-5477.36374285864,4611.06603918071,4.55767427604939,-5.98583132249326,-4.38602574992476,6758662.1172292,1.38646679380997,-0.548052640241932,-0.088872211694218,0.34960658280422,-2.71295265382722,-0.311028047056951,-2.19103878207915,-4.37130046658E-4,-0.001019218696883,-2.448196634239E-4,392714.634147864,2.9639E-12,940.996748315359,4.55767427604939,-5.98583132249326,-4.38602574992476
5040.0,3571018.13092588,4418817.63039561,3673196.66258784,-3697727.44658011,4311029.49095145,3675912.12124256,-2476.27146613593,-5823.55186502594,4337.42656198245,4.75986104188422,-5.54932769406031,-4.73177949215122,6758662.11722922,1.39084206306035,-0.552311045892676,-0.0848652276995648,0.366955861750347,-2.75060691884457,-0.26092656655864,-2.15162182673372,-4.46936149041E-4,-0.0010146942839804,-2.460142406208E-4,393575.99503181,2.9374E-12,942.672923180137,4.75986104188422,-5.54932769406031,-4.73177949215122
5100.0,3212095.76094742,4477679.16132307,3924604.65219189,-3837624.50090482,3951901.17771453,3927442.78085411,-2185.16143113557,-6142.77005143248,4043.68937918948,4.94007189515286,-5.08717722013871,-5.05569257673435,6758662.11722919,1.3952173322993,-0.555984125238414,-0.0810073894732404,0.384334899594848,-2.78634091384075,-0.209752913182193,-2.11468634923215,-4.567168063036E-4,-0.0010100751065022,-2.471313514675E-4,394410.697837504,2.9182E-12,944.769888379992,4.94007189515286,-5.08717722013871,-5.05569257673435
5160.0,2838793.74574435,4519087.50651583,4157832.29651619,-3959744.13964633,3574466.08639093,4160779.94781692,-1883.91902023766,-6433.54250684784,3731.21012610358,5.09747711591778,-4.60149909550205,-5.35627551184676,6758662.11722919,1.39959260154969,-0.559076695353671,-0.0773223447385963,0.40171367623467,-2.8203792786208,-0.157643790079986,-2.0800242391043,-4.664676935135E-4,-0.0010053629658058,-2.481704636263E-4,395202.499398683,2.9076E-12,947.331174763801,5.09747711591778,-4.60149909550205,-5.35627551184676
5220.0,2452680.6742893,4542969.76763576,4371798.42020101,-4063519.92199906,3180471.99012924,4374841.93886784,-1573.93489025998,-6694.52385503773,3401.43067591238,5.23135023801723,-4.094519830577,-5.63214426347024,6758662.11722919,1.40396787080293,-0.561596337853728,-0.0738328111311706,0.419061987807712,-2.85293056777406,-0.104719942870366,-2.04744724883719,-4.761845359669E-4,-0.0010005597979849,-2.491311006538E-4,395935.53727096,2.9068E-12,950.401353646095,5.23135023801723,-4.094519830577,-5.63214426347024
5280.0,2055383.87964896,4549319.62339918,4565510.72241213,-4148470.09074421,2771743.31691978,4568636.00830019,-1256.64010514876,-6924.50528614755,3055.87262399535,5.34107133428357,-3.56856345885736,-5.88202645480092,6758662.11722919,1.40834314003902,-0.563553301464609,-0.0705603341490769,0.436349496041756,-2.88418793777416,-0.0510882435449117,-2.01678683059672,-4.858631147106E-4,-9.956676715384E-4,-2.500128426747E-4,396594.625854733,2.9172E-12,954.026705185152,5.34107133428357,-3.56856345885736,-5.88202645480092
5340.0,1648582.59565364,4538196.88818807,4738070.35361848,-4214199.80313508,2350172.78614029,4741262.92679832,-933.499656145007,-7122.42010355801,2696.13041396821,5.42612985797307,-3.02604131792347,-6.10476710488718,6758662.1172292,1.41271840928941,-0.564960383937324,-0.0675250556141397,0.453545787981669,-2.91433037782844,0.0031564407504825,-1.98789355244307,-4.954992719448E-4,-9.906887847436E-4,-2.508153269265E-4,397165.540928224,2.9401E-12,958.254996472367,5.42612985797307,-3.02604131792347,-6.10476710488718
5400.0,1234000.86945902,4509726.83460113,4888676.07018468,-4260402.96814946,1917712.7309237,4891921.13779238,-606.005825093051,-7287.34864572994,2323.86413382169,5.48612702794745,-2.46944144101217,-6.29933388303111,6758662.11722915,1.41709367853979,-0.565832794587375,-0.0647454955837411,0.470620447483213,-2.94352428258473,0.0579295919368248,-1.96063632654335,-5.050889162889E-4,-9.856254627438E-4,-2.515382481758E-4,397635.287581553,2.9769E-12,963.133874709175,5.48612702794745,-2.46944144101217,-6.29933388303111
5460.0,813400.260291747,4464099.28395229,5016627.94787733,-4286863.68152647,1476366.14452689,5019910.47242419,-275.671418610654,-7418.52256081724,1940.79201188434,5.52077774633033,-1.90131759758626,-6.464821856631,6758662.11722915,1.42146894779017,-0.56618799902279,-0.0622383504980543,0.487543139431131,-2.97192524039293,0.113155584517101,-1.93490161576303,-5.146280278921E-4,-9.804801543575E-4,-2.521813590024E-4,397992.346901059,3.0291E-12,968.707301039434,5.52077774633033,-1.90131759758626,-6.464821856631
5520.0,388572.353197756,4401567.47066998,5121330.63720616,-4293457.25168661,1028177.49014247,5124635.40603819,55.9770985203107,-7515.32841417938,1548.68264364238,5.52991203859694,-1.32427802287302,-6.60045771135565,6758662.1172292,1.4258442170377,-0.566045547905197,-0.0600183101484476,0.504283707166089,-2.99967996830772,0.168766408605048,-1.91059274034814,-5.241126633732E-4,-9.752554286231E-4,-2.527444699527E-4,398226.897172692,3.0981E-12,975.009621213271,5.52991203859694,-1.32427802287302,-6.60045771135565
5580.0,-38668.8809573593,4322446.68644109,5202296.14541878,-4280150.81135381,575223.314714511,5205607.84101101,387.406541819673,-7577.31061136888,1149.34698167809,5.51347600735644,-0.740973877868451,-6.70560342382951,6758662.11722918,1.43021948627666,-0.565426891860192,-0.0580978958098377,0.520812283108067,-3.02692836968753,0.224700549988902,-1.88762937928997,-5.335389605739E-4,-9.699539710893E-4,-2.532274495611E-4,398331.00584574,3.1852E-12,982.057456832267,5.51347600735644,-0.740973877868451,-6.70560342382951
5640.0,-466494.847527497,4227112.71085284,5259146.13193739,-4247003.51144806,119602.70828965,5262449.40270336,717.083988024789,-7604.17362170503,744.63012213629,5.4715322924611,-0.154087482835547,-6.77975936839208,6758662.11722922,1.4345947555299,-0.564355184904433,-0.0564873215945903,0.537099412062372,-3.05380572704795,0.280902003944102,-1.86594734846123,-5.429031431089E-4,-9.645785798636E-4,-2.536302242398E-4,398298.789011421,3.2915E-12,989.840650303313,5.4715322924611,-0.154087482835547,-6.77975936839208
5700.0,-893070.180352889,4116000.03581356,5291613.70606078,-4194166.2955935,-336572.348750671,5294893.23735494,1043.48376865128,-7595.78349017202,336.402922190534,5.40426003153691,0.433679631154499,-6.82256684098482,6758662.11722925,1.43897002478028,-0.562855078976036,-0.0551943807610038,0.553116186208148,-3.08044507640771,0.337319399568949,-1.84549873809672,-5.522015247008E-4,-9.591321614348E-4,-2.539527780384E-4,398126.53569792,3.4177E-12,998.314702222739,5.40426003153691,0.433679631154499,-6.82256684098482
5760.0,-1316560.65032303,3989599.89162865,5299544.71785209,-4121881.2553861,-791186.707576023,5302785.30284115,1365.09444608539,-7552.1686280986,-73.4465160499388,5.31195431658095,1.01961880659178,-6.83380998482707,6758662.11722923,1.44334529401923,-0.56095251232968,-0.0542243583501206,0.568834390317268,-3.10697984438147,0.393905211611182,-1.82625250555354,-5.614305132856E-4,-9.536177262826E-4,-2.541951522749E-4,397812.794857882,3.5643E-12,1007.39775292288,5.31195431658095,1.01961880659178,-6.83380998482707
5820.0,-1735141.09741313,3848458.08327312,5282898.535284,-4030480.56837745,-1242131.79842146,5286085.14536326,1680.42574188223,-7473.51987588207,-483.021458883102,5.19502514392215,1.60102643230515,-6.81341710428605,6758662.11722926,1.44772056326676,-0.558674494676928,-0.0535799711373026,0.58422665535066,-3.13354687097228,0.45061503649856,-1.8081956472631,-5.705866148763E-4,-9.480383842899E-4,-2.543574450402E-4,397358.423517474,3.7308E-12,1016.97435530113,5.19502514392215,1.60102643230515,-6.81341710428605
5880.0,-2147003.35251427,3693172.64564918,5241748.30291342,-3920385.02255525,-1687315.35992329,5244866.15734529,1988.01538683444,-7360.18983391241,-890.425214537321,5.05399585659745,2.17521615575074,-6.76146135523037,6758662.11722926,1.45209583251429,-0.556048892005991,-0.0532613354772846,0.599266618244303,3.1228953110681,0.507406908024054,-1.79133512056899,-5.796664371749E-4,-9.423973399746E-4,-2.544398105774E-4,396766.595165055,3.9168E-12,1026.90596767521,5.05399585659745,2.17521615575074,-6.76146135523037
5940.0,-2550364.11427764,3524391.32753745,5176280.67960115,-3792102.13292771,-2124671.10632701,5179315.3140558,2286.43586237375,-7212.69146082603,-1293.76982916303,4.88950108005584,2.73953108460416,-6.67816080219175,6758662.1172293,1.45647110176467,-0.55310421399578,-0.0532659632028129,0.613929085439392,3.09582084113789,0.564240625196402,-1.77570075950487,-5.886666929211E-4,-9.366978875567E-4,-2.544424585418E-4,396042.768077469,4.1212E-12,1037.04538442989,4.88950108005584,2.73953108460416,-6.67816080219175
6000.0,-2943472.74741364,3342808.91403137,5086795.0550682,-3646223.8576424,-2552168.28865699,5089732.38875029,2574.3010029817,-7031.69594126711,-1691.18476706567,4.70228415407498,3.29135592624968,-6.56387783485616,6758662.11722926,1.46084637101505,-0.549869406842732,-0.0535887853171815,0.628190197537875,3.0682427758692,0.621077059190016,-1.76134954193174,-5.975842029712E-4,-9.309434058783E-4,-2.543656531419E-4,395194.613906784,4.3428E-12,1047.25089156029,4.70228415407498,3.29135592624968,-6.56387783485616
6060.0,-3324618.9679996,3149164.39795958,4973702.24738614,-3483423.92288332,-2967821.10616167,4976528.64843742,2850.27242952033,-6818.02982845206,-2080.82553657364,4.49319406584879,3.82812901269523,-6.41911793875984,6758662.11722926,1.46522164025686,-0.54637365414466,-0.0542222028109111,0.642027592378646,3.03996452205069,0.677877396588757,-1.74837174166345,-6.06415899098E-4,-9.251373531944E-4,-2.542097121684E-4,394231.907479512,4.5803E-12,1057.39659898205,4.49319406584879,3.82812901269523,-6.41911793875984
6120.0,-3692140.38183325,2944238.01120753,4837522.68582007,-3304454.76758465,-3369697.92476038,4840225.0346941,3113.06578375619,-6572.67147000855,-2460.88222270267,4.26318189138703,4.34735415754629,-6.24452781758872,6758662.11722926,1.46959690949868,-0.542646188237282,-0.0551561635419655,0.655420563830019,3.01075523830653,0.734602259643806,-1.73689977740055,-6.151588265056E-4,-9.19283261851E-4,-2.539750059131E-4,393166.37938437,4.8323E-12,1067.37747270536,4.26318189138703,4.34735415754629,-6.24452781758872
6180.0,-4044429.84239782,2728848.12697715,4678884.08577614,-3110144.12076956,-3755930.25982309,4681449.83629023,3361.45673484711,-6296.74672878471,-2829.58788770116,4.01329675463957,4.84661229096699,-6.04089286715842,6758662.11722924,1.47397217874906,-0.538716114062975,-0.056378263757763,0.668350213675266,2.98033608792154,0.791210616554459,-1.72712101877798,-6.238101460557E-4,-9.133847328697E-4,-2.536619559846E-4,392011.53354411,5.0973E-12,1077.10965163402,4.01329675463957,4.84661229096699,-6.04089286715842
6240.0,-4379942.59513852,2503848.04461953,4498518.62493643,-2901391.22605764,-4124721.48141346,4500935.8627152,3594.28672919667,-5991.52401358398,-3185.22680065033,3.74468131612207,5.32357281807998,-5.80913400399128,6758662.1172292,1.47834744799087,-0.534612247278291,-0.0578738725132331,0.68079959412153,2.9483606355291,0.847658347690732,-1.71929655079562,-6.323671361994E-4,-9.074454304555E-4,-2.532710340255E-4,390782.432569401,5.3737E-12,1086.52773335303,3.74468131612207,5.32357281807998,-5.80913400399128
6300.0,-4697203.17529024,2270122.66938667,4297259.63198554,-2679162.7295776,-4474355.20112145,4299517.13002195,3810.46845586023,-5658.40863806199,-3526.14245755676,3.4585668052544,5.77600464603196,-5.55030385439148,6758662.11722927,1.4827227172384,-0.530362967890076,-0.0596262769596755,0.692753838676482,2.91438611613503,0.903896251999369,-1.71378915613506,-6.408271946137E-4,-9.01469076448E-4,-2.528027603352E-4,389495.454275012,5.6596E-12,1095.58078722048,3.4585668052544,5.77600464603196,-5.55030385439148
6360.0,-4994812.02802466,2028585.09857021,4076037.80163285,-2444488.24916377,-4803203.30080447,4078125.07270463,4008.99100061413,-5298.93652930792,-3850.7453538219,3.15626761311996,6.20178682501175,-5.26558231303969,6758662.11722925,1.48709798648878,-0.525996090265037,-0.0616168462489394,0.704200279398618,2.87783010393522,0.959867132133195,-1.71110597708541,-6.491878395409E-4,-8.954594447303E-4,-2.522577024065E-4,388168.023288563,5.9531E-12,1104.22835633463,3.15626761311996,6.20178682501175,-5.26558231303969
6420.0,-5271451.81963113,1780173.12717569,3835876.95190273,-2198455.64429685,-5109733.56494575,3837784.29759615,4188.92466287765,-4914.7673109065,-4157.52047161107,2.83917546489013,6.59891874887449,-4.95627148336694,6758662.11722924,1.49147325573631,-0.521538749900909,-0.0638252116193544,0.7151285488216,2.83790312564856,1.01550132786646,-1.71196530271281,-6.574467108306E-4,-8.894203556174E-4,-2.516364733807E-4,386818.32219163,6.2516E-12,1112.4371088973,2.83917546489013,6.59891874887449,-4.95627148336694
6480.0,-5525893.41021741,1525845.68563087,3577889.34188704,-1942206.00776145,-5392516.87992364,3579607.89799461,4349.42541090939,-4507.67678851735,-4445.03444547988,2.50875319372038,6.96552986173285,-4.62379001530904,6758662.11722924,1.49584852498669,-0.51701730689554,-0.0662294601047126,0.725530665166761,2.79350029520738,1.07070955056803,-1.71740439589765,-6.656015706855E-4,-8.833556702374E-4,-2.509397304275E-4,385464.987086274,6.5523E-12,1120.17834264038,2.50875319372038,6.96552986173285,-4.62379001530904
6540.0,-5757001.45952758,1266579.22215802,3303270.57032269,-1676928.40142728,-5650233.96526407,3304792.34839769,4489.73895208405,-4079.54886919801,-4711.942370654,2.16652814048294,7.29988881793525,-4.26966685945702,6758662.11722929,1.50022379422564,-0.5124572656197,-0.0688063392347804,0.735401099777057,2.74302050756027,1.12537083239106,-1.72895981497991,-6.736503041142E-4,-8.772692849259E-4,-2.501681730569E-4,384126.792869486,6.8522E-12,1127.4262850151,2.16652814048294,7.29988881793525,-4.26966685945702
6600.0,-5963739.63860232,1003364.04358263,3013294.07745504,-1403854.35990661,-5881681.60391551,3014612.00232297,4609.20439659461,-3632.36694880894,-4956.99421960318,1.81408520623766,7.60041204428995,-3.8955344600877,6758662.11722932,1.50459906347603,-0.507883209704788,-0.0715314700722579,0.744736826019387,2.68405234330402,1.1793112055786,-1.74898107173052,-6.81590919093E-4,-8.711651256475E-4,-2.493225413697E-4,382822.33380503,7.1476E-12,1134.15702278101,1.81408520623766,7.60041204428995,-3.8955344600877
6660.0,-6145175.42210593,737200.626505008,2709305.27466635,-1124252.18709066,-6085778.3407371,2710413.21771168,4707.25749461373,-3168.20480485603,-5179.0408340044,1.45305958682882,7.86567165522442,-3.50312141304811,6758662.11722935,1.50897433272355,-0.503318751110516,-0.0743795659532301,0.753537349200519,2.61280454713461,1.23226381319082,-1.78119975694757,-6.894215464422E-4,-8.650471424622E-4,-2.484036142525E-4,381569.705196414,7.4348E-12,1140.34787421252,1.45305958682882,7.86567165522442,-3.50312141304811
6720.0,-6300484.4371612,469095.913473676,2392715.32827264,-839421.071710431,-6261569.62071989,2393608.13633838,4783.43342878336,-2689.21703501852,-5377.03946085094,1.08512922140369,8.09440267379959,-3.09424461794589,6758662.11722936,1.51334960196536,-0.498786491750559,-0.0773246543607347,0.761804717318162,2.52303006605341,1.28378953847161,-1.83180514280094,-6.971404394225E-4,-8.5891930405E-4,-2.474122075249E-4,380386.192073405,7.7097E-12,1145.97703511567,1.08512922140369,8.09440267379959,-3.09424461794589
6780.0,-6428954.34700334,200059.606473872,2064994.62571099,-550685.049097389,-6408232.34095841,2065668.14546919,4837.36914588042,-2197.62908435874,-5550.05880333621,0.712006988952095,8.28550951414005,-2.67080095753542,6758662.1172294,1.51772487121575,-0.494307995933362,-0.0803402994589761,0.769543512718771,2.40394132690523,1.33310856768426,-1.91152857810754,-7.047459730569E-4,-8.527855923111E-4,-2.463491720464E-4,379287.970794971,7.9681E-12,1151.02335269148,0.712006988952095,8.28550951414005,-2.67080095753542
6840.0,-6529988.24940477,-68899.5291659936,1727665.95403991,-259386.837225443,-6525078.79304841,1728117.05171158,4868.80521361667,-1695.72690678659,-5697.28355921426,0.335432689134322,8.43807168388858,-2.2347585405448,6758662.11722936,1.52210014046327,-0.489903771725323,-0.0833998229428331,0.776760824955373,2.23633160932262,1.37872340286153,-2.03952181685549,-7.122366431872E-4,-8.466499970529E-4,-2.452153917878E-4,378289.829338222,8.2056E-12,1155.4660531133,0.335432689134322,8.43807168388858,-2.2347585405448
