time,gePosition_m_X,gePosition_m_Y,gePosition_m_Z,eiPosition_m_X,eiPosition_m_Y,eiPosition_m_Z,eiVelocity_m_s_X,eiVelocity_m_s_Y,eiVelocity_m_s_Z,eiAccel_m_s2_X,eiAccel_m_s2_Y,eiAccel_m_s2_Z,semiMajorAxis_m,gast_rad,eulerAngle_rad_Roll,eulerAngle_rad_Pitch,eulerAngle_rad_Yaw,eulerAngleWrtEi_rad_Roll,eulerAngleWrtEi_rad_Pitch,eulerAngleWrtEi_rad_Yaw,bodyAngularRateWrtEi_rad_s_Roll,bodyAngularRateWrtEi_rad_s_Pitch,bodyAngularRateWrtEi_rad_s_Yaw,altitudeMsl_m,airDensity_kg_m3,ambientTemperature_dgK,eiGravitation_m_s2_X,eiGravitation_m_s2_Y,eiGravitation_m_s2_Z
0.0,-1428622.3120664244,4163200.465251461,5136049.672040268,-4292653.410000001,955168.4699999995,5139356.569999999,109.64966299999837,-7527.726490000003,1484.521489,5.528986569357204,-1.230267887409868,-6.619549899945847,6758662.11722885,1.0233194459853856,1.1333718620180008E-16,-0.20245819323134245,-1.0625361206418758E-16,-2.4715939053549034,-0.03718896447613391,-1.4289931348885438,-2.541098841762901E-21,-0.0011344542745508244,6.640738306473715E-19,398252.76383814117,3.1125051777514152E-12,976.2183377126014,5.528986569357204,-1.230267887409868,-6.619549899945847
60.0,-1789712.6496681145,3920255.313015761,5213136.6039791545,-4276130.763606054,501640.15063862986,5216447.9477098975,440.8995044260108,-7584.043045604897,1084.189396723085,5.508416690933042,-0.6462017022813769,-6.719712406155927,6758662.117231132,1.027694715234372,-2.3648093568041306E-6,-0.20245604260131753,-1.0060057541579333E-4,-2.4720592963932067,0.016120423666361756,-1.3866611796764232,-7.049068603709275E-7,-0.0011344779878485578,-3.3028523725411988E-6,398335.1614682008,3.198555110651932E-12,983.0791797564946,5.508416690933042,-0.6462017022813769,-6.719712406155927
120.0,-2144732.034177042,3662345.3121019304,5266057.240880422,-4239785.4648506045,45786.44926615791,5269357.680100528,770.1498563608073,-7605.2077588949,678.7772426996095,5.462360218418421,-0.0589893241267832,-6.788817501975405,6758662.117230327,1.0320699844833425,-2.5118998477049643E-5,-0.20244904674401126,-4.0025750166469503E-4,-2.4703079486914183,0.0692802951568026,-1.3441021824374162,-1.5682193695685132E-6,-0.0011344959082197586,-6.615080444259351E-6,398280.4831678068,3.307822912357512E-12,990.9653252375497,5.462360218418421,-0.0589893241267832,-6.788817501975405
180.0,-2492166.1237604707,3390599.0023339516,5294562.856726825,-4183783.2576413755,-410279.4807895619,5297837.089567908,1095.8768804299507,-7591.112907315994,270.15925433186345,5.391015098227365,0.5286657408434533,-6.826529477989911,6758662.117230273,1.0364452537322815,-9.1796911002482E-5,-0.20243641348101538,-8.945341270021684E-4,-2.466315845746967,0.12219457297474114,-1.3010762842739703,-2.589743337174924E-6,-0.0011345075693188502,-9.935939052553594E-6,398085.3786745361,3.4371444971304578E-12,999.5338718179668,5.391015098227365,0.5286657408434533,-6.826529477989911
240.0,-2830524.9335479126,3106195.851592403,5298517.626972643,-4108380.89026452,-864442.894077885,5301750.470798644,1416.5720940027975,-7541.813194297484,-139.77448384789935,5.294695095673183,1.1140548245196953,-6.832655726429778,6758662.117230166,1.0408205229812044,-2.2590163413313948E-4,-0.20241740164097735,-0.0015773854984823085,-2.4600313118632755,0.1747634916219437,-1.2573391714512552,-3.7692476844588717E-6,-0.0011345124437284059,-1.3264676401911704E-5,397748.7681040413,3.586747472672089E-12,1008.6977258441461,5.294695095673183,1.1140548245196953,-6.832655726429778
300.0,-3158349.2713371646,2810361.125337631,5277899.322075947,-4013924.9861688134,-1314597.2005751184,5281075.7837948585,1730.7492879000874,-7457.525693773901,-549.1266557876678,5.173828662828589,1.6944762794138881,-6.807147954911647,6758662.117229892,1.0451957922300796,-4.50791260055114E-4,-0.20239134369970235,-0.002441186847839494,-2.451374639572097,0.22688152920209717,-1.2126385786787892,-5.106463907712447E-6,-0.0011345099435635122,-1.6600533489172977E-5,397271.8837139019,3.756369397667319E-12,1018.3373329768563,5.173828662828589,1.6944762794138881,-6.807147954911647
360.0,-3474217.0881774067,2504360.5974082234,5232799.4820043035,-3900850.5020308536,-1758653.6879505129,5235904.827550152,2036.9513609450394,-7338.629062559707,-956.0013936457733,5.02895729882166,2.267247692654182,-6.750102774955212,6758662.117229965,1.049571061478955,-7.895653623400814E-4,-0.20235766593827478,-0.003476769702860069,-2.440237430160316,0.2784352085348589,-1.1667109306393293,-6.601085475816175E-6,-0.001134499421152991,-1.9942743537005443E-5,396658.2718158577,3.945309902314007E-12,1028.3119930956166,5.02895729882166,2.267247692654182,-6.750102774955212
420.0,-3776749.7162128375,2189495.124272135,5163423.069595495,-3769678.7790012504,-2194551.1745933644,5166442.892261047,2333.757040930919,-7185.662020198138,-1358.5129738366172,4.860733403791901,2.8297180810463916,-6.661761655949354,6758662.117229895,1.0539463307277828,-0.0012649521694611204,-0.20231590535847793,-0.004673465424961945,-2.4264817776222856,0.3293007157592785,-1.1192781943571837,-8.252767163972656E-6,-0.0011344801697988724,-2.32905314374883E-5,395913.7546336119,4.152540832715E-12,1038.474521348729,4.860733403791901,2.8297180810463916,-6.661761655949354
480.0,-4064617.9662820166,1867095.1053849661,5070087.602939373,-3621015.194859169,-2620265.5495142452,5073007.890244446,2619.7874617104353,-6999.321098961768,-1754.794491094377,4.669917629713851,3.379280015610189,-6.542510237450519,6758662.117230797,1.0583215999766105,-0.0018991969565045155,-0.20226572268492207,-0.006019156015151164,-2.4099394927529385,0.3793412918835518,-1.0700450871382252,-1.0061124325781096E-5,-0.001134451424614465,-2.6643113207727723E-5,395046.35253467853,4.3768301012341495E-12,1048.6850097064514,4.669917629713851,3.379280015610189,-6.542510237450519
540.0,-4336548.058000939,1538514.8526904457,4953221.769247916,-3455546.4266095464,-3033819.1554882424,4956028.96803387,2893.7125663687293,-6780.457669807801,-2143.006471899927,4.457375733401277,3.9133816229664693,-6.392876995092986,6758662.117230922,1.0626968692254064,-0.0027139521547453003,-0.20220691085744,-0.007500331870439626,-2.3904116628451204,0.4284043658556193,-1.0186968898489475,-1.2025732106061898E-5,-0.0011344123634425458,-2.9999695459423416E-5,394066.1676851684,4.616835058273217E-12,1058.820400025268,4.457375733401277,3.9133816229664693,-6.392876995092986
600.0,-4591327.35540523,1205126.8926103525,4813363.525015689,-3274037.3348501767,-3433289.972250808,4816044.60446389,3154.2573068234556,-6530.074253283031,-2521.345388409808,4.224074939183514,4.429538410073858,-6.213531257925263,6758662.117231012,1.0670721384741706,-0.003730169726502972,-0.20213939852740215,-0.00910215622262262,-2.367668984752603,0.4763184212482807,-0.9648982634149745,-1.4146124597064611E-5,-0.001134362107854317,-3.335947488433103E-5,392985.2308096433,4.871141023708183E-12,1068.778739093642,4.224074939183514,4.429538410073858,-6.213531257925263
660.0,-4827809.8817047225,868316.2240864286,4651157.689593122,-3077327.482999257,-3816820.557193752,4653700.201873704,3400.2076107142097,-6249.320127594866,-2888.052033974561,3.9710798210545537,4.925344858157875,-6.005280577706597,6758662.117231151,1.0714474077229348,-0.004967996354777975,-0.20206324819993912,-0.010808535970278511,-2.3414535056302035,0.5228896292488664,-0.9082936684121925,-1.6421793940931916E-5,-0.0011342997242302485,-3.672163775756404E-5,391817.31334439554,5.138245091776412E-12,1078.478937538864,3.9710798210545537,4.925344858157875,-6.005280577706597
720.0,-5044921.587302985,529474.5563799139,4467353.041636347,-2866327.306205034,-4182626.7018392696,4469745.179903598,3630.416087103632,-5939.486249336462,-3241.4197214502065,3.6995477164536172,5.398485731224626,-5.7690674535474935,6758662.117231275,1.075822676973096,-0.006446671978572868,-0.2019786487835485,-0.012602198530917093,-2.3114826627457834,0.5678983472247212,-0.8485102496199957,-1.8852189381517384E-5,-0.0011342242249244286,-4.008535946070084E-5,390577.70788196335,5.416501707056846E-12,1087.8577812111046,3.6995477164536172,5.398485731224626,-5.7690674535474935
780.0,-5241665.345970095,189994.5503270488,4262798.9302105615,-2642013.946443786,-4529005.763398505,4265029.583672515,3843.8074433131505,-5601.9995056314265,-3579.8022658018526,3.4107236862909187,5.846747044376375,-5.505965418291503,6758662.117231064,1.0801979462217968,-0.008184432228874836,-0.20188590244589733,-0.014464774365547044,-2.2774568236658568,0.6110956857855449,-0.7851643614865024,-2.143671626889121E-5,-0.0011341345695120252,-4.3449804026640985E-5,389282.98037794937,5.704051465499471E-12,1096.865897144425,3.4107236862909187,5.846747044376375,-5.505965418291503
840.0,-5417125.65489492,-148735.91315476183,4038441.4146203604,-2405426.7719432428,-4854344.63194421,4040500.220422806,4039.3835861693274,-5238.416319755684,-3901.6217129717684,3.105935038334389,6.268026637254761,-5.21717449617923,6758662.117231229,1.0845732154704657,-0.010198415273108167,-0.20178540582587617,-0.016376884769575946,-2.2390718520227675,0.6522004999603722,-0.7178732380654893,-2.417473502009105E-5,-0.0011340296661229942,-4.6814123708184595E-5,387950.69813479076,5.9987517336294214E-12,1105.4638399706928,3.105935038334389,6.268026637254761,-5.21717449617923
900.0,-5570473.015367546,-485339.4139019548,3795318.949301266,-2157662.600643391,-5157127.295149927,3797196.340980321,4216.22838203887,-4850.415635554101,-4205.375777657795,2.7865854336166915,6.6603442983563035,-4.90401604458601,6758662.117231321,1.0889484847191346,-0.0125045736110111,-0.20167762578750892,-0.01831823458599473,-2.1960384656204974,0.6908973697216588,-0.6462735555525495,-2.706556003992004E-5,-0.0011339083728610644,-5.017745857229289E-5,386599.1380801316,6.2981220326851915E-12,1113.6188774203783,2.7865854336166915,6.6603442983563035,-4.90401604458601
960.0,-5700967.971921227,-818454.599270023,3534557.6323235417,-1899870.6489034924,-5435941.964163894,3536244.884596014,4373.512051288742,-4439.791309213723,-4489.644953513343,2.454148598081066,7.021851386725917,-4.567926995983338,6758662.117231127,1.0933237539677718,-0.015117591288745905,-0.20156307005274274,-0.020267709429883048,-2.1481101246562457,0.726836396501686,-0.5700486092816882,-3.010845860579781E-5,-0.0011337694993104937,-5.35389361219747E-5,385246.9803012615,6.599311924659556E-12,1121.3026278464963,2.454148598081066,7.021851386725917,-4.567926995983338
1020.0,-5807964.789033599,-1146741.6938964508,3257366.038213507,-1633247.2280866392,-5689487.725996242,3258855.3078906024,4510.49517421408,-4008.4439401264403,-4753.09926035256,2.110161664245017,7.3508398986567585,-4.21045351969662,6758662.117231046,1.0976990232163775,-0.018031157429315155,-0.20144073745916175,-0.022202998455457756,-2.0951023137287645,0.7596355954098903,-0.48896736725137935,-3.1328713306151066E-5,-0.0011334621593477108,-5.683363367722206E-5,383912.9921732049,6.899095424498612E-12,1128.489469170414,2.110161664245017,7.3508398986567585,-4.21045351969662
1080.0,-5890914.745846009,-1468887.889916218,2965029.6578866676,-1359030.2129834276,-5916580.689792847,2966314.0207140245,4626.532287043724,-3558.372175674548,-4994.504594222321,1.7562181701903345,7.645750928524923,-3.8332441265099697,6758662.117230632,1.1020742924649671,-0.02100041623105598,-0.20129147953874024,-0.024103258089266902,-2.0367368835360837,0.7888789171503701,-0.40295083009900023,-2.8759917841086002E-5,-0.0011328472710868311,-6.001347175721504E-5,382615.7087106013,7.193893543322679E-12,1135.1555468895417,1.7562181701903345,7.645750928524923,-3.8332441265099697
1140.0,-5949369.030856856,-1783612.595621768,2658904.970489482,-1078493.307269574,-6116159.596553506,2659978.4537349395,4721.075048343143,-3091.6635277737887,-5212.728647690568,1.3939607456611423,7.905182474779367,-3.4380422426526187,6758662.117230336,1.1064495617135248,-0.023953868733614162,-0.20110994200367663,-0.025968025729364866,-1.9730789021843416,0.8141287663732377,-0.3120781914219394,-2.6353963289024376E-5,-0.0011322298352038076,-6.321414112984533E-5,381373.11497369333,7.47982484124429E-12,1141.2781966911994,1.3939607456611423,7.905182474779367,-3.4380422426526187
1200.0,-5982981.220151515,-2089672.5211853709,2340413.17385467,-792940.1323177386,-6287290.864204863,2341270.7844846584,4793.674957995219,-2610.4847418741133,-5406.746369397366,1.0250735174480703,8.12789654441029,-3.026678283182665,6758662.117230071,1.110824830962067,-0.026898534656264666,-0.20089691005015137,-0.027800149684486335,-1.9045031769458438,0.8349527378384513,-0.2166592407711032,-2.4110995146428398E-5,-0.0011316098948788975,-6.643486445989982E-5,380202.33644537564,7.752782286344474E-12,1146.8356175334043,1.0250735174480703,8.12789654441029,-3.026678283182665
1260.0,-5991509.324457255,-2385866.5807908704,2011033.6020761258,-503698.16669371485,-6429173.042467794,2011671.3503818256,4843.985612938464,-2117.0717618457693,-5575.644933817524,0.6512742685161793,8.31282551191664,-2.6010612582029617,6758662.117230448,1.115200100210593,-0.029841722557289358,-0.2006532281573479,-0.029601905257957556,-1.8316618614416733,0.8509494198110704,-0.11728363254372587,-2.203112048685136E-5,-0.001130987427520424,-6.967486821329126E-5,379119.34327215183,8.008532875252833E-12,1151.8066525814259,0.6512742685161793,8.31282551191664,-2.6010612582029617
1320.0,-5974817.392135007,-2671040.5913361176,1672296.8603883039,-212112.56455362425,-6541140.6546358345,1672711.7789438483,4871.7644859753345,-1613.7193367215314,-5718.628194292877,0.2743063874830005,8.459077691919259,-2.1631699486918055,6758662.117230409,1.1195753694590873,-0.032790990582757244,-0.20037979506601597,-0.03137498441477042,-1.755495494641663,0.8617787676528336,-0.014831438153056159,-2.0114408159933888E-5,-0.0011303623443929948,-7.293338208790281E-5,378138.67410127603,8.242833228989336E-12,1156.1704995173675,0.2743063874830005,8.459077691919259,-2.1631699486918055
1380.0,-5932876.657152063,-2944091.748785546,1325777.7090833997,80460.11808792443,-6622667.40621849,1325967.8669402027,4876.8742162195895,-1102.7703176166997,-5835.020594695613,-0.10406935297596819,8.565942088066887,-1.71504369193935,6758662.117230314,1.123950638707566,-0.03575410584106055,-0.20007755814980388,-0.033120488398665555,-1.6772014230482648,0.8671928568436293,0.08955889179457203,-1.8360888909781134E-5,-0.0011297344903299486,-7.620963843015985E-5,377273.1849677498,8.451567934163896E-12,1159.9068595762449,-0.10406935297596819,8.565942088066887,-1.71504369193935
1440.0,-5865766.223088071,-3203972.86425281,973087.7296040041,372658.2596333133,-6673368.743359433,973052.2416476564,4859.283402120749,-586.6046952714617,-5924.270517574033,-0.482083148433526,8.632892284803157,-1.258772819648163,6758662.117230249,1.1283259079560126,-0.038739002654182314,-0.19974750715649606,-0.034838923312097925,-1.5981551457110896,0.8670612787198847,0.19456962236596628,-1.677055541237554E-5,-0.0011291036435295651,-7.950287163924812E-5,376533.8282610609,8.630914092290479E-12,1162.9969080838414,-0.482083148433526,8.632892284803157,-1.258772819648163
1500.0,-5773673.276329332,-3449696.342983679,615867.8071967056,663121.5416647972,-6693003.747030573,615606.8386157986,4819.066890472969,-67.6284305422361,-5985.953049305791,-0.8579646038134606,8.65958945282737,-0.7964887946059923,6758662.117230221,1.1327011772044275,-0.04175373984719974,-0.19939066731310212,-0.03653019867137365,-1.5197944122784441,0.8613854729914984,0.298820062275364,-1.53433622319096E-5,-0.0011284695154343887,-8.281231756090875E-5,375929.4662636575,8.7775010224482E-12,1165.4240669845694,-0.8579646038134606,8.65958945282737,-0.7964887946059923
1560.0,-5656892.823767729,-3680337.8905838453,255780.4655971843,950497.3198201337,-6681476.352189203,255295.23143661863,4756.405557371761,451.7378682200892,-6019.772145615466,-1.229951220066788,8.645884443711642,-0.33035409446722225,6758662.117230591,1.1370764464528427,-0.04480645730530104,-0.1990080917819704,-0.03819362893506336,-1.4434894331579446,0.8502984293711472,0.40099677200510225,-1.4079225696180432E-5,-0.001127831750694511,-8.613721287278118E-5,375466.7230894784,8.888554603033414E-12,1167.1745646253514,-1.229951220066788,8.645884443711642,-0.33035409446722225
1620.0,-5515826.952543246,-3895039.932086022,-105497.90987366803,1233446.966242072,-6638835.884362549,-106205.15007879361,4671.585579707319,969.0703656410024,-6025.562183799041,-1.5962968821650843,8.591818954082026,0.13744810646960615,6758662.117231176,1.1414517157012258,-0.04790533202524651,-0.1986008534435404,-0.039827937979104416,-1.37042801442819,0.8340498295401738,0.49996884542853687,-1.2978023691457665E-5,-0.0011271899272132543,-8.947679446322315E-5,375149.87808482064,8.962018422554263E-12,1168.2378662242068,-1.5962968821650843,8.591818954082026,0.13744810646960615
1680.0,-5350983.611640539,-4093014.730772387,-466284.9236964688,1510652.153058483,-6565276.909473404,-467210.87618668587,4564.9971984619115,1481.9534613581368,-6003.288891114623,-1.9552803034149828,8.497625744992774,0.6047244045557035,6758662.117230907,1.1458269849495775,-0.05105853386815084,-0.19817003600497843,-0.04143126650009694,-1.3015385757552551,0.8129803081297204,0.5948653126901631,-1.2039595377465834E-5,-0.0011265435562765366,-9.283029880566453E-5,374980.80290448765,8.996644260587083E-12,1168.607015446985,-1.9552803034149828,8.497625744992774,0.6047244045557035
1740.0,-5162974.917451508,-4273547.195061659,-824900.0583807721,1780821.0465071877,-6461138.39612239,-826040.4102944414,4437.132977794469,1987.99123663885,-5953.049642024634,-2.3052133806677615,8.363727907585384,1.0692817285138418,6758662.117231269,1.1502022541979289,-0.054274181255312214,-0.19771672441987628,-0.04300118229547069,-1.2374603118899663,0.78749057576965,0.6851054099463605,-1.1263740823392047E-5,-0.0011258920827652665,-9.619696133041317E-5,374958.9435638718,8.992046189889817E-12,1168.2789137764357,-2.3052133806677615,8.363727907585384,1.0692817285138418
1800.0,-4952514.987729042,-4435997.363213195,-1179672.561551243,2042694.38164046,-6326902.1929651555,-1181022.0008362625,4288.585566623181,2484.818828230582,-5875.073120299285,-2.6444494149052535,8.190737171809758,1.5289379396018723,6758662.117231778,1.154577523446217,-0.057560297016514196,-0.19724199463248457,-0.04453469337783926,-1.178555579720561,0.758011104836576,0.7703866404296515,-1.0650220566073479E-5,-0.0011252348854514866,-9.957601579600462E-5,375081.34780621785,8.948715109009603E-12,1167.2545567822253,-2.6444494149052535,8.190737171809758,1.5289379396018723
1860.0,-4720417.31069764,-4579802.557103187,-1528949.2937723962,2295051.388028722,-6163190.827279447,-1530501.5337972832,4120.044972145739,2970.113672075569,-5769.718345378132,-2.9713911519118823,7.979451260763423,1.9815324132759244,6758662.117231679,1.1589527926945367,-0.060924764608860024,-0.19674690265022116,-0.046028263874505024,-1.1249508631235392,0.7249764627663009,0.8506442814521145,-1.0198755091774341E-5,-0.0011245712773783007,-1.0296669366207831E-4,375342.7371733461,8.867993415745043E-12,1165.5392411154453,-2.9713911519118823,7.979451260763423,1.9815324132759244
1920.0,-4467591.658386963,-4704479.19787413,-1871102.4990580776,2536715.537529928,-5970764.634240164,-1872850.3078093913,3932.295357435901,3441.6065598526843,-5637.473065824347,-3.284498598333619,7.730850299138201,2.4249365448671485,6758662.117231792,1.163328061942793,-0.0643752849607179,-0.19623247297198107,-0.04747783260807059,-1.076590882886127,0.688806231523343,0.9259977775500776,-9.90902424321854E-6,-0.0011239005063243138,-1.063682234658595E-4,375735.6222088427,8.7520124703513E-12,1163.142752038728,-3.284498598333619,7.730850299138201,2.4249365448671485
1980.0,-4195040.555558649,-4809624.27782833,-2204537.4602848296,2766560.0860010628,-5750518.229826451,-2206472.6940155015,3726.2113779117917,3897.092451992895,-5478.951526158227,-3.5822965693585473,7.446092290197656,2.857064121668965,6758662.117231789,1.1677033311910492,-0.06791933410288496,-0.19569968640465182,-0.048878834322485215,-1.033293490419354,0.6498926382402482,0.9966963891804433,-9.78066655379012E-6,-0.0011232217553528454,-1.0977983020429964E-4,376250.458320616,8.603598130980865E-12,1160.0795382516224,-3.5822965693585473,7.446092290197656,2.857064121668965
2040.0,-3903855.31785147,-4894916.484547965,-2527700.002208665,2983513.381791647,-5503476.343641415,-2529813.6433800356,3502.7540740613617,4334.440991865934,-5294.891616806073,-3.8633819255242785,7.126507681626853,3.2758815041445937,6758662.117232083,1.1720786004407024,-0.07164290755903768,-0.19515559893216522,-0.05022716985275683,-0.9948737665519005,0.6085894773639253,1.0630769145079513,-1.3760129476932809E-5,-0.0011228283550864353,-1.1332624921420828E-4,376875.83899547544,8.426151691914284E-12,1156.3688784783078,-3.8633819255242785,7.126507681626853,3.2758815041445937
2100.0,-3595211.674924932,-4960116.974872981,-2839083.805471143,3186563.914979762,-5230789.031196388,-2841366.0048104585,3262.9663403109166,4751.6066672225,-5086.151420319236,-4.126430457787079,6.773593046453748,3.6794175597275385,6758662.1172324745,1.176453869688895,-0.07581081613531515,-0.19462039764261474,-0.0515083182885181,-0.9612745925417687,0.5652128052022631,1.1255388626174394,-1.986426323027199E-5,-0.0011225454235409106,-1.1692365031265916E-4,377598.7223042134,8.223514825353582E-12,1152.0350424371857,-4.126430457787079,6.773593046453748,3.6794175597275385
2160.0,-3270364.9966581417,-5005069.797884667,-3137237.4958692268,3374765.08257551,-4933726.28840002,-3139677.618344209,3007.9679923206118,5146.638566728629,-4853.70517037484,-4.37020338193257,6.389003910944953,4.065773293883446,6758662.117232544,1.180829138937088,-0.08045214261306172,-0.19409497314080212,-0.05269101740585809,-0.9321954599134439,0.5200650539172227,1.1844912989170515,-2.6116324788727568E-5,-0.0011222183029972106,-1.2050407578899303E-4,378404.6859975972,7.999827531456104E-12,1147.1074468256545,-4.37020338193257,6.389003910944953,4.065773293883446
2220.0,-2930645.142269938,-5029701.967868578,-3420771.474253144,3547239.646323763,-4613672.094061125,-3423358.148746045,2738.9504572579453,5517.689681504202,-4598.6386433416665,-4.593553405673571,5.974546766892234,4.43313112473526,6758662.117232427,1.1852044081852489,-0.08557410377695504,-0.19357827070427808,-0.053743097209606024,-0.9073240443288931,0.4734155689644355,1.240342300331459,-3.2514603995596147E-5,-0.001121844636538902,-1.240663165684996E-4,379278.20597331953,7.759387662060538E-12,1141.6208038273917,-4.593553405673571,5.974546766892234,4.43313112473526
2280.0,-2577450.954425137,-5034023.189637601,-3688364.4536963915,3703183.8612740976,-4272117.90914711,-3691085.626141832,2457.1711137229167,5863.025703985828,-4322.144005358299,-4.795430334345166,5.532170310975261,4.779763749611955,6758662.117232455,1.1895796774333782,-0.09118161320584177,-0.19306877657081997,-0.054632363672440565,-0.8863684548515811,0.4255027587897954,1.2934878635489921,-3.90573093597495E-5,-0.0011214220543449506,-1.2760914201570512E-4,380202.9525000453,7.506519412332519E-12,1135.615253901119,-4.795430334345166,5.532170310975261,4.779763749611955
2340.0,-2212244.422091156,-5018125.2403151775,-3938769.6720509394,3841871.2549476945,-3910655.664321923,-3941612.6617849474,2163.947309963203,6181.03327914149,-4025.514140897169,-4.974886183939446,5.063955958837704,5.10404255434158,6758662.117232434,1.1939549466814758,-0.09727725033173758,-0.19256445243030357,-0.05532676378559081,-0.86906496183866,0.37653811569762397,1.344305273253658,-4.5742566409228646E-5,-0.0011209481775570557,-1.3113130042982508E-4,381162.098329019,7.245456440759826E-12,1129.1364641987684,-4.974886183939446,5.063955958837704,5.10404255434158
2400.0,-1836544.537690082,-4982181.013192935,-4170820.749642895,3962656.038700887,-3530970.269898935,-4173772.308694906,1860.6500907993614,6470.227666067805,-3710.136491654866,-5.131079773301816,4.5721076861236165,5.404445518953658,6758662.117232446,1.1983302159295892,-0.10386123980595204,-0.192062674724785,-0.055794552121244276,-0.8551819795573958,0.32671026259324293,1.3931503478564478,-5.25684161468741E-5,-0.0011204206222623107,-1.346315196196903E-4,382138.63269661827,6.980243183092048E-12,1122.2356565509438,-5.131079773301816,4.5721076861236165,5.404445518953658
2460.0,-1451920.8756718305,-4926443.230805711,-4383437.163675396,4064976.134763827,-3134831.684761808,-4386483.538720697,1548.6976652735204,6729.259771259008,-3377.4864372941297,-5.2632807706140445,4.058941252917603,5.679564576657731,6758662.117232411,1.2027054851776549,-0.11093144091568533,-0.19156018075489784,-0.05600445824235788,-0.8445216189589247,0.2761888171480849,1.4403572625974284,-5.953281361800316E-5,-0.0011198370035873082,-1.3810850755927918E-4,383115.67522341484,6.714655677639092E-12,1114.9695026321192,-5.2632807706140445,4.058941252917603,5.679564576657731
2520.0,-1059986.921097736,-4851242.835829155,-4575629.31287178,4148355.804390542,-2724086.5830287016,-4578756.309549106,1229.5486484252338,6956.9225183406725,-3029.12025204947,-5.370873172763263,3.526872871798584,5.928112386490616,6758662.117232208,1.207080754425705,-0.11848334684006162,-0.1910530235409202,-0.05592585411173821,-0.8369197695716213,0.22512797857151068,1.486240006394557,-6.663362660019595E-5,-0.0011191949398996672,-1.4156095312480634E-4,384076.7838367617,6.452141035819814E-12,1107.3997889718698,-5.370873172763263,3.526872871798584,5.928112386490616
2580.0,-662393.1781171199,-4756987.069820425,-4746503.147999221,4212407.8646017825,-2300649.6592356907,-4749696.19728684,904.6951117710986,7152.1565227752035,-2666.6676734677458,-5.453358199830502,2.978407382998335,6.148928483834402,6758662.117231924,1.211456023673723,-0.1265100934364454,-0.19053653727968362,-0.05552892062855572,-0.8322453779569638,0.1736698132562849,1.53109481907835,-7.38686344251306E-5,-0.0011184920571115475,-1.4498752691400886E-4,385006.2510754387,6.195772828192078E-12,1099.592716687474,-5.453358199830502,2.978407382998335,6.148928483834402
2640.0,-260820.08937093863,-4644157.2511587795,-4895264.346149152,4256835.483103786,-1866494.614588365,-4898508.572483098,575.6554780223053,7314.055043941332,-2291.8241215862104,-5.510356590676423,2.4161260029386686,6.340984777073446,6758662.117232146,1.2158312929217412,-0.13500247720216332,-0.19000531508341528,-0.054784812322312616,-0.830399368853719,0.12194725752580748,1.5752031740165162,-8.123552694239284E-5,-0.0011177259930794266,-1.4838688214804404E-4,385889.3834603734,5.948218451401293E-12,1091.6176759230787,-5.510356590676423,2.4161260029386686,6.340984777073446
2700.0,143029.20166980234,-4513306.264812689,-5021222.009004975,4281433.543122251,-1423644.8683663665,-5024502.299814924,243.96729629861503,7441.868191033627,-1906.3426086236334,-5.541610289413085,1.8426737146679855,6.503390362922432,6758662.117231944,1.2202065621697118,-0.14394898217666052,-0.18945320051326317,-0.05366581908230395,-0.8313134945870146,0.07008687875143507,1.6188350262264521,-8.873190363497613E-5,-0.0011168944020945293,-1.5175765565621173E-4,386712.7590300053,5.711714435001303E-12,1083.545352031102,-5.541610289413085,1.8426737146679855,6.503390362922432
2760.0,547436.2126092832,-4365055.777743949,-5123791.867773472,4286089.572082266,-974164.039854875,-5127092.944105331,-88.82006540404433,7535.006363400344,-1512.025380779839,-5.546983516410269,1.2607463704332746,6.635395637389586,6758662.11723158,1.2245818314176822,-0.15333581544236832,-0.18887329417767076,-0.05214552378180928,-0.8349492842301824,0.018211447373226768,1.6622521503228027,-9.635527289602256E-5,-0.0011159949594556572,-1.550984689433428E-4,387464.4586178598,5.488047073426298E-12,1075.4451173861705,-5.546983516410269,1.2607463704332746,6.635395637389586
2820.0,950674.5748268163,-4200093.194856233,-5202498.979991329,4270784.230279525,-520146.24721198354,-5205805.4678807985,-421.15277347022123,7593.04291018031,-1110.7153349812602,-5.526463221334984,0.6730775777788007,6.736395683887032,6758662.117231547,1.228957100665621,-0.16314695103455035,-0.1882579764252509,-0.05019895447623526,-0.841297183032119,-0.033557623269703414,1.7057114580760855,-1.0410305147613141E-4,-0.0011150253661179276,-1.5840792933946167E-4,388134.2669898581,5.278538815301714E-12,1067.3818650311216,-5.526463221334984,0.6730775777788007,6.736395683887032
2880.0,1351017.5430596748,-4019168.3713965137,-5256979.9060179815,4235591.357909959,-63706.270459741,-5260276.408276326,-751.4798905883105,7615.715998410788,-704.2872543843151,-5.480158919535208,0.08242544116969508,6.805932924620195,6758662.117231678,1.2333323699135281,-0.17336418208824853,-0.18759894684234915,-0.04780272984229721,-0.850375912618977,-0.08509791217404139,1.7494682207544006,-1.119725641102547E-4,-0.0011139833534080722,-1.6168463123095118E-4,388713.84054241073,5.084044728979866E-12,1059.4127219442107,-5.480158919535208,0.08242544116969508,6.805932924620195
2940.0,1746745.527682566,-3823090.098627138,-5286984.355670602,4180677.5810476085,393030.37369131617,-5290255.523742455,-1078.2607094745333,7602.929683102826,-294.63890713891135,-5.408301916825566,-0.5084407687982393,6.843699026028178,6758662.117232011,1.2377076391614352,-0.18396718116304356,-0.18688728096565763,-0.044935196416768027,-0.8622320337098841,-0.13628364617311384,1.7937791330894153,-1.1996104333278807E-4,-0.0011128666877977694,-1.6492715737225E-4,389196.8388794503,4.904966154741341E-12,1051.5843286010959,-5.408301916825566,-0.5084407687982393,6.843699026028178
3000.0,2136153.615396096,-3612722.3803842613,-5292376.298146891,4106301.479357165,847937.397215876,-5295606.903700279,-1399.9720219441408,7554.754177086043,116.31794666901573,-5.311243931351037,-1.096753947017413,6.849536053670831,6758662.117231943,1.2420829084093103,-0.1949335687593315,-0.18611350427492548,-0.041576556171904824,-0.8769396471343837,-0.18698332536826268,1.838905146642181,-1.2806562948917456E-4,-0.0011116731757251702,-1.6813408027666386E-4,389579.0182315264,4.7412879488900536E-12,1043.9314146151119,-5.311243931351037,-1.096753947017413,6.849536053670831
3060.0,2517559.044111349,-3388980.5188399944,-5273134.531073994,4012812.3204997084,1298897.69837267,-5276309.536984797,-1715.1152875028397,7471.425322700981,526.6665948395305,-5.189455124706112,-1.6797624157138833,6.823436876517501,6758662.117231811,1.246458177657154,-0.2062389901702073,-0.18526768317787587,-0.037708982958025467,-0.8946001184855397,-0.2370572751395249,1.8851139712877991,-1.3628337095172516E-4,-0.0011104006684541313,-1.7130396368455927E-4,389858.28533502045,4.592640502825095E-12,1036.4771193479796,-5.189455124706112,-1.6797624157138833,6.823436876517501
3120.0,2889308.59807038,-3152827.0283743837,-5229352.707221248,3900648.3683143663,1743813.263806512,-5232457.337618016,-2022.223666462296,7353.343271606752,934.4944147192593,-5.043521557807686,-2.2547430473974766,6.7655448250490995,6758662.1172316475,1.2508334469049975,-0.21785720083716217,-0.1843395323313646,-0.033316726328654234,-0.9153416497232463,-0.2863550921159007,1.9326820931048263,-1.4461122454706438E-4,-0.001109047066960407,-1.7443536410691383E-4,390034.711054833,4.458379974869001E-12,1029.2349743514242,-5.043521557807686,-2.2547430473974766,6.7655448250490995
3180.0,3249785.8896619813,-2905267.396947434,-5161238.820104267,3770334.7739296244,2180614.967931208,-5164258.629144608,-2319.8688836085907,7201.070383062241,1337.901872169943,-4.874142090133456,-2.8190141817276486,6.6761526118843495,6758662.117231793,1.2552087161527934,-0.22976016055866555,-0.1833185372811932,-0.028386201407292207,-0.9393184411876743,-0.3347129682506113,1.981896082177075,-1.5304605620162658E-4,-0.0011076103268326943,-1.7752683244176445E-4,390110.5037077367,4.3376741799578415E-12,1022.2119463010533,-4.874142090133456,-2.8190141817276486,6.6761526118843495
3240.0,3597418.494976474,-2647345.7147367,-5069114.15235015,3622481.0609601196,2607272.223112276,-5072035.091406856,-2606.667889657372,7015.328355006529,1735.0114339613554,-4.682124743863234,-3.369948271471636,6.555700527782581,6758662.117232032,1.2595839854005895,-0.24191813688436545,-0.1821940910591971,-0.022906063463113618,-0.9667090837625715,-0.3819509029932788,2.0330528616893746,-1.6158464181154327E-4,-0.0011060884631770515,-1.80576915660764E-4,390089.94269958127,4.229580723662277E-12,1015.4117045987844,-4.682124743863234,-3.369948271471636,6.555700527782581
3300.0,3930684.910890512,-2380140.1900716093,-4953411.693309018,3457778.2178713605,3021802.4351417744,-4956220.176252521,-2881.289289103219,6796.994606067492,2123.9763505952947,-4.468382557115121,-3.9049841954721467,6.404773929781491,6758662.117231792,1.2639592546483536,-0.2542998180960362,-0.18095564301814368,-0.016867266097122083,-0.99771369041539,-0.4278698530583307,2.0864584782839595,-1.7022366834201422E-4,-0.0011044795555115309,-1.835841585627532E-4,389979.273751626,4.1331081296820915E-12,1008.8373974293547,-4.468382557115121,-3.9049841954721467,6.404773929781491
3360.0,4248121.302368028,-2104758.572858878,-4814674.034935552,3276995.412432583,3422280.2196977725,-4817357.001209241,-3142.459504595907,6547.097930266593,2502.9892676845293,-4.2339289528993795,-4.421639179640244,6.224100041913609,6758662.117232207,1.268334523896086,-0.26687243613677475,-0.17959285787830345,-0.01026310204128679,-1.0325491214488483,-0.4722489277254566,2.1424247568605326,-1.789597351609267E-4,-0.0011027817526377802,-1.8654710559073447E-4,389786.56762504624,4.047256910964521E-12,1002.4935488712217,-4.2339289528993795,-4.421639179640244,6.224100041913609
3420.0,4548328.009702289,-1822333.5057538382,-4653550.757440924,3080976.344919713,3806846.336887941,-4656095.7326372145,-3388.9686496395725,6266.81344961917,2870.2906253400224,-3.97987265256296,-4.917520270375398,6.014544092360061,6758662.11723208,1.2727097931452471,-0.2796018998948322,-0.17809578266206066,-0.0030892259425726034,-1.0714414930566003,-0.514842821087093,2.201263055500358,-1.8778935561045788E-4,-0.001100993277476114,-1.8946430270848165E-4,389521.5448722254,3.971042636031032E-12,996.3870222298078,-3.97987265256296,-4.917520270375398,6.014544092360061
3480.0,4829975.786622751,-1534017.8232463321,-4470795.318600722,2870635.2583728023,4173716.3025899786,-4473190.472258381,-3619.6760831962292,5957.45689306865,3224.176806547593,-3.7074121643857185,-5.390335308459984,5.777104814028342,6758662.117232168,1.2770850623929477,-0.2924529390779378,-0.17645501894725543,0.004656341330811946,-1.114615019351264,-0.5553797855943782,2.2632741941688073,-1.9670895881955224E-4,-0.0010991124318499423,-1.9233429933247952E-4,389195.36973416747,3.903505654623583E-12,990.5272079381934,-3.7074121643857185,-5.390335308459984,5.777104814028342
3540.0,5091811.741434077,-1240979.8188215923,-4267261.462892665,2646952.62573797,4521188.637096013,-4269495.663249935,-3833.5156216615087,5620.478233182017,3563.0079972223452,-3.41782987960559,-5.837903355331804,5.5129093383882335,6758662.117232266,1.2814603316406326,-0.30538925886089663,-0.1746618976700823,0.012973226947092154,-1.1622761927670429,-0.5935605939594097,2.3287335827328675,-2.0571489175946945E-4,-0.0010971376012052676,-1.951556503146037E-4,388820.4168524666,3.8437125629279265E-12,984.9256734701945,-3.41782987960559,-5.837903355331804,5.5129093383882335
3600.0,5332664.954877928,-944398.499898335,-4043899.168823018,2410970.535138269,4847652.713540063,-4045962.0342761124,-4029.500385663959,5257.454714811609,3885.2157224928233,-3.1124858094854657,-6.258164527648135,5.22320751492682,6758662.117231944,1.2858356008883016,-0.3183737052805051,-0.17270865353750825,0.021858738680726245,-1.2145924692547763,-0.6290590982568806,2.3978707328076694,-2.14803421543309E-4,-0.0010950672592502696,-1.9792691797065832E-4,388410.0149756827,3.790753670262632E-12,979.595501321706,-3.1124858094854657,-6.258164527648135,5.22320751492682
3660.0,5551451.7498391075,-645458.8501441034,-3801750.154863446,2163787.795809572,5151596.17071791,-3803632.101896214,-4206.727261183362,4870.083312444057,4189.310025780973,-2.7928109981079547,-6.649189200186244,4.909365690805988,6758662.117231971,1.2902108701359387,-0.33136844116090836,-0.17058859602591628,0.03130791519441251,-1.2716651507207468,-0.6615251463587161,2.470842861619418,-2.2397073796980946E-4,-0.0010928999725004346,-2.0064667414945982E-4,387978.17229210696,3.743739522158322E-12,974.5504894487296,-2.7928109981079547,-6.649189200186244,4.909365690805988
3720.0,5747180.5897018965,-345347.1182325901,-3541942.9663649853,1906554.7884056203,5431611.857175553,-3543635.253732771,-4364.380956594371,4460.172655228329,4473.886259376653,-2.460300646397057,-7.009186541322654,4.572859987225969,6758662.117232658,1.29458613938356,-0.3443351321482892,-0.16829627390480484,0.041313593041827745,-1.3334972201103978,-0.690590698671299,2.5477033568600618,-2.332129563104021E-4,-0.001090634404713699,-2.0331350233691848E-4,387539.28840718797,3.701798413218037E-12,969.8043304379194,-2.460300646397057,-7.009186541322654,4.572859987225969
3780.0,5918956.583864373,-45246.151660858624,-3265687.66762368,1640468.0844135939,5686404.2758515775,-3267182.4365924513,-4501.7376393893555,4029.6344606963544,4737.631457442941,-2.1165069834163215,-7.336512349565438,4.215269110593477,6758662.117232815,1.2989614086311496,-0.3572351421458434,-0.1658276302322987,0.05186648903677163,-1.3999585866172415,-0.7158799125213633,2.6283675717364985,-2.4252612033764609E-4,-0.0010882693212010265,-2.05925999789259E-4,387107.85829829425,3.6640759550587046E-12,965.3698371650325,-2.1165069834163215,-7.336512349565438,4.215269110593477
3840.0,6065985.580712033,253669.20631261898,-2974270.1649471805,1366764.8603336555,5914795.501070143,-2975560.4754079515,-4618.168138505166,3580.474519955193,4979.3302647190685,-1.7630319213159797,-7.629676163826105,3.8382667379008493,6758662.117232578,1.3033366778787392,-0.3700297371717629,-0.1631801448850511,0.06295529631583044,-1.4707534181103639,-0.7370236187918624,2.7125806373982817,-2.519062055920148E-4,-0.0010858035929966533,-2.084827796891303E-4,386698.1738041986,3.6297371510544903E-12,961.2582481224046,-1.7630319213159797,-7.629676163826105,3.8382667379008493
3900.0,6187577.830210148,550236.6391746422,-2669046.18810345,1086717.133053176,6115730.542292016,-2670126.0504015903,-4713.14070036914,3114.7832786375143,5197.8703965800305,-1.4015195303970718,-7.887347624295457,3.443613516744572,6758662.117232203,1.307711947126297,-0.3826802964068439,-0.16035296180921274,0.07456679208022425,-1.5453964459060676,-0.7536779220342591,2.799894186475401,-2.613491228828011E-4,-0.0010832362008735752,-2.1098247331832306E-4,386324.0283309425,3.597971009085148E-12,957.4786236543683,-1.4015195303970718,-7.887347624295457,3.443613516744572
3960.0,6283151.200196515,843310.7823523694,-2351434.9589181836,801625.8434947522,6288282.131731554,-2352299.361257451,-4786.223288961164,2634.7260591687727,5392.24760856571,-1.0336483706445232,-8.108362064876392,3.0331487211437866,6758662.1172326375,1.312087216373823,-0.39514852893558006,-0.15734699840846736,0.08668595476793357,-1.6232063120960403,-0.7655456302389251,2.889660065304845,-2.708507220181965E-4,-0.0010805662391886843,-2.1342373224031628E-4,385998.4304795304,3.56799742836633E-12,954.0373318102963,-1.0336483706445232,-8.108362064876392,3.0331487211437866
4020.0,6352233.93242118,1131767.5350799172,-2022912.5770280957,512814.8161336074,6431654.915711637,-2023557.5083299563,-4837.085422363994,2142.5329709273783,5561.570155970731,-0.6611237157795666,-8.291725322107999,2.6087816048048595,6758662.117233028,1.3164624856213492,-0.40739669444057697,-0.15416503474319448,0.09929608819245643,-1.7033229480539849,-0.7723980670743403,2.9810480297311934,-2.8040679575788653E-4,-0.0010777929195438837,-2.1580523048590395E-4,385733.3322080714,3.5390758781809977E-12,950.9376161918989,-0.6611237157795666,-8.291725322107999,2.6087816048048595
4080.0,6394466.926384467,1414508.2437003953,-1685005.1538831713,221624.6223670089,6545189.0324484715,-1685427.6220030792,-4865.499540423738,1640.4885556649124,5705.062726602763,-0.2856697054109718,-8.43661774936884,2.1724824937177454,6758662.1172330305,1.3208377548688435,-0.41938782590731544,-0.15081178052409536,0.11237895007586172,-1.784751845631834,-0.7740939408598606,3.0730902912951117,-2.900130839810156E-4,-0.0010749155742472939,-2.181256667347753E-4,385539.3769293028,3.510515216874508E-12,948.1792354329189,-0.2856697054109718,-8.43661774936884,2.1724824937177454
4140.0,6409605.541056189,1690463.7419875995,-1339281.7270316575,-70593.62402227813,6628363.061815468,-1339479.7722554333,-4871.341900257515,1130.921216112333,5822.069832324788,0.09097853975667164,-8.542397428848822,1.7262736599971067,6758662.117233178,1.325213024116306,-0.4310859522286906,-0.14729391824637492,0.12591488235264012,-1.8664314734483267,-0.7705918165618026,-3.1184361365048425,-2.996652780607713E-4,-0.0010719336595623788,-2.2038376648594085E-4,385425.6726119766,3.4816838695042382E-12,945.7581629769038,0.09097853975667164,-8.542397428848822,1.7262736599971067
4200.0,6397520.906615265,1958598.2349342862,-987346.9875072314,-362484.5109338448,6680796.335525104,-987319.6912723333,-4854.592998422919,616.192476042868,5912.058647507524,0.4670828054532807,-8.608602577307245,1.272220018700085,6758662.117232895,1.3295882933637686,-0.44245631849031863,-0.14362012118323267,0.1398829406715591,-1.9473132341474124,-0.7619536438818116,-3.0281880492183473,-3.0935902543607533E-4,-0.0010688467587303574,-2.2257828420971522E-4,385399.5945080037,3.4520194935027255E-12,943.6663353580118,0.4670828054532807,-8.608602577307245,1.272220018700085
4260.0,6358200.740416935,2217913.0133384457,-630833.8537753365,-652694.5831634322,6702250.599070293,-630581.3425835946,-4815.337520589731,98.68612019984803,5974.621285016251,0.8409096407677054,-8.634953144981313,0.8124196890017902,6758662.117232826,1.3339635626111994,-0.45346560164538546,-0.13980104537556692,0.1542610206556108,-2.026439280957046,-0.748338581959425,-2.940289906033997,-3.190899343697316E-4,-0.0010656545847536772,-2.2470800547379568E-4,385466.62156940013,3.4210372198228823E-12,941.8914363626175,0.8409096407677054,-8.634953144981313,0.8124196890017902
4320.0,6291749.663459756,2467449.98742534,-271395.92618514504,-939878.5804875565,6692631.019663635,-270919.37069532636,-4753.763821525465,-419.2027375603872,6009.4765028242755,1.2107381520754674,-8.621351610191079,0.3489944606110222,6758662.117232821,1.3383388318585985,-0.4640821192694554,-0.1358492951631837,0.16902597869727354,-2.103004230901974,-0.7299884265121686,-2.855530744567422,-3.2885357888114055E-4,-0.0010623569829278944,-2.267717490361592E-4,385630.2099520945,3.388335565775477E-12,940.4167024955411,1.2107381520754674,-8.621351610191079,0.3489944606110222
4380.0,6198389.015702046,2706295.028676215,89300.14378633967,-1222705.6305701612,6651986.537317843,89998.53447602136,-4670.162940123174,-935.0786098032694,6016.470836774117,1.5748677026025426,-8.567882975139108,-0.11591979433492482,6758662.117233279,1.3427141011059978,-0.4742760291188598,-0.13177936223052214,0.18415374535356202,-2.1763919622699706,-0.7072075340740147,-2.7745125740525154,-3.3864550384108826E-4,-0.0010589539331111845,-2.2876836889728405E-4,385891.7062668604,3.3536501651484373E-12,939.2241947106759,1.5748677026025426,-8.567882975139108,-0.11591979433492482
4440.0,6078456.170626693,2933581.1099703084,449582.3350141064,-1499865.3689822895,6580509.559075856,450499.32386184606,-4564.927156045418,-1446.556567035654,5995.579157406942,1.9316254873393304,-8.474813971213916,-0.5801827243942135,6758662.11723349,1.347089370353365,-0.48401951734370396,-0.12760753853731213,0.1996194297970516,-2.2461857734927606,-0.6803407537912092,-2.6976401253840017,-3.484612302148241E-4,-0.0010554455517203375,-2.3069675630439055E-4,386250.30241322436,3.3170531454476294E-12,938.3084485707482,1.9316254873393304,-8.474813971213916,-0.5801827243942135
4500.0,5932403.351503417,3148491.2350926735,807780.954390565,-1770073.959073137,6478534.99925084,808912.2916321491,-4438.548096345993,-1951.2730980947608,5946.904651123143,2.2793739541349143,-8.342591484694942,-1.0416590782971473,6758662.117233391,1.3514646396007006,-0.4932869732669041,-0.12335180393348615,0.21539741418172012,-2.312156246013411,-0.6497525017157838,-2.625132921746441,-3.582962604388891E-4,-0.00105183209344385,-2.3255584170033585E-4,386703.03297580406,3.2787662914383483E-12,937.6644961951062,2.2793739541349143,-8.342591484694942,-1.0416590782971473
4560.0,5760795.9538117545,3350261.149614807,1162236.3162229,-2032079.9849858368,6346538.671337819,1163576.7592441724,-4291.614402142653,-2446.896853019297,5870.67822823097,2.6165180429496093,-8.171840216195323,-1.4982282230098498,6758662.117233716,1.3558399088480522,-0.5020551488359463,-0.11903168959891768,0.23146143725210477,-2.3742344029761244,-0.6158091119273046,-2.557052077687542,-3.6814608391637756E-4,-0.0010481139526634907,-2.3434459661006286E-4,387244.81527107244,3.239074559958103E-12,937.2826748812768,2.6165180429496093,-8.171840216195323,-1.4982282230098498
4620.0,5564310.380283065,3538181.8261018447,1511306.3691287949,-2284670.1917637847,6185135.040018696,1512849.706894731,-4124.808967065916,-2931.1392228838818,5767.257362674424,2.9415122163976832,-7.9633595894375935,-1.947793563572961,6758662.117234153,1.360215178095356,-0.5103033010328502,-0.11466811882307992,0.2477846670113191,-2.4324780792452803,-0.5788654501708284,-2.4933339113412436,-3.7800618261441644E-4,-0.0010442916645762852,-2.360620354575301E-4,387868.5312460716,3.198315173634835E-12,937.1487123154054,2.9415122163976832,-7.9633595894375935,-1.947793563572961
4680.0,5343731.396981587,3711601.7175431605,1853374.2365504117,-2526675.047246135,5995074.344384864,1855113.3184760085,-3938.905760780912,-3401.7647120771608,5637.124370417095,3.2528672558721574,-7.718119927065185,-2.3882918288918784,6758662.117233995,1.3645904473426438,-0.5180133157182945,-0.11028322695144974,0.2643397627473663,-2.4870378186583557,-0.5392558320595461,-2.4338240546715966,-3.8787203674705076E-4,-0.0010403659060109715,-2.3770721730635963E-4,388565.14956669585,3.1568566211012595E-12,937.2432644217458,3.2528672558721574,-7.718119927065185,-2.3882918288918784
4740.0,5099949.020759734,3869928.77384604,2186855.637487088,-2756974.1012936723,5777239.106137488,2188782.406615699,-3734.7662523922363,-3856.6010596268998,5480.884135573571,3.5491567986988923,-7.437257913172129,-2.817702188666716,6758662.117234295,1.368965716589916,-0.5251698116078156,-0.10590016261208332,0.2810989272027457,-2.5381263213963168,-0.4972886954361276,-2.378308040270774,-3.977391305261865E-4,-0.0010363374959329848,-2.3927924751761105E-4,389323.88541183464,3.115045420950261E-12,937.5392115122803,3.5491567986988923,-7.437257913172129,-2.817702188666716
4800.0,4833954.950310759,4012632.2171430434,2510206.1546556186,-2974501.1188169895,5532640.039092662,2512311.684991405,-3513.3354499758852,-4293.549067413262,5299.261295436222,3.829023592909833,-7.122071364084363,-3.2340551676783575,6758662.117234344,1.373340985838585,-0.531760223290711,-0.10154287258684798,0.29803395010579947,-2.585993359719263,-0.45324421717124186,-2.3265364485953426,-4.0760295796240934E-4,-0.0010322073956340794,-2.4077727931833847E-4,390132.39473746077,3.073192150201532E-12,938.0016752411217,3.829023592909833,-7.122071364084363,-3.2340551676783575
4860.0,4546838.5548363095,4139244.0726332623,2821928.318014375,-3178248.9640986803,5262411.378814187,2824202.8558373074,-3275.637573856048,-4710.592094452579,5093.096897546895,4.09118544734774,-6.774013330660297,-3.635441324665455,6758662.1172345495,1.3777162550858253,-0.537774862409427,-0.0972358729156107,0.31511624467565685,-2.6309065616257388,-0.4073740418789621,-2.2782442190376195,-4.1745902869748445E-4,-0.0010279767086035377,-2.4220051527503017E-4,390976.99911380216,3.032783053007058E-12,938.6783977392934,4.09118544734774,-6.774013330660297,-3.635441324665455
4920.0,4239782.436234453,4249360.452421475,3120578.472434304,-3367274.2149935733,4967805.653591467,3123011.481408654,-3022.771382548928,-5105.805177885596,4863.344543893965,4.334440855937131,-6.394685557060704,-4.02001966406655,6758662.117234508,1.3820915243330338,-0.5432069563612133,-0.09300400898950853,0.3323168790539416,-2.673137568605898,-0.3599023976990439,-2.2331646226574358,-4.273028738496908E-4,-0.0010236466800793396,-2.435482086661998E-4,391842.936659577,2.995512759286738E-12,939.6339992580486,4.334440855937131,-6.394685557060704,-4.02001966406655
4980.0,3914057.582254427,4342642.59095023,3404773.399260744,-3540701.486767793,4650187.920309444,3407353.6091313357,-2755.9051715284195,-5477.363742844485,4611.066039189168,4.557674276035372,-5.985831322502202,-4.386025749906049,6758662.117234891,1.3864667935802266,-0.5480526640674702,-0.08887220755876844,0.3496066048292982,-2.712952670647191,-0.3110280311941533,-2.1910387985799966,-4.3713005185299877E-4,-0.0010192186962788654,-2.448196647489611E-4,392714.6341519514,2.9628521589322647E-12,940.9193536109142,4.557674276035372,-5.985831322502202,-4.386025749906049
5040.0,3571018.1299131946,4418817.631226724,3673196.662580068,-3697727.4465762996,4311029.490967756,3675912.121234787,-2476.2714661467135,-5823.551865012513,4337.426561991998,4.7598610418707095,-5.549327694071228,-4.731779492132655,6758662.117235071,1.3908420628273876,-0.5523110686245134,-0.08486522366182217,0.36695588505198495,-2.7506069350872298,-0.26092655013600785,-2.1516218442281327,-4.4693615427099305E-4,-0.0010146942833102134,-2.460142419147296E-4,393575.99503586226,2.9361668103814E-12,942.5802295136625,4.7598610418707095,-5.549327694071228,-4.731779492132655
5100.0,3212095.7599583548,4477679.162045033,3924604.6521848165,-3837624.5009017256,3951901.1777316425,3927442.7808470344,-2185.1614311470903,-6142.770051419562,4043.6893792000565,4.940071895139832,-5.087177220151386,-5.055692576715988,6758662.117234823,1.3952173320745327,-0.5559841468011123,-0.08100738560599648,0.38433492410059367,-2.7863409295822006,-0.20975289625102503,-2.114686367661335,-4.567168115663464E-4,-0.0010100751057660364,-2.4713135272967255E-4,394410.6978416038,2.91676144218394E-12,944.6603452713796,4.940071895139832,-5.087177220151386,-5.055692576715988
5160.0,2838793.7447319664,4519087.5071638385,4157832.296509857,-3959744.1396439574,3574466.086408805,4160779.9478105903,-1883.919020249915,-6433.542506835642,3731.2101261152384,5.097477115905339,-4.601499095516543,-5.356275511828738,6758662.117234764,1.399592601321678,-0.5590767156774874,-0.0773223411199596,0.40171370186282895,-2.820379293933108,-0.1576437726881011,-2.0800242584098614,-4.6646769880674037E-4,-0.001005362965003777,-2.4817046485590093E-4,395202.499402809,2.9059125202255457E-12,947.2032235360416,5.097477115905339,-4.601499095516543,-5.356275511828738
5220.0,2452680.673244076,4542969.768211512,4371798.420195446,-4063519.9219973837,3180471.9901477424,4374841.938862271,-1573.934890272897,-6694.523855026345,3401.430675924994,5.231350238005585,-4.094519830593363,-5.632144263452852,6758662.117234396,1.4039678705687753,-0.5615963568792846,-0.07383280783914259,0.41906201447472874,-2.8529305827269638,-0.10471992505975007,-2.0474472689698824,-4.761845412882641E-4,-0.0010005597971172774,-2.4913110185020046E-4,395935.5372750223,2.9048977715300523E-12,950.2534679729433,5.231350238005585,-4.094519830593363,-5.632144263452852
5280.0,2055383.878652833,4549319.623860118,4565510.722407398,-4148470.0907433364,2771743.316938969,4568636.008295451,-1256.6401051623611,-6924.50528613726,3055.8726240090036,5.341071334272682,-3.568563458875502,-5.882026454784078,6758662.1172345765,1.4083431398158728,-0.5635533191415243,-0.07056033126317439,0.4363495236595367,-2.884187952434687,-0.05108822535311396,-2.0167868515130722,-4.8586312005774316E-4,-9.956676706054312E-4,-2.500128438371313E-4,396594.6258588231,2.9150227800113508E-12,953.8574535815575,5.341071334272682,-3.568563458875502,-5.882026454784078
5340.0,1648582.5946452878,4538196.8885645345,4738070.353614518,-4214199.803135064,2350172.786159956,4741262.926794352,-933.4996561591927,-7122.420103548735,2696.1304139827457,5.426129857963319,-3.0260413179433363,-6.104767104871143,6758662.117234144,1.4127184090629386,-0.5649604002246809,-0.0675250532141248,0.45354581645765046,-2.914330392261545,0.0031564592895045873,-1.9878935741057635,-4.954992773154575E-4,-9.906887837458148E-4,-2.5081532805440476E-4,397165.5409322349,2.937640771940527E-12,958.0631332201842,5.426129857963319,-3.0260413179433363,-6.104767104871143
5400.0,1234000.868442364,4509726.834888788,4888676.070181689,-4260402.968150408,1917712.7309438495,4891921.137789394,-606.0058251077171,-7287.348645721802,2323.8641338371576,5.48612702793857,-2.469441441033546,-6.299333883015671,6758662.117234125,1.4170936783099726,-0.5658328094522842,-0.06474549374797796,0.47062047672149926,-2.9435242968522832,0.057929610792263685,-1.9606363489225773,-5.05088921680701E-4,-9.856254616815668E-4,-2.515382492684613E-4,397635.2875856781,2.9741586092993174E-12,962.9184641137817,5.48612702793857,-2.469441441033546,-6.299333883015671
5460.0,813400.2592709861,4464099.284146897,5016627.947875293,-4286863.681528359,1476366.1445474692,5019910.472422152,-275.67141862578,-7418.522560810488,1940.792011900642,5.520777746322532,-1.9013175976092074,-6.464821856616416,6758662.117234224,1.4214689475570224,-0.5661880124420904,-0.06223834930405405,0.48754316933101366,-2.9719252545561905,0.11315560366065532,-1.9349016388343776,-5.146280333026683E-4,-9.80480153231403E-4,-2.521813600592576E-4,397992.34690521104,3.0260196759364503E-12,968.4678750167755,5.520777746322532,-1.9013175976092074,-6.464821856616416
5520.0,388572.35218954005,4401567.470766542,5121330.637205122,-4293457.251689339,1028177.4901634194,5124635.406037153,55.97709850480042,-7515.3284141742015,1548.6826436594436,5.529912038590322,-1.3242780228975422,-6.600457711342217,6758662.117234391,1.4258442168040246,-0.5660455598642462,-0.06001830967084378,0.5042837376232879,-2.9996799824269464,0.168766428010344,-1.9105927640942355,-5.241126688003557E-4,-9.752554274339063E-4,-2.5274447097325503E-4,398226.8971768033,3.0946541828102575E-12,974.7463606491883,5.529912038590322,-1.3242780228975422,-6.600457711342217
5580.0,-38668.88191215071,4322446.686439066,5202296.1454188125,-4280150.811357538,575223.3147357282,5205607.8410110455,387.40654180385144,-7577.3106113651465,1149.346981695847,5.513476007351002,-0.7409738778943756,-6.705603423817104,6758662.117234318,1.430219486051027,-0.5654269023529961,-0.05809789612090383,0.5208123140142754,-3.0269283838229266,0.22470056963166263,-1.8876294036991892,-5.335389660152162E-4,-9.699539698375941E-4,-2.5322745054477853E-4,398331.00584991026,3.1813918345606063E-12,981.7713731569424,5.513476007351002,-0.7409738778943756,-6.705603423817104
5640.0,-466494.8484872951,4227112.710752096,5259146.131938493,-4247003.511452607,119602.70831100756,5262449.402704469,717.0839880087057,-7604.173621702953,744.6301221546879,5.471532292457019,-0.15408748286275095,-6.779759368381198,6758662.11723428,1.4345947552979816,-0.5643551939331369,-0.056487322762660594,0.5370994433068823,-3.0538057412605637,0.2809020238020467,-1.8659473735296122,-5.429031485620684E-4,-9.645785785501922E-4,-2.536302251860136E-4,398298.7890155059,3.2873427450802964E-12,989.5337288792382,5.471532292457019,-0.15408748286275095,-6.779759368381198
5700.0,-893070.1813010648,4116000.0356115587,5291613.706063155,-4194166.295598866,-336572.34872926737,5294893.2373573175,1043.4837686350227,-7595.783490171626,336.4029222094984,5.404260031533933,0.4336796311261579,-6.822566840975401,6758662.117234385,1.4389700245449362,-0.5628550865514299,-0.055194382850478375,0.5531162176753953,-3.080445090760713,0.3373194196203606,-1.845498763825666,-5.522015301636129E-4,-9.59132160060618E-4,-2.5395277894666617E-4,398126.5357020441,3.4132686000812415E-12,997.9899613042521,5.404260031533933,0.4336796311261579,-6.822566840975401
5760.0,-1316560.6512097302,3989599.891338335,5299544.717855675,-4121881.25539241,-791186.7075546569,5302785.302844738,1365.0944460690298,-7552.168628099979,-73.44651603049948,5.311954316579274,1.0196188065623917,-6.833809984819074,6758662.117234481,1.443345293791875,-0.5609525184701416,-0.05422436141864106,0.5688344218914404,-3.106979858941874,0.3939052318354476,-1.826252531955337,-5.614305187557437E-4,-9.536177248486115E-4,-2.5419515314484406E-4,397812.7948620453,3.5594800361402634E-12,1007.0591803973025,5.311954316579274,1.0196188065623917,-6.833809984819074
5820.0,-1735141.098270349,3848458.082887354,5282898.535288625,-4030480.5683846693,-1242131.7984002524,5286085.145367892,1680.4257418659047,-7473.519875885142,-483.0214588632922,5.1950251439221615,1.601026432274987,-6.813417104279839,6758662.117234098,1.447720563038782,-0.5586744994082793,-0.05357997523688822,0.5842266869131378,-3.133546885811988,0.45061505687545444,-1.808195674358306,-5.705866203515897E-4,-9.48038382797148E-4,-2.543574458712499E-4,397358.4235215109,3.725796672884771E-12,1016.6267136442474,5.1950251439221615,1.601026432274987,-6.813417104279839
5880.0,-2147003.3533387575,3693172.645168974,5241748.302919181,-3920385.022563408,-1687315.359902339,5244866.1573510645,1988.0153868181676,-7360.189833917165,-890.425214517234,5.053995856599036,2.1752161557199208,-6.761461355225869,6758662.117233719,1.4520958322856732,-0.5560488953612226,-0.05326134065320157,0.5992666496761246,3.1228952958694687,0.5074069285340671,-1.791335148390074,-5.796664426530129E-4,-9.423973384241231E-4,-2.544398113692687E-4,396766.59516904555,3.911586530120822E-12,1026.5544966775,5.053995856599036,2.1752161557199208,-6.761461355225869
5940.0,-2550364.1150762476,3524391.326956934,5176280.67960792,-3792102.132936806,-2124671.106306389,5179315.31406257,2286.435862357666,-7212.691460832755,-1293.7698291427835,4.889501080059293,2.739531084572976,-6.678160802189184,6758662.117233602,1.4564711015325642,-0.5531042160141035,-0.05326596949300023,0.613929116619595,3.095820825491733,0.5642406458191834,-1.7757007880961593,-5.886666983999233E-4,-9.366978859496003E-4,-2.5444245929405403E-4,396042.7680813001,4.115869047916003E-12,1036.695462365329,4.889501080059293,2.739531084572976,-6.678160802189184
6000.0,-2943472.7481823964,3342808.913350159,5086795.055076251,-3646223.85765256,-2552168.2886368264,5089732.388758346,2574.3010029659417,-7031.695941275688,-1691.1847670453644,4.7022841540798686,3.291355926217965,-6.563877834855085,6758662.117233777,1.4608463707794237,-0.5498694075688856,-0.05358879275218035,0.6281902283458056,3.068242759674337,0.6210770799052019,-1.761349571353669,-5.975842084486009E-4,-9.309434042159256E-4,-2.5436565385429395E-4,395194.6139107431,4.3374398301806944E-12,1046.9077224613184,4.7022841540798686,3.291355926217965,-6.563877834855085
6060.0,-3324618.9687076127,3149164.397206103,4973702.247395427,-3483423.9228945067,-2967821.1061421293,4976528.648446705,2850.2724295049297,-6818.029828462669,-2080.8255365533437,4.493194065855184,3.8281290126632195,-6.419117938760345,6758662.117234144,1.4652216400262512,-0.5463736536291093,-0.05422221141347425,0.6420276226934768,3.0399645051889284,0.6778774173750333,-1.7483717719953884,-6.064159045717462E-4,-9.251373514780582E-4,-2.54209712840536E-4,394231.9074835652,4.5749712853407575E-12,1057.064975373574,4.493194065855184,3.8281290126632195,-6.419117938760345
6120.0,-3692140.3824758115,2944238.010393845,4837522.685830568,-3304454.7675967477,-3369697.9247415992,4840225.034704607,3113.065783741169,-6572.671470020906,-2460.88222268252,4.263181891394918,4.347354157514226,-6.244527817590977,6758662.117233943,1.4695969092745076,-0.5426461865365275,-0.05515617332715114,0.655420593533606,3.0107552206346497,0.7346022804796343,-1.736899808748643,-6.151588319736488E-4,-9.192832600820958E-4,-2.5397500654467803E-4,393166.37938847794,4.82706078391673E-12,1067.0616326163995,4.263181891394918,4.347354157514226,-6.244527817590977
